$GPRMC,041936.28,V,,,,,,,260216,,,N*7F
$GPVTG,,,,,,,,,N*30
$GPGGA,041936.28,,,,,0,00,99.99,,,,,,*65
$GPGSA,A,1,,,,,,,,,,,,,99.99,99.99,99.99*30
$GPGSV,3,1,10,01,18,040,,06,24,156,,12,14,279,,15,23,256,*7A
$GPGSV,3,2,10,17,73,070,,19,68,204,,24,40,304,,28,43,081,*7D
$GPGSV,3,3,10*78
$GPGST,041936.28,0.0000,,,,5.8,5.8,5.8*47
$GPZDA,041936.28,26,02,2016,00,00*66
$GPGLL,,,,,041936.28,V,N*49
$GPRMC,041937.00,V,,,,,,,260216,,,N*74
$GPVTG,,,,,,,,,N*30
$GPGGA,041937.00,,,,,0,00,99.99,,,,,,*6E
$GPGSA,A,1,,,,,,,,,,,,,99.99,99.99,99.99*30
$GPGSV,3,1,10,01,18,040,,06,24,156,,12,14,279,,15,23,256,*7A
$GPGSV,3,2,10,17,73,070,,19,68,204,,24,40,304,,28,43,081,*7D
$GPGSV,3,3,10*78
$GPGLL,,,,,041937.00,V,N*42
$GPGST,041937.00,0.0000,,,,12,12,12*6C
$GPZDA,041937.00,26,02,2016,00,00*6D
$GPRMC,042116.75,V,,,,,,,260216,,,N*7E
$GPVTG,,,,,,,,,N*30
$GPGGA,042116.75,,,,,0,00,99.99,,,,,,*64
$GPGSA,A,1,,,,,,,,,,,,,99.99,99.99,99.99*30
$GPGSV,3,1,10,01,18,040,,06,24,156,,12,15,280,,15,23,256,*7D
$GPGSV,3,2,10,17,73,068,,19,69,204,,24,40,304,,28,43,082,*76
$GPGSV,3,3,10*78
$GPGLL,,,,,042116.75,V,N*48
$GPGST,042116.75,0.0000,,,,7.1,7.1,7.1*4D
$GPZDA,042116.75,26,02,2016,00,00*67
$GPRMC,042117.00,V,,,,,,,260216,,,N*7D
$GPVTG,,,,,,,,,N*30
$GPGGA,042117.00,,,,,0,00,99.99,,,,,,*67
$GPGSA,A,1,,,,,,,,,,,,,99.99,99.99,99.99*30
$GPGSV,3,1,10,01,18,040,,06,24,156,,12,15,280,,15,23,256,*7D
$GPGSV,3,2,10,17,73,068,,19,69,204,,24,40,304,,28,43,082,*76
$GPGSV,3,3,10*78
$GPGLL,,,,,042117.00,V,N*4B
$GPGST,042117.00,0.0000,,,,7.9,7.9,7.9*46
$GPZDA,042117.00,26,02,2016,00,00*64
$GPRMC,042118.00,V,,,,,,,260216,,,N*72
$GPVTG,,,,,,,,,N*30
$GPGGA,042118.00,,,,,0,06,1.81,,,,,,*56
$GPGSA,A,1,01,28,24,17,12,15,,,,,,,2.67,1.81,1.96*09
$GPGSV,3,1,10,01,18,040,34,06,24,156,,12,15,280,39,15,23,256,36*75
$GPGSV,3,2,10,17,73,068,41,19,69,204,,24,40,304,36,28,43,082,31*74
$GPGSV,3,3,10*78
$GPGLL,,,,,042118.00,V,N*44
$GPGST,042118.00,31,,,,66,30,74*75
$GPZDA,042118.00,26,02,2016,00,00*6B
$GPRMC,042119.00,A,4738.26184,N,12208.44177,W,0.203,1.21,260216,,,A*78
$GPVTG,1.21,T,,M,0.203,N,0.377,K,A*3D
$GPGGA,042119.00,4738.26184,N,12208.44177,W,1,06,1.81,116.1,M,-18.7,M,,*62
$GPGSA,A,3,01,28,24,17,12,15,,,,,,,2.67,1.81,1.96*0B
$GPGSV,3,1,10,01,18,040,35,06,24,156,,12,15,280,39,15,23,256,36*74
$GPGSV,3,2,10,17,73,068,41,19,69,204,,24,40,304,37,28,43,082,31*75
$GPGSV,3,3,10*78
$GPGLL,4738.26184,N,12208.44177,W,042119.00,A,A*7D
$GPGST,042119.00,14,,,,20,9.5,19*5B
$GPZDA,042119.00,26,02,2016,00,00*6A
$GPRMC,042120.00,A,4738.26131,N,12208.44128,W,0.231,4.07,260216,,,A*76
$GPVTG,4.07,T,,M,0.231,N,0.428,K,A*30
$GPGGA,042120.00,4738.26131,N,12208.44128,W,1,06,1.81,115.2,M,-18.7,M,,*6C
$GPGSA,A,3,01,28,24,17,12,15,,,,,,,2.67,1.81,1.96*0B
$GPGSV,3,1,10,01,18,040,34,06,24,156,,12,15,280,39,15,23,256,36*75
$GPGSV,3,2,10,17,73,068,41,19,69,204,40,24,40,304,37,28,43,082,31*71
$GPGSV,3,3,10*78
$GPGLL,4738.26131,N,12208.44128,W,042120.00,A,A*73
$GPGST,042120.00,13,,,,15,7.4,15*53
$GPZDA,042120.00,26,02,2016,00,00*60
$GPRMC,042121.00,A,4738.26129,N,12208.44131,W,0.185,,260216,,,A*67
$GPVTG,,T,,M,0.185,N,0.342,K,A*2A
$GPGGA,042121.00,4738.26129,N,12208.44131,W,1,06,1.81,113.0,M,-18.7,M,,*68
$GPGSA,A,3,01,28,24,17,12,15,,,,,,,2.67,1.81,1.96*0B
$GPGSV,3,1,10,01,18,040,34,06,24,156,,12,15,280,38,15,23,256,36*74
$GPGSV,3,2,10,17,73,068,40,19,69,204,40,24,40,304,37,28,43,082,31*70
$GPGSV,3,3,10*78
$GPGLL,4738.26129,N,12208.44131,W,042121.00,A,A*73
$GPGST,042121.00,13,,,,12,6.3,12*54
$GPZDA,042121.00,26,02,2016,00,00*61
$GPRMC,042122.00,A,4738.26189,N,12208.44130,W,0.121,,260216,,,A*61
$GPVTG,,T,,M,0.121,N,0.223,K,A*22
$GPGGA,042122.00,4738.26189,N,12208.44130,W,1,06,1.81,113.6,M,-18.7,M,,*66
$GPGSA,A,3,01,28,24,17,12,15,,,,,,,2.67,1.81,1.96*0B
$GPGSV,3,1,10,01,18,040,34,06,24,156,,12,15,280,39,15,23,256,36*75
$GPGSV,3,2,10,17,73,068,41,19,69,204,40,24,40,304,37,28,43,082,31*71
$GPGSV,3,3,10*78
$GPGLL,4738.26189,N,12208.44130,W,042122.00,A,A*7B
$GPGST,042122.00,13,,,,11,5.6,11*51
$GPZDA,042122.00,26,02,2016,00,00*62
$GPRMC,042123.00,A,4738.26197,N,12208.44129,W,0.191,,260216,,,A*6C
$GPVTG,,T,,M,0.191,N,0.355,K,A*29
$GPGGA,042123.00,4738.26197,N,12208.44129,W,1,06,1.81,113.6,M,-18.7,M,,*60
$GPGSA,A,3,01,28,24,17,12,15,,,,,,,2.67,1.81,1.96*0B
$GPGSV,3,1,10,01,18,040,35,06,24,156,,12,15,280,38,15,23,256,36*75
$GPGSV,3,3,10*78
$GPGLL,4738.26197,N,12208.44129,W,042123.00,A,A*7D
$GPGST,042123.00,13,,,,10,5.1,9.7*76
$GPZDA,042123.00,26,02,2016,00,00*63
$GPGSV,3,2,10,17,73,068,41,19,69,204,40,24,40,304,37,28,43,082,31*71
$GPRMC,042124.00,A,4738.26177,N,12208.44121,W,0.091,,260216,,,A*6C
$GPVTG,,T,,M,0.091,N,0.169,K,A*25
$GPGGA,042124.00,4738.26177,N,12208.44121,W,1,06,1.81,113.9,M,-18.7,M,,*6E
$GPGSA,A,3,01,28,24,17,12,15,,,,,,,2.67,1.81,1.96*0B
$GPGSV,3,1,10,01,18,040,35,06,24,156,,12,15,280,38,15,23,256,36*75
$GPGSV,3,2,10,17,73,068,41,19,69,204,40,24,40,304,37,28,43,082,31*71
$GPGSV,3,3,10*78
$GPGLL,4738.26177,N,12208.44121,W,042124.00,A,A*7C
$GPGST,042124.00,13,,,,9.4,4.7,8.8*5A
$GPZDA,042124.00,26,02,2016,00,00*64
$GPRMC,042125.00,A,4738.26186,N,12208.44120,W,0.184,,260216,,,A*67
$GPVTG,,T,,M,0.184,N,0.341,K,A*28
$GPGGA,042125.00,4738.26186,N,12208.44120,W,1,06,1.81,113.6,M,-18.7,M,,*6F
$GPGSA,A,3,01,28,24,17,12,15,,,,,,,2.67,1.81,1.96*0B
$GPGSV,3,1,10,01,18,040,35,06,24,156,,12,15,280,38,15,23,256,36*75
$GPGSV,3,2,10,17,73,068,40,19,69,204,40,24,40,304,37,28,43,082,31*70
$GPGSV,3,3,10*78
$GPGLL,4738.26186,N,12208.44120,W,042125.00,A,A*72
$GPGST,042125.00,13,,,,9.0,4.4,8.2*56
$GPZDA,042125.00,26,02,2016,00,00*65
$GPRMC,042126.00,A,4738.26194,N,12208.44122,W,0.154,,260216,,,A*68
$GPVTG,,T,,M,0.154,N,0.285,K,A*2C
$GPGGA,042126.00,4738.26194,N,12208.44122,W,1,06,1.81,113.4,M,-18.7,M,,*6F
$GPGSA,A,3,01,28,24,17,12,15,,,,,,,2.67,1.81,1.96*0B
$GPGSV,3,1,10,01,18,040,35,06,24,156,,12,15,280,38,15,23,255,36*76
$GPGSV,3,2,10,17,73,068,41,19,69,204,40,24,40,304,38,28,43,082,31*7E
$GPGSV,3,3,10*78
$GPGLL,4738.26194,N,12208.44122,W,042126.00,A,A*70
$GPGST,042126.00,12,,,,8.4,4.2,7.6*5C
$GPZDA,042126.00,26,02,2016,00,00*66
$GPRMC,042127.00,A,4738.26199,N,12208.44118,W,0.214,3.45,260216,,,A*76
$GPVTG,3.45,T,,M,0.214,N,0.396,K,A*34
$GPGGA,042127.00,4738.26199,N,12208.44118,W,1,06,1.81,113.3,M,-18.7,M,,*6D
$GPGSA,A,3,01,28,24,17,12,15,,,,,,,2.67,1.81,1.96*0B
$GPGSV,3,1,10,01,18,040,35,06,24,156,,12,15,280,38,15,23,255,36*76
$GPGSV,3,2,10,17,73,068,41,19,69,204,40,24,40,304,37,28,43,082,31*71
$GPGSV,3,3,10*78
$GPGLL,4738.26199,N,12208.44118,W,042127.00,A,A*75
$GPGST,042127.00,13,,,,8.2,4.0,7.2*5C
$GPZDA,042127.00,26,02,2016,00,00*67
$GPRMC,042128.00,A,4738.26212,N,12208.44115,W,0.399,3.82,260216,,,A*7B
$GPVTG,3.82,T,,M,0.399,N,0.740,K,A*34
$GPGGA,042128.00,4738.26212,N,12208.44115,W,1,06,1.81,113.2,M,-18.7,M,,*6E
$GPGSA,A,3,01,28,24,17,12,15,,,,,,,2.67,1.81,1.96*0B
$GPGSV,3,1,10,01,18,040,35,06,24,156,,12,15,280,38,15,23,255,36*76
$GPGSV,3,2,10,17,73,068,41,19,69,204,40,24,40,304,37,28,43,082,32*72
$GPGSV,3,3,10*78
$GPGLL,4738.26212,N,12208.44115,W,042128.00,A,A*77
$GPGST,042128.00,12,,,,8.1,3.9,6.8*54
$GPZDA,042128.00,26,02,2016,00,00*68
$GPRMC,042129.00,A,4738.26238,N,12208.44112,W,0.413,3.96,260216,,,A*75
$GPVTG,3.96,T,,M,0.413,N,0.765,K,A*33
$GPGSA,A,3,01,28,24,17,12,15,,,,,,,2.67,1.81,1.96*0B
$GPGGA,042129.00,4738.26238,N,12208.44112,W,1,06,1.81,113.1,M,-18.7,M,,*63
$GPGSV,3,1,10,01,18,040,34,06,24,156,,12,15,280,38,15,23,255,36*77
$GPGSV,3,2,10,17,73,068,41,19,69,204,40,24,40,304,38,28,43,082,32*7D
$GPGSV,3,3,10*78
$GPGLL,4738.26238,N,12208.44112,W,042129.00,A,A*79
$GPGST,042129.00,12,,,,7.9,3.7,6.5*51
$GPZDA,042129.00,26,02,2016,00,00*69
$GPRMC,042130.00,A,4738.26265,N,12208.44114,W,0.160,,260216,,,A*60
$GPVTG,,T,,M,0.160,N,0.296,K,A*29
$GPGGA,042130.00,4738.26265,N,12208.44114,W,1,06,1.81,113.1,M,-18.7,M,,*65
$GPGSA,A,3,01,28,24,17,12,15,,,,,,,2.67,1.81,1.96*0B
$GPGSV,3,1,10,01,18,040,34,06,24,156,,12,15,280,38,15,23,255,37*76
$GPGSV,3,2,10,17,73,068,41,19,69,204,40,24,40,304,38,28,43,082,32*7D
$GPGSV,3,3,10*78
$GPGLL,4738.26265,N,12208.44114,W,042130.00,A,A*7F
$GPGST,042130.00,12,,,,7.6,3.6,6.2*50
$GPZDA,042130.00,26,02,2016,00,00*61
$GPRMC,042131.00,A,4738.26285,N,12208.44114,W,0.270,13.63,260216,,,A*44
$GPVTG,13.63,T,,M,0.270,N,0.500,K,A*0A
$GPGGA,042131.00,4738.26285,N,12208.44114,W,1,06,1.81,113.0,M,-18.7,M,,*6B
$GPGSA,A,3,01,28,24,17,12,15,,,,,,,2.67,1.81,1.96*0B
$GPGSV,3,1,10,01,18,040,34,06,24,156,,12,15,280,38,15,23,255,37*76
$GPGSV,3,2,10,17,73,068,41,19,69,204,40,24,40,304,38,28,43,082,32*7D
$GPGSV,3,3,10*78
$GPGLL,4738.26285,N,12208.44114,W,042131.00,A,A*70
$GPGST,042131.00,12,,,,7.4,3.5,6.0*52
$GPZDA,042131.00,26,02,2016,00,00*60
$GPRMC,042132.00,A,4738.26317,N,12208.44123,W,0.591,12.13,260216,,,A*47
$GPVTG,12.13,T,,M,0.591,N,1.096,K,A*0F
$GPGGA,042132.00,4738.26317,N,12208.44123,W,1,06,1.81,112.8,M,-18.7,M,,*6F
$GPGSA,A,3,01,28,24,17,12,15,,,,,,,2.67,1.81,1.96*0B
$GPGSV,3,1,10,01,18,040,34,06,24,156,,12,15,280,38,15,23,255,37*76
$GPGSV,3,2,10,17,73,068,41,19,69,204,40,24,40,304,37,28,43,082,32*72
$GPGSV,3,3,10*78
$GPGLL,4738.26317,N,12208.44123,W,042132.00,A,A*7D
$GPGST,042132.00,12,,,,7.4,3.5,5.8*5A
$GPZDA,042132.00,26,02,2016,00,00*63
$GPRMC,042133.00,A,4738.26347,N,12208.44130,W,0.603,10.15,260216,,,A*4D
$GPVTG,10.15,T,,M,0.603,N,1.117,K,A*0B
$GPGGA,042133.00,4738.26347,N,12208.44130,W,1,06,1.81,112.5,M,-18.7,M,,*64
$GPGSA,A,3,01,28,24,17,12,15,,,,,,,2.67,1.81,1.96*0B
$GPGSV,3,1,10,01,18,040,33,06,24,156,,12,15,280,38,15,23,255,37*71
$GPGSV,3,2,10,17,73,068,41,19,69,204,40,24,40,304,38,28,43,082,33*7C
$GPGSV,3,3,10*78
$GPGLL,4738.26347,N,12208.44130,W,042133.00,A,A*7B
$GPGST,042133.00,12,,,,7.3,3.4,5.6*53
$GPZDA,042133.00,26,02,2016,00,00*62
$GPRMC,042134.00,A,4738.26369,N,12208.44129,W,0.288,9.44,260216,,,A*75
$GPVTG,9.44,T,,M,0.288,N,0.534,K,A*34
$GPGGA,042134.00,4738.26369,N,12208.44129,W,1,06,1.81,112.3,M,-18.7,M,,*61
$GPGSA,A,3,01,28,24,17,12,15,,,,,,,2.67,1.81,1.96*0B
$GPGSV,3,1,10,01,18,040,33,06,24,156,,12,15,280,38,15,23,255,37*71
$GPGSV,3,2,10,17,73,068,41,19,69,204,40,24,40,304,37,28,43,082,33*73
$GPGSV,3,3,10*78
$GPGLL,4738.26369,N,12208.44129,W,042134.00,A,A*78
$GPGST,042134.00,12,,,,7.4,3.4,5.4*51
$GPZDA,042134.00,26,02,2016,00,00*65
$GPRMC,042135.00,A,4738.26385,N,12208.44125,W,0.120,,260216,,,A*6C
$GPVTG,,T,,M,0.120,N,0.222,K,A*22
$GPGGA,042135.00,4738.26385,N,12208.44125,W,1,06,1.81,112.1,M,-18.7,M,,*6C
$GPGSA,A,3,01,28,24,17,12,15,,,,,,,2.67,1.81,1.96*0B
$GPGSV,3,1,10,01,18,040,32,06,24,156,,12,15,280,37,15,23,255,37*7F
$GPGSV,3,2,10,17,73,068,40,19,69,204,40,24,41,304,37,28,43,082,33*73
$GPGSV,3,3,10*78
$GPGLL,4738.26385,N,12208.44125,W,042135.00,A,A*77
$GPGST,042135.00,13,,,,7.5,3.4,5.3*57
$GPZDA,042135.00,26,02,2016,00,00*64
$GPRMC,042136.00,A,4738.26408,N,12208.44109,W,0.652,9.50,260216,,,A*73
$GPVTG,9.50,T,,M,0.652,N,1.208,K,A*3B
$GPGGA,042136.00,4738.26408,N,12208.44109,W,1,06,1.81,111.8,M,-18.7,M,,*69
$GPGSA,A,3,01,28,24,17,12,15,,,,,,,2.67,1.81,1.96*0B
$GPGSV,3,1,10,01,18,040,32,06,24,156,,12,15,280,38,15,23,255,37*70
$GPGSV,3,2,10,17,73,068,41,19,69,204,41,24,41,304,38,28,43,082,33*7C
$GPGSV,3,3,10*78
$GPGLL,4738.26408,N,12208.44109,W,042136.00,A,A*78
$GPGST,042136.00,12,,,,7.4,3.4,5.2*55
$GPZDA,042136.00,26,02,2016,00,00*67
$GPRMC,042137.00,A,4738.26423,N,12208.44101,W,0.171,,260216,,,A*67
$GPVTG,,T,,M,0.171,N,0.317,K,A*21
$GPGGA,042137.00,4738.26423,N,12208.44101,W,1,06,1.81,111.6,M,-18.7,M,,*67
$GPGSA,A,3,01,28,24,17,12,15,,,,,,,2.67,1.81,1.96*0B
$GPGSV,3,1,10,01,18,040,32,06,24,156,,12,15,280,38,15,23,255,37*70
$GPGSV,3,2,10,17,73,068,40,19,69,204,40,24,41,304,38,28,43,082,33*7C
$GPGSV,3,3,10*78
$GPGLL,4738.26423,N,12208.44101,W,042137.00,A,A*78
$GPGST,042137.00,12,,,,7.3,3.3,5.1*57
$GPZDA,042137.00,26,02,2016,00,00*66
$GPRMC,042138.00,A,4738.26448,N,12208.44094,W,0.503,9.43,260216,,,A*79
$GPVTG,9.43,T,,M,0.503,N,0.933,K,A*3C
$GPGGA,042138.00,4738.26448,N,12208.44094,W,1,06,1.81,111.5,M,-18.7,M,,*6B
$GPGSA,A,3,01,28,24,17,12,15,,,,,,,2.67,1.81,1.96*0B
$GPGSV,3,1,10,01,18,040,32,06,24,156,,12,15,280,37,15,23,255,37*7F
$GPGSV,3,2,10,17,73,068,40,19,69,204,40,24,41,304,38,28,43,082,33*7C
$GPGSV,3,3,10*78
$GPGLL,4738.26448,N,12208.44094,W,042138.00,A,A*77
$GPGST,042138.00,12,,,,7.3,3.3,5.0*59
$GPZDA,042138.00,26,02,2016,00,00*69
$GPRMC,042139.00,A,4738.26469,N,12208.44090,W,0.242,9.11,260216,,,A*7A
$GPVTG,9.11,T,,M,0.242,N,0.449,K,A*39
$GPGGA,042139.00,4738.26469,N,12208.44090,W,1,06,1.81,111.3,M,-18.7,M,,*6B
$GPGSA,A,3,01,28,24,17,12,15,,,,,,,2.67,1.81,1.96*0B
$GPGSV,3,1,10,01,18,040,32,06,24,156,,12,15,280,37,15,23,255,37*7F
$GPGSV,3,2,10,17,73,068,40,19,69,204,41,24,41,304,38,28,43,082,33*7D
$GPGSV,3,3,10*78
$GPGLL,4738.26469,N,12208.44090,W,042139.00,A,A*71
$GPGST,042139.00,12,,,,7.3,3.3,4.9*50
$GPZDA,042139.00,26,02,2016,00,00*68
$GPRMC,042140.00,A,4738.26485,N,12208.44088,W,0.151,,260216,,,A*69
$GPVTG,,T,,M,0.151,N,0.280,K,A*2C
$GPGGA,042140.00,4738.26485,N,12208.44088,W,1,06,1.81,111.1,M,-18.7,M,,*6C
$GPGSA,A,3,01,28,24,17,12,15,,,,,,,2.67,1.81,1.96*0B
$GPGSV,3,1,10,01,18,040,31,06,24,156,,12,15,280,37,15,23,255,37*7C
$GPGSV,3,2,10,17,73,068,40,19,69,204,40,24,41,304,38,28,43,082,33*7C
$GPGSV,3,3,10*78
$GPGLL,4738.26485,N,12208.44088,W,042140.00,A,A*74
$GPGST,042140.00,13,,,,7.3,3.3,4.8*5E
$GPZDA,042140.00,26,02,2016,00,00*66
$GPRMC,042141.00,A,4738.26491,N,12208.44083,W,0.285,1.03,260216,,,A*70
$GPVTG,1.03,T,,M,0.285,N,0.529,K,A*3E
$GPGGA,042141.00,4738.26491,N,12208.44083,W,1,06,1.81,110.9,M,-18.7,M,,*6A
$GPGSA,A,3,01,28,24,17,12,15,,,,,,,2.66,1.81,1.96*0A
$GPGSV,3,1,10,01,18,040,30,06,24,156,,12,15,280,37,15,23,255,37*7D
$GPGSV,3,2,10,17,73,068,40,19,69,204,40,24,41,304,38,28,43,082,34*7B
$GPGSV,3,3,10*78
$GPGLL,4738.26491,N,12208.44083,W,042141.00,A,A*7B
$GPGST,042141.00,13,,,,7.3,3.2,4.7*51
$GPZDA,042141.00,26,02,2016,00,00*67
$GPRMC,042142.00,A,4738.26499,N,12208.44079,W,0.031,,260216,,,A*6F
$GPVTG,,T,,M,0.031,N,0.058,K,A*2C
$GPGGA,042142.00,4738.26499,N,12208.44079,W,1,06,1.80,110.6,M,-18.7,M,,*6A
$GPGSA,A,3,01,28,24,17,12,15,,,,,,,2.66,1.80,1.96*0B
$GPGSV,3,1,10,01,18,040,29,06,24,156,,12,15,280,37,15,23,255,37*75
$GPGSV,3,2,10,17,73,068,40,19,69,204,40,24,41,304,38,28,43,082,34*7B
$GPGSV,3,3,10*78
$GPGLL,4738.26499,N,12208.44079,W,042142.00,A,A*75
$GPGST,042142.00,14,,,,7.4,3.2,4.6*53
$GPZDA,042142.00,26,02,2016,00,00*64
$GPRMC,042143.00,A,4738.26514,N,12208.44063,W,0.234,2.54,260216,,,A*7B
$GPVTG,2.54,T,,M,0.234,N,0.433,K,A*3F
$GPGGA,042143.00,4738.26514,N,12208.44063,W,1,06,1.80,110.4,M,-18.7,M,,*66
$GPGSA,A,3,01,28,24,17,12,15,,,,,,,2.66,1.80,1.96*0B
$GPGSV,3,1,10,01,18,040,29,06,24,156,,12,15,280,37,15,23,255,37*75
$GPGSV,3,2,10,17,73,068,40,19,69,204,40,24,41,304,38,28,43,082,34*7B
$GPGSV,3,3,10*78
$GPGLL,4738.26514,N,12208.44063,W,042143.00,A,A*7B
$GPGST,042143.00,14,,,,7.4,3.2,4.6*52
$GPZDA,042143.00,26,02,2016,00,00*65
$GPRMC,042144.00,A,4738.26530,N,12208.44047,W,0.252,2.08,260216,,,A*75
$GPVTG,2.08,T,,M,0.252,N,0.466,K,A*36
$GPGGA,042144.00,4738.26530,N,12208.44047,W,1,06,1.80,110.1,M,-18.7,M,,*64
$GPGSA,A,3,01,28,24,17,12,15,,,,,,,2.66,1.80,1.96*0B
$GPGSV,3,1,10,01,18,040,29,06,24,156,,12,15,280,37,15,23,255,37*75
$GPGSV,3,3,10*78
$GPGLL,4738.26530,N,12208.44047,W,042144.00,A,A*7C
$GPGST,042144.00,14,,,,7.5,3.2,4.5*57
$GPGSV,3,2,10,17,73,068,40,19,69,204,40,24,41,304,38,28,43,082,34*7B
$GPZDA,042144.00,26,02,2016,00,00*62
$GPRMC,042145.00,A,4738.26555,N,12208.44030,W,0.529,1.93,260216,,,A*7D
$GPVTG,1.93,T,,M,0.529,N,0.981,K,A*38
$GPGGA,042145.00,4738.26555,N,12208.44030,W,1,06,1.80,110.0,M,-18.7,M,,*67
$GPGSA,A,3,01,28,24,17,12,15,,,,,,,2.66,1.80,1.96*0B
$GPGSV,3,1,10,01,18,040,29,06,24,156,,12,15,280,37,15,23,255,37*75
$GPGSV,3,2,10,17,73,068,40,19,69,204,40,24,41,304,38,28,43,082,34*7B
$GPGSV,3,3,10*78
$GPGLL,4738.26555,N,12208.44030,W,042145.00,A,A*7E
$GPGST,042145.00,14,,,,7.5,3.2,4.5*56
$GPZDA,042145.00,26,02,2016,00,00*63
$GPRMC,042146.00,A,4738.26579,N,12208.44019,W,0.149,,260216,,,A*6C
$GPVTG,,T,,M,0.149,N,0.277,K,A*2D
$GPGGA,042146.00,4738.26579,N,12208.44019,W,1,06,1.80,109.8,M,-18.7,M,,*61
$GPGSA,A,3,01,28,24,17,12,15,,,,,,,2.66,1.80,1.96*0B
$GPGSV,3,1,10,01,18,040,28,06,24,156,,12,15,280,37,15,23,255,37*74
$GPGSV,3,2,10,17,73,068,40,19,69,204,40,24,41,303,37,28,43,082,34*73
$GPGSV,3,3,10*78
$GPGLL,4738.26579,N,12208.44019,W,042146.00,A,A*78
$GPGST,042146.00,15,,,,7.7,3.2,4.4*57
$GPZDA,042146.00,26,02,2016,00,00*60
$GPRMC,042147.00,A,4738.26604,N,12208.44005,W,0.294,4.60,260216,,,A*76
$GPVTG,4.60,T,,M,0.294,N,0.545,K,A*34
$GPGGA,042147.00,4738.26604,N,12208.44005,W,1,06,1.80,109.7,M,-18.7,M,,*6B
$GPGSA,A,3,01,28,24,17,12,15,,,,,,,2.66,1.80,1.96*0B
$GPGSV,3,3,10*78
$GPGSV,3,1,10,01,18,040,28,06,24,156,,12,15,280,37,15,23,255,37*74
$GPGSV,3,2,10,17,73,068,40,19,69,204,40,24,41,303,37,28,43,082,34*73
$GPGLL,4738.26604,N,12208.44005,W,042147.00,A,A*7D
$GPZDA,042147.00,26,02,2016,00,00*61
$GPGST,042147.00,15,,,,7.8,3.2,4.4*59
$GPRMC,042148.00,A,4738.26608,N,12208.43988,W,0.218,4.70,260216,,,A*7B
$GPVTG,4.70,T,,M,0.218,N,0.404,K,A*35
$GPGGA,042148.00,4738.26608,N,12208.43988,W,1,06,1.80,109.5,M,-18.7,M,,*61
$GPGSA,A,3,01,28,24,17,12,15,,,,,,,2.66,1.80,1.96*0B
$GPGSV,3,1,10,01,18,040,27,06,24,156,,12,15,280,37,15,23,255,36*7A
$GPGSV,3,2,10,17,73,068,40,19,69,204,40,24,41,303,38,28,43,082,33*7B
$GPGSV,3,3,10*78
$GPGLL,4738.26608,N,12208.43988,W,042148.00,A,A*75
$GPGST,042148.00,16,,,,7.9,3.2,4.3*53
$GPZDA,042148.00,26,02,2016,00,00*6E
$GPRMC,042149.00,A,4738.26608,N,12208.43972,W,0.093,,260216,,,A*63
$GPVTG,,T,,M,0.093,N,0.172,K,A*2D
$GPGGA,042149.00,4738.26608,N,12208.43972,W,1,06,1.80,109.3,M,-18.7,M,,*63
$GPGSA,A,3,01,28,24,17,12,15,,,,,,,2.66,1.80,1.96*0B
$GPGSV,3,1,10,01,18,040,26,06,24,156,,12,15,280,37,15,23,255,37*7A
$GPGSV,3,2,10,17,73,068,40,19,69,204,40,24,41,303,38,28,43,082,33*7B
$GPGSV,3,3,10*78
$GPGLL,4738.26608,N,12208.43972,W,042149.00,A,A*71
$GPGST,042149.00,17,,,,7.9,3.2,4.3*53
$GPZDA,042149.00,26,02,2016,00,00*6F
$GPRMC,042150.00,A,4738.26607,N,12208.43965,W,0.161,,260216,,,A*6E
$GPVTG,,T,,M,0.161,N,0.298,K,A*26
$GPGGA,042150.00,4738.26607,N,12208.43965,W,1,06,1.80,109.2,M,-18.7,M,,*63
$GPGSA,A,3,01,28,24,17,12,15,,,,,,,2.66,1.80,1.96*0B
$GPGSV,3,1,10,01,18,040,26,06,24,156,,12,15,280,37,15,23,255,36*7B
$GPGSV,3,2,10,17,73,068,40,19,69,204,40,24,41,303,38,28,43,082,33*7B
$GPGSV,3,3,10*78
$GPGLL,4738.26607,N,12208.43965,W,042150.00,A,A*70
$GPGST,042150.00,17,,,,8.0,3.2,4.3*5D
$GPZDA,042150.00,26,02,2016,00,00*67
$GPRMC,042151.00,A,4738.26599,N,12208.43946,W,0.263,11.98,260216,,,A*44
$GPVTG,11.98,T,,M,0.263,N,0.487,K,A*00
$GPGGA,042151.00,4738.26599,N,12208.43946,W,1,06,1.80,109.0,M,-18.7,M,,*65
$GPGSA,A,3,01,28,24,17,12,15,,,,,,,2.66,1.80,1.96*0B
$GPGSV,3,1,10,01,18,040,26,06,24,156,,12,15,280,37,15,23,255,36*7B
$GPGSV,3,2,10,17,73,068,40,19,69,204,40,24,41,303,38,28,43,082,33*7B
$GPGSV,3,3,10*78
$GPGLL,4738.26599,N,12208.43946,W,042151.00,A,A*74
$GPGST,042151.00,17,,,,8.0,3.3,4.2*5C
$GPZDA,042151.00,26,02,2016,00,00*66
$GPRMC,042152.00,A,4738.26598,N,12208.43930,W,0.358,11.74,260216,,,A*4C
$GPVTG,11.74,T,,M,0.358,N,0.663,K,A*03
$GPGGA,042152.00,4738.26598,N,12208.43930,W,1,06,1.80,108.9,M,-18.7,M,,*6E
$GPGSA,A,3,01,28,24,17,12,15,,,,,,,2.66,1.80,1.96*0B
$GPGSV,3,1,10,01,18,040,25,06,24,156,,12,15,280,37,15,23,255,36*78
$GPGSV,3,2,10,17,73,068,40,19,69,204,40,24,41,303,38,28,43,082,34*7C
$GPGSV,3,3,10*78
$GPGLL,4738.26598,N,12208.43930,W,042152.00,A,A*77
$GPGST,042152.00,18,,,,8.1,3.2,4.2*50
$GPZDA,042152.00,26,02,2016,00,00*65
$GPRMC,042153.00,A,4738.26594,N,12208.43914,W,0.458,12.31,260216,,,A*42
$GPVTG,12.31,T,,M,0.458,N,0.848,K,A*01
$GPGGA,042153.00,4738.26594,N,12208.43914,W,1,06,1.80,108.7,M,-18.7,M,,*6B
$GPGSA,A,3,01,28,24,17,12,15,,,,,,,2.66,1.80,1.96*0B
$GPGSV,3,1,10,01,18,040,25,06,24,156,,12,15,280,37,15,23,255,36*78
$GPGSV,3,2,10,17,73,068,40,19,69,204,40,24,41,303,38,28,43,082,34*7C
$GPGLL,4738.26594,N,12208.43914,W,042153.00,A,A*7C
$GPGST,042153.00,18,,,,8.1,3.2,4.2*51
$GPZDA,042153.00,26,02,2016,00,00*64
$GPGSV,3,3,10*78
$GPRMC,042154.00,A,4738.26589,N,12208.43900,W,0.311,14.90,260216,,,A*4B
$GPVTG,14.90,T,,M,0.311,N,0.576,K,A*06
$GPGGA,042154.00,4738.26589,N,12208.43900,W,1,06,1.80,108.6,M,-18.7,M,,*64
$GPGSA,A,3,01,28,24,17,12,15,,,,,,,2.66,1.80,1.96*0B
$GPGSV,3,1,10,01,18,040,26,06,24,156,,12,15,280,37,15,23,255,36*7B
$GPGSV,3,2,10,17,73,068,40,19,69,204,40,24,41,303,38,28,43,082,34*7C
$GPGLL,4738.26589,N,12208.43900,W,042154.00,A,A*72
$GPGSV,3,3,10*78
$GPGST,042154.00,17,,,,8.2,3.2,4.2*5A
$GPZDA,042154.00,26,02,2016,00,00*63
$GPRMC,042155.00,A,4738.26572,N,12208.43890,W,0.285,5.09,260216,,,A*7A
$GPVTG,5.09,T,,M,0.285,N,0.529,K,A*30
$GPGGA,042155.00,4738.26572,N,12208.43890,W,1,06,1.80,108.4,M,-18.7,M,,*6B
$GPGSA,A,3,01,28,24,17,12,15,,,,,,,2.66,1.80,1.96*0B
$GPGSV,3,1,10,01,18,040,26,06,24,156,,12,15,280,37,15,23,255,36*7B
$GPGSV,3,2,10,17,73,068,40,19,69,204,40,24,41,303,38,28,43,082,34*7C
$GPGSV,3,3,10*78
$GPGLL,4738.26572,N,12208.43890,W,042155.00,A,A*7F
$GPGST,042155.00,17,,,,8.2,3.2,4.1*58
$GPZDA,042155.00,26,02,2016,00,00*62
$GPRMC,042156.00,A,4738.26554,N,12208.43881,W,0.050,,260216,,,A*65
$GPVTG,,T,,M,0.050,N,0.092,K,A*2D
$GPGGA,042156.00,4738.26554,N,12208.43881,W,1,06,1.80,108.3,M,-18.7,M,,*6B
$GPGSA,A,3,01,28,24,17,12,15,,,,,,,2.66,1.80,1.96*0B
$GPGSV,3,1,10,01,18,040,26,06,24,156,,12,15,280,37,15,23,255,36*7B
$GPGSV,3,2,10,17,73,068,40,19,69,204,40,24,41,303,38,28,43,082,33*7B
$GPGSV,3,3,10*78
$GPGLL,4738.26554,N,12208.43881,W,042156.00,A,A*78
$GPGST,042156.00,17,,,,8.2,3.2,4.1*5B
$GPZDA,042156.00,26,02,2016,00,00*61
$GPRMC,042157.00,A,4738.26539,N,12208.43873,W,0.137,,260216,,,A*62
$GPVTG,,T,,M,0.137,N,0.255,K,A*24
$GPGGA,042157.00,4738.26539,N,12208.43873,W,1,06,1.80,108.1,M,-18.7,M,,*6E
$GPGSA,A,3,01,28,24,17,12,15,,,,,,,2.66,1.80,1.96*0B
$GPGSV,3,1,10,01,18,040,27,06,24,156,,12,15,280,36,15,23,255,36*7B
$GPGSV,3,2,10,17,73,068,40,19,69,204,40,24,41,303,38,28,43,082,33*7B
$GPGSV,3,3,10*78
$GPGLL,4738.26539,N,12208.43873,W,042157.00,A,A*7F
$GPGST,042157.00,16,,,,8.2,3.2,4.1*5B
$GPZDA,042157.00,26,02,2016,00,00*60
$GPRMC,042158.00,A,4738.26509,N,12208.43862,W,0.094,,260216,,,A*66
$GPVTG,,T,,M,0.094,N,0.174,K,A*2C
$GPGGA,042158.00,4738.26509,N,12208.43862,W,1,06,1.80,107.9,M,-18.7,M,,*65
$GPGSA,A,3,01,28,24,17,12,15,,,,,,,2.66,1.80,1.96*0B
$GPGSV,3,1,10,01,18,040,28,06,24,156,,12,15,280,36,15,23,255,35*77
$GPGSV,3,2,10,17,73,068,40,19,69,204,40,24,41,303,39,28,43,082,33*7A
$GPGSV,3,3,10*78
$GPGLL,4738.26509,N,12208.43862,W,042158.00,A,A*73
$GPGST,042158.00,15,,,,8.1,3.2,4.0*55
$GPZDA,042158.00,26,02,2016,00,00*6F
$GPRMC,042159.00,A,4738.26490,N,12208.43851,W,0.168,,260216,,,A*64
$GPVTG,,T,,M,0.168,N,0.311,K,A*2F
$GPGGA,042159.00,4738.26490,N,12208.43851,W,1,06,1.80,107.8,M,-18.7,M,,*64
$GPGSA,A,3,01,28,24,17,12,15,,,,,,,2.66,1.80,1.96*0B
$GPGSV,3,1,10,01,18,040,29,06,24,156,,12,15,280,36,15,23,255,35*76
$GPGSV,3,2,10,17,73,068,40,19,69,204,40,24,41,303,39,28,43,082,33*7A
$GPGSV,3,3,10*78
$GPGLL,4738.26490,N,12208.43851,W,042159.00,A,A*73
$GPGST,042159.00,15,,,,8.0,3.2,4.0*55
$GPZDA,042159.00,26,02,2016,00,00*6E
$GPRMC,042200.00,A,4738.26476,N,12208.43847,W,0.213,4.39,260216,,,A*7B
$GPVTG,4.39,T,,M,0.213,N,0.394,K,A*3D
$GPGGA,042200.00,4738.26476,N,12208.43847,W,1,06,1.80,107.6,M,-18.7,M,,*6A
$GPGSA,A,3,01,28,24,17,12,15,,,,,,,2.66,1.80,1.96*0B
$GPGSV,3,1,10,01,18,040,30,06,24,156,,12,15,280,36,15,23,255,35*7E
$GPGSV,3,2,10,17,73,068,40,19,69,204,40,24,41,303,39,28,43,082,33*7A
$GPGSV,3,3,10*78
$GPGLL,4738.26476,N,12208.43847,W,042200.00,A,A*73
$GPGST,042200.00,14,,,,8.0,3.2,4.0*5B
$GPZDA,042200.00,26,02,2016,00,00*61
$GPRMC,042201.00,A,4738.26433,N,12208.43858,W,0.179,,260216,,,A*6A
$GPVTG,,T,,M,0.179,N,0.333,K,A*2F
$GPGGA,042201.00,4738.26433,N,12208.43858,W,1,06,1.80,107.7,M,-18.7,M,,*65
$GPGSA,A,3,01,28,24,17,12,15,,,,,,,2.66,1.80,1.96*0B
$GPGSV,3,1,10,01,18,040,31,06,24,156,,12,15,280,36,15,23,255,35*7F
$GPGSV,3,2,10,17,73,068,40,19,69,204,40,24,41,303,39,28,43,082,33*7A
$GPGSV,3,3,10*78
$GPGLL,4738.26433,N,12208.43858,W,042201.00,A,A*7D
$GPGST,042201.00,14,,,,7.9,3.2,4.0*5C
$GPZDA,042201.00,26,02,2016,00,00*60
$GPRMC,042202.00,A,4738.26384,N,12208.43865,W,0.296,353.41,260216,,,A*70
$GPVTG,353.41,T,,M,0.296,N,0.548,K,A*39
$GPGGA,042202.00,4738.26384,N,12208.43865,W,1,06,1.80,107.7,M,-18.7,M,,*63
$GPGSA,A,3,01,28,24,17,12,15,,,,,,,2.66,1.80,1.96*0B
$GPGSV,3,1,10,01,18,040,31,06,24,156,,12,15,280,36,15,23,255,35*7F
$GPGSV,3,2,10,17,73,068,40,19,69,204,39,24,41,303,39,28,43,082,34*73
$GPGSV,3,3,10*78
$GPGLL,4738.26384,N,12208.43865,W,042202.00,A,A*7B
$GPGST,042202.00,13,,,,7.9,3.2,3.9*56
$GPZDA,042202.00,26,02,2016,00,00*63
$GPRMC,042203.00,A,4738.26341,N,12208.43861,W,0.445,3.95,260216,,,A*7B
$GPVTG,3.95,T,,M,0.445,N,0.824,K,A*39
$GPGGA,042203.00,4738.26341,N,12208.43861,W,1,06,1.80,107.6,M,-18.7,M,,*6E
$GPGSA,A,3,01,28,24,17,12,15,,,,,,,2.66,1.80,1.96*0B
$GPGSV,3,1,10,01,18,040,31,06,24,156,,12,15,280,36,15,23,255,35*7F
$GPGSV,3,2,10,17,73,068,40,19,69,204,40,24,41,303,39,28,43,082,34*7D
$GPGSV,3,3,10*78
$GPGLL,4738.26341,N,12208.43861,W,042203.00,A,A*77
$GPGST,042203.00,13,,,,7.9,3.2,3.9*57
$GPZDA,042203.00,26,02,2016,00,00*62
$GPRMC,042204.00,A,4738.26299,N,12208.43869,W,0.589,353.03,260216,,,A*78
$GPVTG,353.03,T,,M,0.589,N,1.091,K,A*36
$GPGGA,042204.00,4738.26299,N,12208.43869,W,1,06,1.80,107.6,M,-18.7,M,,*65
$GPGSA,A,3,01,28,24,17,12,15,,,,,,,2.66,1.80,1.96*0B
$GPGSV,3,1,10,01,18,040,32,06,24,156,,12,15,280,36,15,23,255,34*7D
$GPGSV,3,2,10,17,73,068,40,19,69,204,40,24,41,303,39,28,43,082,34*7D
$GPGSV,3,3,10*78
$GPGLL,4738.26299,N,12208.43869,W,042204.00,A,A*7C
$GPGST,042204.00,13,,,,7.9,3.2,3.9*50
$GPZDA,042204.00,26,02,2016,00,00*65
$GPRMC,042205.00,A,4738.26260,N,12208.43874,W,0.694,342.65,260216,,,A*7C
$GPVTG,342.65,T,,M,0.694,N,1.285,K,A*3E
$GPGGA,042205.00,4738.26260,N,12208.43874,W,1,06,1.80,107.6,M,-18.7,M,,*6E
$GPGSA,A,3,01,28,24,17,12,15,,,,,,,2.66,1.80,1.96*0B
$GPGSV,3,1,10,01,18,040,32,06,24,156,,12,15,280,36,15,23,255,34*7D
$GPGSV,3,2,10,17,73,068,40,19,69,204,40,24,41,303,39,28,43,082,34*7D
$GPGSV,3,3,10*78
$GPGLL,4738.26260,N,12208.43874,W,042205.00,A,A*77
$GPGST,042205.00,13,,,,7.9,3.2,3.8*50
$GPZDA,042205.00,26,02,2016,00,00*64
$GPRMC,042206.00,A,4738.26244,N,12208.43876,W,0.246,334.10,260216,,,A*73
$GPVTG,334.10,T,,M,0.246,N,0.457,K,A*3E
$GPGGA,042206.00,4738.26244,N,12208.43876,W,1,06,1.80,107.5,M,-18.7,M,,*6A
$GPGSA,A,3,01,28,24,17,12,15,,,,,,,2.66,1.80,1.96*0B
$GPGSV,3,1,10,01,18,040,33,06,24,156,,12,15,280,36,15,23,255,34*7C
$GPGSV,3,2,10,17,73,068,40,19,69,204,40,24,41,303,39,28,43,082,34*7D
$GPGSV,3,3,10*78
$GPGLL,4738.26244,N,12208.43876,W,042206.00,A,A*70
$GPGST,042206.00,12,,,,7.9,3.1,3.8*51
$GPZDA,042206.00,26,02,2016,00,00*67
$GPRMC,042207.00,A,4738.26230,N,12208.43877,W,0.056,,260216,,,A*68
$GPVTG,,T,,M,0.056,N,0.105,K,A*24
$GPGGA,042207.00,4738.26230,N,12208.43877,W,1,06,1.80,107.3,M,-18.7,M,,*6F
$GPGSA,A,3,01,28,24,17,12,15,,,,,,,2.66,1.80,1.96*0B
$GPGSV,3,1,10,01,18,040,33,06,24,156,,12,15,280,36,15,23,255,34*7C
$GPGSV,3,2,10,17,73,068,40,19,69,204,40,24,41,303,39,28,43,082,33*7A
$GPGSV,3,3,10*78
$GPGLL,4738.26230,N,12208.43877,W,042207.00,A,A*73
$GPGST,042207.00,13,,,,7.8,3.1,3.7*5F
$GPZDA,042207.00,26,02,2016,00,00*66
$GPRMC,042208.00,A,4738.26201,N,12208.43867,W,0.070,,260216,,,A*60
$GPVTG,,T,,M,0.070,N,0.129,K,A*2E
$GPGGA,042208.00,4738.26201,N,12208.43867,W,1,06,1.80,107.2,M,-18.7,M,,*62
$GPGSA,A,3,01,28,24,17,12,15,,,,,,,2.65,1.80,1.95*0B
$GPGSV,3,1,10,01,18,040,34,06,24,156,,12,15,280,36,15,23,255,34*7B
$GPGSV,3,2,10,17,73,068,39,19,69,204,40,24,41,303,39,28,43,082,33*74
$GPGSV,3,3,10*78
$GPGLL,4738.26201,N,12208.43867,W,042208.00,A,A*7F
$GPGST,042208.00,13,,,,7.8,3.1,3.7*50
$GPZDA,042208.00,26,02,2016,00,00*69
$GPRMC,042209.00,A,4738.26157,N,12208.43855,W,0.438,325.10,260216,,,A*73
$GPVTG,325.10,T,,M,0.438,N,0.812,K,A*3C
$GPGGA,042209.00,4738.26157,N,12208.43855,W,1,06,1.80,107.2,M,-18.7,M,,*62
$GPGSA,A,3,01,28,24,17,12,15,,,,,,,2.65,1.80,1.95*0B
$GPGSV,3,1,10,01,18,040,35,06,24,156,,12,15,280,36,15,23,255,34*7A
$GPGSV,3,2,10,17,73,068,39,19,69,204,40,24,41,303,39,28,43,082,33*74
$GPGSV,3,3,10*78
$GPGLL,4738.26157,N,12208.43855,W,042209.00,A,A*7F
$GPGST,042209.00,12,,,,7.6,3.1,3.7*5E
$GPZDA,042209.00,26,02,2016,00,00*68
$GPRMC,042210.00,A,4738.26121,N,12208.43837,W,0.163,,260216,,,A*6E
$GPVTG,,T,,M,0.163,N,0.301,K,A*25
$GPGGA,042210.00,4738.26121,N,12208.43837,W,1,06,1.80,107.1,M,-18.7,M,,*6C
$GPGSA,A,3,01,28,24,17,12,15,,,,,,,2.65,1.80,1.95*0B
$GPGSV,3,1,10,01,18,040,35,06,24,156,,12,15,280,36,15,23,255,34*7A
$GPGSV,3,2,10,17,73,068,39,19,69,204,40,24,41,303,40,28,43,082,34*7D
$GPGSV,3,3,10*78
$GPGLL,4738.26121,N,12208.43837,W,042210.00,A,A*72
$GPGST,042210.00,11,,,,7.5,3.0,3.6*56
$GPZDA,042210.00,26,02,2016,00,00*60
$GPRMC,042211.00,A,4738.26078,N,12208.43824,W,0.519,315.68,260216,,,A*7E
$GPVTG,315.68,T,,M,0.519,N,0.962,K,A*34
$GPGGA,042211.00,4738.26078,N,12208.43824,W,1,06,1.80,107.1,M,-18.7,M,,*62
$GPGSA,A,3,01,28,24,17,12,15,,,,,,,2.65,1.80,1.95*0B
$GPGSV,3,1,10,01,18,040,35,06,24,156,,12,15,280,36,15,23,255,34*7A
$GPGSV,3,2,10,17,73,068,39,19,69,204,40,24,41,303,40,28,43,082,34*7D
$GPGSV,3,3,10*78
$GPGLL,4738.26078,N,12208.43824,W,042211.00,A,A*7C
$GPGST,042211.00,11,,,,7.4,3.0,3.6*56
$GPZDA,042211.00,26,02,2016,00,00*61
$GPRMC,042212.00,A,4738.26029,N,12208.43819,W,1.008,307.26,260216,,,A*7A
$GPVTG,307.26,T,,M,1.008,N,1.868,K,A*33
$GPGGA,042212.00,4738.26029,N,12208.43819,W,1,06,1.79,107.0,M,-18.7,M,,*6C
$GPGSA,A,3,01,28,24,17,12,15,,,,,,,2.65,1.79,1.95*0D
$GPGSV,3,1,10,01,18,040,35,06,24,156,,12,15,280,36,15,23,255,34*7A
$GPGSV,3,2,10,17,73,068,40,19,69,204,40,24,41,303,40,28,43,082,34*73
$GPGSV,3,3,10*78
$GPGLL,4738.26029,N,12208.43819,W,042212.00,A,A*75
$GPGST,042212.00,11,,,,7.2,2.9,3.5*58
$GPZDA,042212.00,26,02,2016,00,00*62
$GPRMC,042213.00,A,4738.26002,N,12208.43814,W,0.201,298.97,260216,,,A*78
$GPVTG,298.97,T,,M,0.201,N,0.373,K,A*34
$GPGGA,042213.00,4738.26002,N,12208.43814,W,1,06,1.79,107.0,M,-18.7,M,,*69
$GPGSA,A,3,01,28,24,17,12,15,,,,,,,2.65,1.79,1.95*0D
$GPGSV,3,1,10,01,18,040,35,06,24,156,,12,15,280,36,15,23,255,34*7A
$GPGSV,3,2,10,17,73,068,40,19,69,204,40,24,41,303,40,28,43,082,34*73
$GPGSV,3,3,10*78
$GPGLL,4738.26002,N,12208.43814,W,042213.00,A,A*70
$GPGST,042213.00,11,,,,7.1,2.9,3.5*5A
$GPZDA,042213.00,26,02,2016,00,00*63
$GPRMC,042214.00,A,4738.25972,N,12208.43808,W,0.360,290.94,260216,,,A*72
$GPVTG,290.94,T,,M,0.360,N,0.667,K,A*39
$GPGGA,042214.00,4738.25972,N,12208.43808,W,1,06,1.79,106.9,M,-18.7,M,,*66
$GPGSA,A,3,01,28,24,17,12,15,,,,,,,2.65,1.79,1.95*0D
$GPGSV,3,1,10,01,18,040,36,06,24,156,,12,15,280,36,15,23,255,34*79
$GPGSV,3,2,10,17,73,068,40,19,69,204,42,24,41,303,40,28,43,082,34*71
$GPGSV,3,3,10*78
$GPGLL,4738.25972,N,12208.43808,W,042214.00,A,A*77
$GPGST,042214.00,11,,,,7.0,2.8,3.5*5D
$GPZDA,042214.00,26,02,2016,00,00*64
$GPRMC,042215.00,A,4738.25945,N,12208.43810,W,0.411,284.46,260216,,,A*75
$GPVTG,284.46,T,,M,0.411,N,0.761,K,A*35
$GPGGA,042215.00,4738.25945,N,12208.43810,W,1,06,1.79,106.9,M,-18.7,M,,*6A
$GPGSA,A,3,01,28,24,17,12,15,,,,,,,2.65,1.79,1.95*0D
$GPGSV,3,1,10,01,18,040,37,06,24,156,,12,15,280,36,15,23,255,34*78
$GPGSV,3,2,10,17,73,068,40,19,69,204,41,24,41,303,40,28,43,082,34*72
$GPGSV,3,3,10*78
$GPGLL,4738.25945,N,12208.43810,W,042215.00,A,A*7B
$GPGST,042215.00,11,,,,6.8,2.7,3.4*5B
$GPZDA,042215.00,26,02,2016,00,00*65
$GPRMC,042216.00,A,4738.25927,N,12208.43814,W,0.377,283.69,260216,,,A*7B
$GPVTG,283.69,T,,M,0.377,N,0.699,K,A*3E
$GPGGA,042216.00,4738.25927,N,12208.43814,W,1,06,1.79,106.8,M,-18.7,M,,*68
$GPGSA,A,3,01,28,24,17,12,15,,,,,,,2.65,1.79,1.95*0D
$GPGSV,3,1,10,01,18,040,36,06,24,156,,12,15,280,36,15,23,255,34*79
$GPGSV,3,2,10,17,73,068,40,19,69,204,41,24,41,303,40,28,43,082,35*73
$GPGSV,3,3,10*78
$GPGLL,4738.25927,N,12208.43814,W,042216.00,A,A*78
$GPGST,042216.00,11,,,,6.7,2.7,3.4*57
$GPZDA,042216.00,26,02,2016,00,00*66
$GPRMC,042217.00,A,4738.25908,N,12208.43817,W,0.097,,260216,,,A*61
$GPVTG,,T,,M,0.097,N,0.180,K,A*24
$GPGGA,042217.00,4738.25908,N,12208.43817,W,1,06,1.79,106.8,M,-18.7,M,,*67
$GPGSA,A,3,01,28,24,17,12,15,,,,,,,2.65,1.79,1.95*0D
$GPGSV,3,1,10,01,18,040,36,06,24,156,,12,15,280,36,15,23,255,34*79
$GPGSV,3,2,10,17,73,068,40,19,69,204,41,24,41,303,40,28,43,082,35*73
$GPGSV,3,3,10*78
$GPGLL,4738.25908,N,12208.43817,W,042217.00,A,A*77
$GPGST,042217.00,11,,,,6.7,2.7,3.3*51
$GPZDA,042217.00,26,02,2016,00,00*67
$GPRMC,042218.00,A,4738.25890,N,12208.43820,W,0.292,278.10,260216,,,A*7F
$GPVTG,278.10,T,,M,0.292,N,0.541,K,A*38
$GPGGA,042218.00,4738.25890,N,12208.43820,W,1,06,1.79,106.8,M,-18.7,M,,*6C
$GPGSA,A,3,01,28,24,17,12,15,,,,,,,2.65,1.79,1.95*0D
$GPGSV,3,1,10,01,18,040,37,06,24,156,,12,15,280,36,15,23,255,33*7F
$GPGSV,3,2,10,17,73,068,40,19,69,204,41,24,41,303,40,28,43,082,35*73
$GPGSV,3,3,10*78
$GPGLL,4738.25890,N,12208.43820,W,042218.00,A,A*7C
$GPGST,042218.00,11,,,,6.6,2.7,3.3*5F
$GPZDA,042218.00,26,02,2016,00,00*68
$GPRMC,042219.00,A,4738.25875,N,12208.43825,W,0.292,275.97,260216,,,A*72
$GPVTG,275.97,T,,M,0.292,N,0.541,K,A*3A
$GPGGA,042219.00,4738.25875,N,12208.43825,W,1,06,1.79,106.8,M,-18.7,M,,*63
$GPGSA,A,3,01,28,24,17,12,15,,,,,,,2.65,1.79,1.95*0D
$GPGSV,3,1,10,01,18,040,37,06,24,156,,12,15,280,36,15,23,255,33*7F
$GPGSV,3,2,10,17,73,068,40,19,69,204,41,24,41,303,40,28,43,082,35*73
$GPGSV,3,3,10*78
$GPGLL,4738.25875,N,12208.43825,W,042219.00,A,A*73
$GPGST,042219.00,11,,,,6.6,2.6,3.3*5F
$GPZDA,042219.00,26,02,2016,00,00*69
$GPRMC,042220.00,A,4738.25876,N,12208.43835,W,0.523,279.36,260216,,,A*70
$GPVTG,279.36,T,,M,0.523,N,0.968,K,A*37
$GPGGA,042220.00,4738.25876,N,12208.43835,W,1,06,1.79,106.7,M,-18.7,M,,*64
$GPGSA,A,3,01,28,24,17,12,15,,,,,,,2.65,1.79,1.95*0D
$GPGSV,3,1,10,01,18,040,37,06,24,156,,12,15,280,37,15,23,255,33*7E
$GPGSV,3,2,10,17,73,068,40,19,69,204,40,24,41,303,40,28,43,082,35*72
$GPGSV,3,3,10*78
$GPGLL,4738.25876,N,12208.43835,W,042220.00,A,A*7B
$GPGST,042220.00,10,,,,6.5,2.6,3.2*56
$GPZDA,042220.00,26,02,2016,00,00*63
$GPRMC,042221.00,A,4738.25871,N,12208.43836,W,0.075,,260216,,,A*64
$GPVTG,,T,,M,0.075,N,0.139,K,A*2A
$GPGGA,042221.00,4738.25871,N,12208.43836,W,1,06,1.79,106.7,M,-18.7,M,,*61
$GPGSA,A,3,01,28,24,17,12,15,,,,,,,2.65,1.79,1.95*0D
$GPGSV,3,1,10,01,18,040,37,06,24,156,,12,15,280,37,15,23,255,32*7F
$GPGSV,3,2,10,17,73,068,40,19,69,204,40,24,41,303,40,28,43,082,36*71
$GPGSV,3,3,10*78
$GPGLL,4738.25871,N,12208.43836,W,042221.00,A,A*7E
$GPGST,042221.00,11,,,,6.5,2.5,3.2*55
$GPZDA,042221.00,26,02,2016,00,00*62
$GPRMC,042222.00,A,4738.25860,N,12208.43837,W,0.316,272.48,260216,,,A*75
$GPVTG,272.48,T,,M,0.316,N,0.586,K,A*39
$GPGGA,042222.00,4738.25860,N,12208.43837,W,1,06,1.79,106.7,M,-18.7,M,,*63
$GPGSA,A,3,01,28,24,17,12,15,,,,,,,2.65,1.79,1.95*0D
$GPGSV,3,1,10,01,18,040,37,06,24,156,,12,15,280,37,15,23,255,33*7E
$GPGSV,3,2,10,17,73,068,40,19,69,204,41,24,41,303,40,28,43,082,36*70
$GPGSV,3,3,10*78
$GPGLL,4738.25860,N,12208.43837,W,042222.00,A,A*7C
$GPZDA,042222.00,26,02,2016,00,00*61
$GPGST,042222.00,10,,,,6.4,2.5,3.2*56
$GPRMC,042223.00,A,4738.25859,N,12208.43846,W,0.154,,260216,,,A*69
$GPVTG,,T,,M,0.154,N,0.286,K,A*2F
$GPGGA,042223.00,4738.25859,N,12208.43846,W,1,06,1.79,106.8,M,-18.7,M,,*61
$GPGSA,A,3,01,28,24,17,12,15,,,,,,,2.65,1.79,1.95*0D
$GPGSV,3,1,10,01,17,040,37,06,24,156,,12,15,280,36,15,23,255,32*71
$GPGSV,3,2,10,17,73,068,40,19,69,204,40,24,41,303,40,28,43,082,35*72
$GPGST,042223.00,11,,,,6.5,2.5,3.1*54
$GPGSV,3,3,10*78
$GPGLL,4738.25859,N,12208.43846,W,042223.00,A,A*71
$GPZDA,042223.00,26,02,2016,00,00*60
$GPRMC,042224.00,A,4738.25866,N,12208.43856,W,0.108,,260216,,,A*6A
$GPVTG,,T,,M,0.108,N,0.200,K,A*28
$GPGGA,042224.00,4738.25866,N,12208.43856,W,1,06,1.79,106.8,M,-18.7,M,,*6B
$GPGSA,A,3,01,28,24,17,12,15,,,,,,,2.65,1.79,1.95*0D
$GPGSV,3,1,10,01,17,040,37,06,24,156,,12,15,280,37,15,23,255,32*70
$GPGSV,3,2,10,17,73,068,40,19,69,204,41,24,41,303,40,28,43,082,35*73
$GPGSV,3,3,10*78
$GPGST,042224.00,11,,,,6.5,2.5,3.1*53
$GPGLL,4738.25866,N,12208.43856,W,042224.00,A,A*7B
$GPZDA,042224.00,26,02,2016,00,00*67
$GPRMC,042225.00,A,4738.25887,N,12208.43866,W,0.722,276.81,260216,,,A*7D
$GPVTG,276.81,T,,M,0.722,N,1.337,K,A*36
$GPGGA,042225.00,4738.25887,N,12208.43866,W,1,06,1.79,106.9,M,-18.7,M,,*67
$GPGSA,A,3,01,28,24,17,12,15,,,,,,,2.65,1.79,1.95*0D
$GPGSV,3,1,10,01,17,040,37,06,24,156,,12,15,280,36,15,23,255,32*71
$GPGSV,3,2,10,17,73,068,40,19,69,204,41,24,41,303,40,28,43,082,35*73
$GPGSV,3,3,10*78
$GPGLL,4738.25887,N,12208.43866,W,042225.00,A,A*76
$GPGST,042225.00,11,,,,6.5,2.5,3.1*52
$GPZDA,042225.00,26,02,2016,00,00*66
$GPRMC,042226.00,A,4738.25897,N,12208.43860,W,0.342,284.54,260216,,,A*7E
$GPVTG,284.54,T,,M,0.342,N,0.634,K,A*36
$GPGGA,042226.00,4738.25897,N,12208.43860,W,1,06,1.79,106.9,M,-18.7,M,,*63
$GPGSA,A,3,01,28,24,17,12,15,,,,,,,2.65,1.79,1.95*0D
$GPGSV,3,1,10,01,17,040,37,06,24,156,,12,15,280,37,15,23,255,33*71
$GPGSV,3,2,10,17,73,068,40,19,69,204,41,24,41,303,40,28,43,082,35*73
$GPGSV,3,3,10*78
$GPGLL,4738.25897,N,12208.43860,W,042226.00,A,A*72
$GPGST,042226.00,11,,,,6.5,2.5,3.1*51
$GPZDA,042226.00,26,02,2016,00,00*65
$GPRMC,042227.00,A,4738.25915,N,12208.43852,W,0.330,289.68,260216,,,A*72
$GPVTG,289.68,T,,M,0.330,N,0.611,K,A*36
$GPGGA,042227.00,4738.25915,N,12208.43852,W,1,06,1.79,106.9,M,-18.7,M,,*68
$GPGSA,A,3,01,28,24,17,12,15,,,,,,,2.65,1.79,1.95*0D
$GPGSV,3,1,10,01,17,040,37,06,24,156,,12,15,280,37,15,23,255,33*71
$GPGSV,3,2,10,17,73,068,40,19,69,204,40,24,41,303,40,28,43,082,35*72
$GPGSV,3,3,10*78
$GPGLL,4738.25915,N,12208.43852,W,042227.00,A,A*79
$GPGST,042227.00,11,,,,6.5,2.5,3.0*51
$GPZDA,042227.00,26,02,2016,00,00*64
$GPRMC,042228.00,A,4738.25934,N,12208.43852,W,0.292,291.86,260216,,,A*7E
$GPVTG,291.86,T,,M,0.292,N,0.541,K,A*30
$GPGGA,042228.00,4738.25934,N,12208.43852,W,1,06,1.79,106.8,M,-18.7,M,,*65
$GPGSA,A,3,01,28,24,17,12,15,,,,,,,2.65,1.79,1.95*0D
$GPGSV,3,1,10,01,17,040,36,06,25,156,,12,15,280,37,15,23,255,32*70
$GPGSV,3,2,10,17,73,068,40,19,69,204,41,24,41,303,39,28,43,082,36*7E
$GPGSV,3,3,10*78
$GPGLL,4738.25934,N,12208.43852,W,042228.00,A,A*75
$GPGST,042228.00,11,,,,6.6,2.5,3.0*5D
$GPZDA,042228.00,26,02,2016,00,00*6B
$GPRMC,042229.00,A,4738.25945,N,12208.43855,W,0.155,,260216,,,A*6C
$GPVTG,,T,,M,0.155,N,0.287,K,A*2F
$GPGGA,042229.00,4738.25945,N,12208.43855,W,1,06,1.79,106.8,M,-18.7,M,,*65
$GPGSA,A,3,01,28,24,17,12,15,,,,,,,2.65,1.79,1.95*0D
$GPGSV,3,1,10,01,17,040,36,06,25,156,,12,15,280,37,15,23,255,33*71
$GPGSV,3,2,10,17,73,068,40,19,69,204,41,24,41,303,39,28,43,082,36*7E
$GPGSV,3,3,10*78
$GPGLL,4738.25945,N,12208.43855,W,042229.00,A,A*75
$GPZDA,042229.00,26,02,2016,00,00*6A
$GPGST,042229.00,11,,,,6.7,2.6,3.0*5E
$GPRMC,042230.00,A,4738.25958,N,12208.43854,W,0.060,,260216,,,A*6E
$GPVTG,,T,,M,0.060,N,0.111,K,A*24
$GPGGA,042230.00,4738.25958,N,12208.43854,W,1,06,1.79,106.8,M,-18.7,M,,*60
$GPGSA,A,3,01,28,24,17,12,15,,,,,,,2.65,1.79,1.95*0D
$GPGSV,3,1,10,01,17,040,36,06,25,156,,12,15,280,37,15,23,255,32*70
$GPGSV,3,2,10,17,73,068,40,19,69,204,41,24,41,303,39,28,43,082,36*7E
$GPGSV,3,3,10*78
$GPGLL,4738.25958,N,12208.43854,W,042230.00,A,A*70
$GPGST,042230.00,11,,,,6.8,2.6,3.0*59
$GPZDA,042230.00,26,02,2016,00,00*62
$GPRMC,042231.00,A,4738.25976,N,12208.43848,W,0.206,295.45,260216,,,A*7D
$GPVTG,295.45,T,,M,0.206,N,0.382,K,A*3F
$GPGGA,042231.00,4738.25976,N,12208.43848,W,1,06,1.79,106.8,M,-18.7,M,,*60
$GPGSA,A,3,01,28,24,17,12,15,,,,,,,2.65,1.79,1.95*0D
$GPGSV,3,1,10,01,17,040,37,06,25,156,,12,15,280,37,15,23,255,33*70
$GPGSV,3,2,10,17,73,068,40,19,69,204,40,24,41,303,39,28,43,082,35*7C
$GPGSV,3,3,10*78
$GPGLL,4738.25976,N,12208.43848,W,042231.00,A,A*70
$GPGST,042231.00,11,,,,6.8,2.6,3.0*58
$GPZDA,042231.00,26,02,2016,00,00*63
$GPRMC,042232.00,A,4738.25973,N,12208.43837,W,0.210,286.79,260216,,,A*79
$GPVTG,286.79,T,,M,0.210,N,0.389,K,A*3E
$GPGGA,042232.00,4738.25973,N,12208.43837,W,1,06,1.79,106.8,M,-18.7,M,,*6E
$GPGSA,A,3,01,28,24,17,12,15,,,,,,,2.65,1.79,1.95*0D
$GPGSV,3,1,10,01,17,040,36,06,25,156,,12,15,280,37,15,23,255,33*71
$GPGSV,3,2,10,17,73,068,40,19,69,204,40,24,41,303,39,28,43,082,35*7C
$GPGSV,3,3,10*78
$GPGLL,4738.25973,N,12208.43837,W,042232.00,A,A*7E
$GPGST,042232.00,11,,,,6.8,2.6,2.9*53
$GPZDA,042232.00,26,02,2016,00,00*60
$GPRMC,042233.00,A,4738.25970,N,12208.43834,W,0.330,282.62,260216,,,A*75
$GPVTG,282.62,T,,M,0.330,N,0.612,K,A*34
$GPGGA,042233.00,4738.25970,N,12208.43834,W,1,06,1.79,106.8,M,-18.7,M,,*6F
$GPGSA,A,3,01,28,24,17,12,15,,,,,,,2.65,1.79,1.95*0D
$GPGSV,3,1,10,01,17,040,36,06,25,156,,12,15,280,36,15,23,255,33*70
$GPGSV,3,2,10,17,73,068,40,19,69,204,41,24,41,303,40,28,43,082,35*73
$GPGSV,3,3,10*78
$GPGLL,4738.25970,N,12208.43834,W,042233.00,A,A*7F
$GPGST,042233.00,11,,,,6.8,2.6,2.9*52
$GPZDA,042233.00,26,02,2016,00,00*61
$GPRMC,042234.00,A,4738.25962,N,12208.43828,W,0.563,275.94,260216,,,A*7D
$GPVTG,275.94,T,,M,0.563,N,1.044,K,A*31
$GPGGA,042234.00,4738.25962,N,12208.43828,W,1,06,1.79,106.8,M,-18.7,M,,*66
$GPGSA,A,3,01,28,24,17,12,15,,,,,,,2.65,1.79,1.95*0D
$GPGSV,3,1,10,01,17,040,36,06,25,156,,12,15,280,37,15,23,255,33*71
$GPGSV,3,3,10*78
$GPGLL,4738.25962,N,12208.43828,W,042234.00,A,A*76
$GPGST,042234.00,11,,,,6.8,2.6,2.9*55
$GPZDA,042234.00,26,02,2016,00,00*66
$GPGSV,3,2,10,17,73,068,40,19,69,204,41,24,41,303,39,28,43,082,35*7D
$GPRMC,042235.00,A,4738.25972,N,12208.43823,W,0.057,,260216,,,A*67
$GPVTG,,T,,M,0.057,N,0.105,K,A*25
$GPGGA,042235.00,4738.25972,N,12208.43823,W,1,06,1.79,106.8,M,-18.7,M,,*6D
$GPGSA,A,3,01,28,24,17,12,15,,,,,,,2.64,1.79,1.95*0C
$GPGSV,3,1,10,01,17,040,36,06,25,156,,12,15,280,37,15,23,255,33*71
$GPGSV,3,2,10,17,73,068,40,19,69,204,41,24,41,303,39,28,43,082,35*7D
$GPGSV,3,3,10*78
$GPGLL,4738.25972,N,12208.43823,W,042235.00,A,A*7D
$GPGST,042235.00,11,,,,6.9,2.6,2.9*55
$GPZDA,042235.00,26,02,2016,00,00*67
$GPRMC,042236.00,A,4738.25993,N,12208.43820,W,0.101,,260216,,,A*6A
$GPVTG,,T,,M,0.101,N,0.188,K,A*22
$GPGGA,042236.00,4738.25993,N,12208.43820,W,1,06,1.79,106.9,M,-18.7,M,,*63
$GPGSA,A,3,01,28,24,17,12,15,,,,,,,2.64,1.79,1.95*0C
$GPGSV,3,1,11,01,17,040,36,06,25,156,,12,15,280,37,15,23,255,33*70
$GPGSV,3,2,11,17,73,068,40,19,69,204,41,24,41,303,39,28,43,082,35*7C
$GPGSV,3,3,11,32,,,35*7E
$GPGLL,4738.25993,N,12208.43820,W,042236.00,A,A*72
$GPGST,042236.00,11,,,,6.9,2.6,2.9*56
$GPZDA,042236.00,26,02,2016,00,00*64
$GPRMC,042237.00,A,4738.26012,N,12208.43821,W,0.292,268.05,260216,,,A*77
$GPVTG,268.05,T,,M,0.292,N,0.540,K,A*3C
$GPGGA,042237.00,4738.26012,N,12208.43821,W,1,06,1.79,106.9,M,-18.7,M,,*60
$GPGSA,A,3,01,28,24,17,12,15,,,,,,,2.64,1.79,1.95*0C
$GPGSV,3,1,11,01,17,040,35,06,25,156,,12,15,280,37,15,22,255,33*72
$GPGSV,3,2,11,17,73,068,40,19,69,204,41,24,41,303,39,28,43,082,35*7C
$GPGSV,3,3,11,32,,,34*7F
$GPGLL,4738.26012,N,12208.43821,W,042237.00,A,A*71
$GPGST,042237.00,11,,,,7.0,2.7,2.9*5E
$GPZDA,042237.00,26,02,2016,00,00*65
$GPRMC,042238.00,A,4738.26033,N,12208.43809,W,0.175,,260216,,,A*6C
$GPVTG,,T,,M,0.175,N,0.325,K,A*24
$GPGGA,042238.00,4738.26033,N,12208.43809,W,1,06,1.79,107.0,M,-18.7,M,,*6E
$GPGSA,A,3,01,28,24,17,12,15,,,,,,,2.64,1.79,1.95*0C
$GPGSV,3,1,11,01,17,040,35,06,25,156,,12,15,280,37,15,22,255,33*72
$GPGSV,3,2,11,17,73,068,40,19,69,204,41,24,41,303,38,28,43,082,35*7D
$GPGSV,3,3,11,32,,,34*7F
$GPGLL,4738.26033,N,12208.43809,W,042238.00,A,A*77
$GPGST,042238.00,11,,,,7.2,2.7,2.9*53
$GPZDA,042238.00,26,02,2016,00,00*6A
$GPRMC,042239.00,A,4738.26056,N,12208.43801,W,0.031,,260216,,,A*67
$GPVTG,,T,,M,0.031,N,0.057,K,A*23
$GPGGA,042239.00,4738.26056,N,12208.43801,W,1,06,1.79,107.0,M,-18.7,M,,*64
$GPGSA,A,3,01,28,24,17,12,15,,,,,,,2.64,1.79,1.95*0C
$GPGSV,3,1,11,01,17,040,35,06,25,156,,12,15,280,37,15,22,255,33*72
$GPGSV,3,2,11,17,72,067,40,19,69,204,40,24,41,303,38,28,43,082,36*71
$GPGSV,3,3,11,32,,,34*7F
$GPGLL,4738.26056,N,12208.43801,W,042239.00,A,A*7D
$GPGST,042239.00,11,,,,7.3,2.7,2.9*53
$GPZDA,042239.00,26,02,2016,00,00*6B
$GPRMC,042240.00,A,4738.26089,N,12208.43796,W,0.333,276.76,260216,,,A*77
$GPVTG,276.76,T,,M,0.333,N,0.617,K,A*3C
$GPGGA,042240.00,4738.26089,N,12208.43796,W,1,06,1.79,107.0,M,-18.7,M,,*69
$GPGSA,A,3,01,28,24,17,12,15,,,,,,,2.64,1.79,1.95*0C
$GPGSV,3,1,11,01,17,040,34,06,25,156,,12,15,280,37,15,22,255,34*74
$GPGSV,3,2,11,17,72,067,40,19,69,204,40,24,41,303,38,28,43,082,35*72
$GPGSV,3,3,11,32,,,34*7F
$GPGLL,4738.26089,N,12208.43796,W,042240.00,A,A*70
$GPGST,042240.00,11,,,,7.4,2.8,2.9*55
$GPZDA,042240.00,26,02,2016,00,00*65
$GPRMC,042241.00,A,4738.26119,N,12208.43792,W,0.166,,260216,,,A*64
$GPVTG,,T,,M,0.166,N,0.307,K,A*26
$GPGGA,042241.00,4738.26119,N,12208.43792,W,1,06,1.79,107.1,M,-18.7,M,,*65
$GPGSA,A,3,01,28,24,17,12,15,,,,,,,2.64,1.79,1.95*0C
$GPGSV,3,1,11,01,17,040,34,06,25,156,,12,15,280,37,15,22,255,34*74
$GPGSV,3,2,11,17,72,067,40,19,70,204,40,24,41,303,38,28,43,082,36*79
$GPGSV,3,3,11,32,,,34*7F
$GPGLL,4738.26119,N,12208.43792,W,042241.00,A,A*7D
$GPGST,042241.00,11,,,,7.6,2.8,2.9*56
$GPZDA,042241.00,26,02,2016,00,00*64
$GPRMC,042242.00,A,4738.26164,N,12208.43791,W,0.321,279.84,260216,,,A*71
$GPVTG,279.84,T,,M,0.321,N,0.594,K,A*35
$GPGGA,042242.00,4738.26164,N,12208.43791,W,1,06,1.78,107.2,M,-18.7,M,,*6D
$GPGSA,A,3,01,28,24,17,12,15,,,,,,,2.64,1.78,1.95*0D
$GPGSV,3,1,11,01,17,040,33,06,25,156,,12,15,280,38,15,22,255,34*7C
$GPGSV,3,2,11,17,72,067,39,19,70,204,40,24,41,303,38,28,43,082,36*77
$GPGSV,3,3,11,32,,,34*7F
$GPGLL,4738.26164,N,12208.43791,W,042242.00,A,A*77
$GPGST,042242.00,11,,,,7.7,2.8,2.8*55
$GPZDA,042242.00,26,02,2016,00,00*67
$GPRMC,042243.00,A,4738.26201,N,12208.43790,W,0.220,279.97,260216,,,A*73
$GPVTG,279.97,T,,M,0.220,N,0.407,K,A*3C
$GPGGA,042243.00,4738.26201,N,12208.43790,W,1,06,1.78,107.2,M,-18.7,M,,*6D
$GPGSA,A,3,01,28,24,17,12,15,,,,,,,2.64,1.78,1.95*0D
$GPGSV,3,1,11,01,17,040,33,06,25,156,,12,15,280,38,15,22,255,34*7C
$GPGSV,3,2,11,17,72,067,39,19,70,204,40,24,41,303,38,28,43,082,36*77
$GPGSV,3,3,11,32,,,35*7E
$GPGLL,4738.26201,N,12208.43790,W,042243.00,A,A*77
$GPGST,042243.00,11,,,,7.8,2.8,2.8*5B
$GPZDA,042243.00,26,02,2016,00,00*66
$GPRMC,042244.00,A,4738.26240,N,12208.43793,W,0.243,284.19,260216,,,A*73
$GPVTG,284.19,T,,M,0.243,N,0.451,K,A*3E
$GPGGA,042244.00,4738.26240,N,12208.43793,W,1,06,1.78,107.2,M,-18.7,M,,*6C
$GPGSA,A,3,01,28,24,17,12,15,,,,,,,2.64,1.78,1.95*0D
$GPGSV,3,1,11,01,17,040,33,06,25,156,,12,15,280,37,15,22,255,35*72
$GPGSV,3,2,11,17,72,067,40,19,70,204,40,24,41,303,38,28,43,082,36*79
$GPGSV,3,3,11,32,,,34*7F
$GPGLL,4738.26240,N,12208.43793,W,042244.00,A,A*76
$GPGST,042244.00,11,,,,7.9,2.8,2.8*5D
$GPZDA,042244.00,26,02,2016,00,00*61
$GPRMC,042245.00,A,4738.26280,N,12208.43783,W,0.477,290.45,260216,,,A*72
$GPVTG,290.45,T,,M,0.477,N,0.884,K,A*37
$GPGGA,042245.00,4738.26280,N,12208.43783,W,1,06,1.78,107.2,M,-18.7,M,,*60
$GPGSA,A,3,01,28,24,17,12,15,,,,,,,2.64,1.78,1.95*0D
$GPGSV,3,1,11,01,17,040,32,06,25,156,,12,15,280,38,15,22,255,35*7C
$GPGSV,3,2,11,17,72,067,39,19,70,204,40,24,41,303,38,28,43,082,36*77
$GPGSV,3,3,11,32,,,34*7F
$GPGLL,4738.26280,N,12208.43783,W,042245.00,A,A*7A
$GPGST,042245.00,12,,,,7.9,2.8,2.8*5F
$GPZDA,042245.00,26,02,2016,00,00*60
$GPRMC,042246.00,A,4738.26308,N,12208.43775,W,0.251,279.43,260216,,,A*7A
$GPVTG,279.43,T,,M,0.251,N,0.466,K,A*34
$GPGGA,042246.00,4738.26308,N,12208.43775,W,1,06,1.78,107.3,M,-18.7,M,,*6A
$GPGSA,A,3,01,28,24,17,12,15,,,,,,,2.64,1.78,1.95*0D
$GPGSV,3,1,11,01,17,039,31,06,25,156,,12,15,280,38,15,22,255,35*71
$GPGSV,3,2,11,17,72,067,39,19,70,204,40,24,41,303,38,28,43,082,36*77
$GPGSV,3,3,11,32,,,34*7F
$GPGLL,4738.26308,N,12208.43775,W,042246.00,A,A*71
$GPGST,042246.00,12,,,,8.0,2.8,2.8*5A
$GPZDA,042246.00,26,02,2016,00,00*63
$GPRMC,042247.00,A,4738.26335,N,12208.43763,W,0.352,268.59,260216,,,A*7B
$GPVTG,268.59,T,,M,0.352,N,0.652,K,A*38
$GPGGA,042247.00,4738.26335,N,12208.43763,W,1,06,1.78,107.2,M,-18.7,M,,*63
$GPGSA,A,3,01,28,24,17,12,15,,,,,,,2.64,1.78,1.95*0D
$GPGSV,3,1,11,01,17,039,32,06,25,156,,12,15,280,38,15,22,255,35*72
$GPGSV,3,2,11,17,72,067,39,19,70,204,40,24,41,303,38,28,43,082,36*77
$GPGSV,3,3,11,32,,,34*7F
$GPGLL,4738.26335,N,12208.43763,W,042247.00,A,A*79
$GPGST,042247.00,12,,,,8.1,2.8,2.8*5A
$GPZDA,042247.00,26,02,2016,00,00*62
$GPRMC,042248.00,A,4738.26374,N,12208.43760,W,0.311,275.01,260216,,,A*74
$GPVTG,275.01,T,,M,0.311,N,0.577,K,A*3A
$GPGGA,042248.00,4738.26374,N,12208.43760,W,1,06,1.78,107.2,M,-18.7,M,,*6A
$GPGSA,A,3,01,28,24,17,12,15,,,,,,,2.64,1.78,1.95*0D
$GPGSV,3,1,11,01,17,039,32,06,25,156,,12,15,280,37,15,22,255,35*7D
$GPGSV,3,2,11,17,72,067,39,19,70,204,40,24,41,303,38,28,43,082,36*77
$GPGSV,3,3,11,32,,,34*7F
$GPGLL,4738.26374,N,12208.43760,W,042248.00,A,A*70
$GPGST,042248.00,12,,,,8.1,2.8,2.8*55
$GPZDA,042248.00,26,02,2016,00,00*6D
$GPRMC,042249.00,A,4738.26408,N,12208.43766,W,0.342,277.46,260216,,,A*78
$GPVTG,277.46,T,,M,0.342,N,0.635,K,A*38
$GPGGA,042249.00,4738.26408,N,12208.43766,W,1,06,1.78,107.1,M,-18.7,M,,*62
$GPGSA,A,3,01,28,24,17,12,15,,,,,,,2.64,1.78,1.95*0D
$GPGSV,3,1,11,01,17,039,32,06,25,156,,12,15,280,37,15,22,255,35*7D
$GPGSV,3,2,11,17,72,067,39,19,70,204,40,24,41,303,38,28,43,082,36*77
$GPGSV,3,3,11,32,,,33*78
$GPGLL,4738.26408,N,12208.43766,W,042249.00,A,A*7B
$GPGST,042249.00,12,,,,8.1,2.8,2.8*54
$GPZDA,042249.00,26,02,2016,00,00*6C
$GPRMC,042250.00,A,4738.26434,N,12208.43764,W,0.177,,260216,,,A*67
$GPVTG,,T,,M,0.177,N,0.327,K,A*24
$GPGGA,042250.00,4738.26434,N,12208.43764,W,1,06,1.78,107.1,M,-18.7,M,,*67
$GPGSA,A,3,01,28,24,17,12,15,,,,,,,2.64,1.78,1.95*0D
$GPGSV,3,1,11,01,17,039,32,06,25,156,,12,15,280,38,15,22,255,35*72
$GPGSV,3,2,11,17,72,067,39,19,70,204,40,24,41,303,38,28,42,082,36*76
$GPGSV,3,3,11,32,,,33*78
$GPGLL,4738.26434,N,12208.43764,W,042250.00,A,A*7E
$GPGST,042250.00,12,,,,8.1,2.8,2.8*5C
$GPZDA,042250.00,26,02,2016,00,00*64
$GPRMC,042251.00,A,4738.26450,N,12208.43764,W,0.181,,260216,,,A*6D
$GPVTG,,T,,M,0.181,N,0.335,K,A*2E
$GPGGA,042251.00,4738.26450,N,12208.43764,W,1,06,1.78,107.0,M,-18.7,M,,*65
$GPGSA,A,3,01,28,24,17,12,15,,,,,,,2.64,1.78,1.95*0D
$GPGSV,3,1,11,01,17,039,32,06,25,156,,12,15,280,38,15,22,255,35*72
$GPGSV,3,2,11,17,72,067,39,19,70,204,40,24,41,303,38,28,42,082,36*76
$GPGSV,3,3,11,32,,,32*79
$GPGLL,4738.26450,N,12208.43764,W,042251.00,A,A*7D
$GPGST,042251.00,12,,,,8.1,2.8,2.8*5D
$GPZDA,042251.00,26,02,2016,00,00*65
$GPRMC,042252.00,A,4738.26457,N,12208.43751,W,0.267,266.45,260216,,,A*79
$GPVTG,266.45,T,,M,0.267,N,0.495,K,A*35
$GPGGA,042252.00,4738.26457,N,12208.43751,W,1,06,1.78,107.0,M,-18.7,M,,*67
$GPGSA,A,3,01,28,24,17,12,15,,,,,,,2.64,1.78,1.95*0D
$GPGSV,3,1,11,01,17,039,32,06,25,156,,12,15,280,38,15,22,255,35*72
$GPGSV,3,3,11,32,,,32*79
$GPGLL,4738.26457,N,12208.43751,W,042252.00,A,A*7F
$GPGST,042252.00,12,,,,8.1,2.8,2.8*5E
$GPGSV,3,2,11,17,72,067,39,19,70,204,40,24,41,303,38,28,42,082,36*76
$GPZDA,042252.00,26,02,2016,00,00*66
$GPRMC,042253.00,A,4738.26471,N,12208.43739,W,0.452,275.25,260216,,,A*76
$GPVTG,275.25,T,,M,0.452,N,0.837,K,A*35
$GPGGA,042253.00,4738.26471,N,12208.43739,W,1,06,1.78,106.9,M,-18.7,M,,*64
$GPGSA,A,3,01,28,24,17,12,15,,,,,,,2.64,1.78,1.95*0D
$GPGSV,3,1,11,01,17,039,33,06,25,156,,12,15,280,38,15,22,255,36*70
$GPGSV,3,2,11,17,72,067,39,19,70,204,40,24,41,303,38,28,42,082,35*75
$GPGSV,3,3,11,32,,,32*79
$GPGLL,4738.26471,N,12208.43739,W,042253.00,A,A*74
$GPGST,042253.00,11,,,,8.0,2.8,2.8*5D
$GPZDA,042253.00,26,02,2016,00,00*67
$GPRMC,042254.00,A,4738.26487,N,12208.43745,W,0.485,279.02,260216,,,A*70
$GPVTG,279.02,T,,M,0.485,N,0.899,K,A*32
$GPGGA,042254.00,4738.26487,N,12208.43745,W,1,06,1.78,106.8,M,-18.7,M,,*60
$GPGSA,A,3,01,28,24,17,12,15,,,,,,,2.64,1.78,1.95*0D
$GPGSV,3,1,11,01,17,039,33,06,25,156,,12,15,280,37,15,22,255,36*7F
$GPGSV,3,2,11,17,72,067,40,19,70,204,40,24,41,303,38,28,42,082,35*7B
$GPGSV,3,3,11,32,,,32*79
$GPGLL,4738.26487,N,12208.43745,W,042254.00,A,A*71
$GPGST,042254.00,11,,,,7.8,2.8,2.8*5D
$GPZDA,042254.00,26,02,2016,00,00*60
$GPRMC,042255.00,A,4738.26488,N,12208.43754,W,0.344,283.12,260216,,,A*70
$GPVTG,283.12,T,,M,0.344,N,0.638,K,A*39
$GPGGA,042255.00,4738.26488,N,12208.43754,W,1,06,1.78,106.8,M,-18.7,M,,*6E
$GPGSA,A,3,01,28,24,17,12,15,,,,,,,2.64,1.78,1.95*0D
$GPGSV,3,1,11,01,17,039,34,06,25,156,,12,15,280,37,15,22,255,37*79
$GPGSV,3,2,11,17,72,067,39,19,70,204,40,24,41,303,38,28,42,082,36*76
$GPGSV,3,3,11,32,,,32*79
$GPGLL,4738.26488,N,12208.43754,W,042255.00,A,A*7F
$GPGST,042255.00,10,,,,7.6,2.8,2.8*53
$GPZDA,042255.00,26,02,2016,00,00*61
$GPRMC,042256.00,A,4738.26478,N,12208.43755,W,0.075,,260216,,,A*68
$GPVTG,,T,,M,0.075,N,0.140,K,A*24
$GPGGA,042256.00,4738.26478,N,12208.43755,W,1,06,1.78,106.7,M,-18.7,M,,*6C
$GPGSA,A,3,01,28,24,17,12,15,,,,,,,2.64,1.78,1.95*0D
$GPGSV,3,1,11,01,17,039,34,06,25,156,,12,15,280,37,15,22,255,37*79
$GPGSV,3,2,11,17,72,067,39,19,70,204,40,24,41,303,38,28,42,082,35*75
$GPGSV,3,3,11,32,,,32*79
$GPGLL,4738.26478,N,12208.43755,W,042256.00,A,A*72
$GPGST,042256.00,10,,,,7.4,2.8,2.8*52
$GPZDA,042256.00,26,02,2016,00,00*62
$GPRMC,042257.00,A,4738.26456,N,12208.43754,W,0.305,275.20,260216,,,A*7C
$GPVTG,275.20,T,,M,0.305,N,0.566,K,A*3C
$GPGGA,042257.00,4738.26456,N,12208.43754,W,1,06,1.78,106.7,M,-18.7,M,,*60
$GPGSA,A,3,01,28,24,17,12,15,,,,,,,2.64,1.78,1.95*0D
$GPGSV,3,1,11,01,17,039,34,06,25,156,,12,15,280,37,15,22,255,37*79
$GPGSV,3,2,11,17,72,067,40,19,70,204,40,24,41,303,38,28,42,082,36*78
$GPGSV,3,3,11,32,,,32*79
$GPGLL,4738.26456,N,12208.43754,W,042257.00,A,A*7E
$GPGST,042257.00,10,,,,7.2,2.8,2.8*55
$GPZDA,042257.00,26,02,2016,00,00*63
$GPRMC,042258.00,A,4738.26440,N,12208.43758,W,0.290,269.96,260216,,,A*75
$GPVTG,269.96,T,,M,0.290,N,0.537,K,A*35
$GPGGA,042258.00,4738.26440,N,12208.43758,W,1,06,1.78,106.6,M,-18.7,M,,*65
$GPGSA,A,3,01,28,24,17,12,15,,,,,,,2.64,1.78,1.95*0D
$GPGSV,3,1,11,01,17,039,35,06,25,156,,12,15,280,37,15,22,255,37*78
$GPGSV,3,2,11,17,72,067,40,19,70,204,40,24,41,303,38,28,42,082,36*78
$GPGSV,3,3,11,32,,,32*79
$GPGLL,4738.26440,N,12208.43758,W,042258.00,A,A*7A
$GPGST,042258.00,9.3,,,,7.0,2.8,2.8*7D
$GPZDA,042258.00,26,02,2016,00,00*6C
$GPRMC,042259.00,A,4738.26437,N,12208.43765,W,0.107,,260216,,,A*6B
$GPVTG,,T,,M,0.107,N,0.198,K,A*25
$GPGGA,042259.00,4738.26437,N,12208.43765,W,1,06,1.78,106.6,M,-18.7,M,,*6A
$GPGSA,A,3,01,28,24,17,12,15,,,,,,,2.64,1.78,1.94*0C
$GPGSV,3,1,11,01,17,039,35,06,25,156,,12,15,280,36,15,22,255,37*79
$GPGSV,3,2,11,17,72,067,39,19,70,204,40,24,41,303,39,28,42,082,35*74
$GPGSV,3,3,11,32,,,32*79
$GPGLL,4738.26437,N,12208.43765,W,042259.00,A,A*75
$GPGST,042259.00,10,,,,6.8,2.7,2.8*5F
$GPZDA,042259.00,26,02,2016,00,00*6D
$GPRMC,042300.00,A,4738.26437,N,12208.43773,W,0.244,276.84,260216,,,A*74
$GPVTG,276.84,T,,M,0.244,N,0.452,K,A*33
$GPGGA,042300.00,4738.26437,N,12208.43773,W,1,06,1.78,106.6,M,-18.7,M,,*60
$GPGSA,A,3,01,28,24,17,12,15,,,,,,,2.64,1.78,1.94*0C
$GPGSV,3,1,11,01,17,039,35,06,25,156,,12,15,280,36,15,22,255,37*79
$GPGSV,3,2,11,17,72,067,40,19,70,204,39,24,41,303,39,28,42,082,35*74
$GPGSV,3,3,11,32,,,32*79
$GPGLL,4738.26437,N,12208.43773,W,042300.00,A,A*7F
$GPGST,042300.00,10,,,,6.6,2.7,2.8*5C
$GPZDA,042300.00,26,02,2016,00,00*60
$GPRMC,042301.00,A,4738.26437,N,12208.43782,W,0.702,281.35,260216,,,A*7E
$GPVTG,281.35,T,,M,0.702,N,1.301,K,A*36
$GPGGA,042301.00,4738.26437,N,12208.43782,W,1,06,1.78,106.6,M,-18.7,M,,*6F
$GPGSA,A,3,01,28,24,17,12,15,,,,,,,2.64,1.78,1.94*0C
$GPGSV,3,1,11,01,17,039,36,06,25,156,,12,15,280,36,15,22,255,37*7A
$GPGSV,3,2,11,17,72,067,39,19,70,204,39,24,41,303,39,28,42,082,35*7A
$GPGSV,3,3,11,32,,,32*79
$GPGLL,4738.26437,N,12208.43782,W,042301.00,A,A*70
$GPGST,042301.00,9.6,,,,6.5,2.7,2.8*7E
$GPZDA,042301.00,26,02,2016,00,00*61
$GPRMC,042302.00,A,4738.26443,N,12208.43776,W,0.656,286.56,260216,,,A*77
$GPVTG,286.56,T,,M,0.656,N,1.215,K,A*30
$GPGGA,042302.00,4738.26443,N,12208.43776,W,1,06,1.78,106.6,M,-18.7,M,,*64
$GPGSA,A,3,01,28,24,17,12,15,,,,,,,2.64,1.78,1.94*0C
$GPGSV,3,1,11,01,17,039,28,06,25,156,,12,15,280,36,15,22,255,36*74
$GPGSV,3,2,11,17,72,067,38,19,70,204,38,24,41,303,36,28,42,082,34*74
$GPGSV,3,3,11,32,,,26*7C
$GPGLL,4738.26443,N,12208.43776,W,042302.00,A,A*7B
$GPGST,042302.00,16,,,,6.9,2.9,2.8*59
$GPZDA,042302.00,26,02,2016,00,00*62
$GPRMC,042303.00,A,4738.26450,N,12208.43767,W,0.750,292.88,260216,,,A*75
$GPVTG,292.88,T,,M,0.750,N,1.390,K,A*3D
$GPGGA,042303.00,4738.26450,N,12208.43767,W,1,06,1.78,106.7,M,-18.7,M,,*66
$GPGSA,A,3,01,28,24,17,12,15,,,,,,,2.63,1.78,1.94*0B
$GPGSV,3,1,11,01,17,039,33,06,25,156,,12,15,280,35,15,22,255,35*7E
$GPGSV,3,2,11,17,72,067,36,19,70,204,39,24,41,303,37,28,42,082,31*7F
$GPGSV,3,3,11,32,,,26*7C
$GPGLL,4738.26450,N,12208.43767,W,042303.00,A,A*78
$GPGST,042303.00,15,,,,7.3,3.1,2.8*59
$GPZDA,042303.00,26,02,2016,00,00*63
$GPRMC,042304.00,A,4738.26470,N,12208.43755,W,0.880,297.35,260216,,,A*70
$GPVTG,297.35,T,,M,0.880,N,1.630,K,A*33
$GPGGA,042304.00,4738.26470,N,12208.43755,W,1,06,1.78,106.7,M,-18.7,M,,*62
$GPGSA,A,3,01,28,24,17,12,15,,,,,,,2.63,1.78,1.94*0B
$GPGSV,3,1,11,01,17,039,33,06,25,156,,12,15,280,31,15,22,255,35*7A
$GPGSV,3,2,11,17,72,067,38,19,70,204,36,24,41,303,34,28,42,082,31*7D
$GPGSV,3,3,11,32,,,25*7F
$GPGLL,4738.26470,N,12208.43755,W,042304.00,A,A*7C
$GPGST,042304.00,17,,,,7.9,3.4,2.8*53
$GPZDA,042304.00,26,02,2016,00,00*64
$GPRMC,042305.00,A,4738.26470,N,12208.43741,W,1.088,302.70,260216,,,A*79
$GPVTG,302.70,T,,M,1.088,N,2.016,K,A*3F
$GPGGA,042305.00,4738.26470,N,12208.43741,W,1,06,1.78,106.7,M,-18.7,M,,*66
$GPGSA,A,3,01,28,24,17,12,15,,,,,,,2.63,1.78,1.94*0B
$GPGSV,3,1,11,01,17,039,27,06,25,156,,12,15,280,25,15,22,255,39*76
$GPGSV,3,2,11,17,72,067,36,19,70,204,31,24,41,303,37,28,42,082,39*7F
$GPGSV,3,3,11,32,,,25*7F
$GPGLL,4738.26470,N,12208.43741,W,042305.00,A,A*78
$GPGST,042305.00,23,,,,7.7,3.1,2.8*5E
$GPZDA,042305.00,26,02,2016,00,00*65
$GPRMC,042306.00,A,4738.26504,N,12208.43745,W,1.796,305.60,260216,,,A*72
$GPVTG,305.60,T,,M,1.796,N,3.327,K,A*31
$GPGGA,042306.00,4738.26504,N,12208.43745,W,1,06,1.78,106.7,M,-18.7,M,,*63
$GPGSA,A,3,01,28,24,17,12,15,,,,,,,2.63,1.78,1.94*0B
$GPGSV,3,1,11,01,17,039,27,06,25,156,,12,15,280,30,15,22,255,35*7E
$GPGSV,3,3,11,32,,,24*7E
$GPGSV,3,2,11,17,72,067,34,19,70,204,36,24,41,303,38,28,42,082,42*79
$GPGLL,4738.26504,N,12208.43745,W,042306.00,A,A*7D
$GPGST,042306.00,19,,,,7.8,2.9,2.8*52
$GPZDA,042306.00,26,02,2016,00,00*66
$GPRMC,042307.00,A,4738.26557,N,12208.43767,W,2.166,337.69,260216,,,A*77
$GPVTG,337.69,T,,M,2.166,N,4.015,K,A*36
$GPGGA,042307.00,4738.26557,N,12208.43767,W,1,06,1.78,106.7,M,-18.7,M,,*64
$GPGSA,A,3,01,28,24,17,12,15,,,,,,,2.63,1.78,1.94*0B
$GPGSV,3,1,11,01,17,039,32,06,25,156,28,12,15,280,24,15,22,255,32*72
$GPGSV,3,2,11,17,72,067,34,19,70,204,36,24,41,303,36,28,42,082,34*76
$GPGSV,3,3,11,32,,,26*7C
$GPGLL,4738.26557,N,12208.43767,W,042307.00,A,A*7A
$GPGST,042307.00,24,,,,8.3,3.1,2.9*51
$GPZDA,042307.00,26,02,2016,00,00*67
$GPRMC,042308.00,A,4738.26560,N,12208.43803,W,1.772,336.56,260216,,,A*7C
$GPVTG,336.56,T,,M,1.772,N,3.284,K,A*36
$GPGGA,042308.00,4738.26560,N,12208.43803,W,1,06,1.78,106.8,M,-18.7,M,,*6D
$GPGSA,A,3,01,28,24,17,12,15,,,,,,,2.63,1.78,1.94*0B
$GPGSV,3,1,11,01,17,039,37,06,25,156,28,12,15,280,31,15,22,255,31*70
$GPGSV,3,2,11,17,72,067,40,19,70,204,38,24,41,303,34,28,42,082,37*7A
$GPGSV,3,3,11,32,,,26*7C
$GPGLL,4738.26560,N,12208.43803,W,042308.00,A,A*7C
$GPGST,042308.00,15,,,,8.5,3.3,2.8*59
$GPZDA,042308.00,26,02,2016,00,00*68
$GPRMC,042309.00,A,4738.26592,N,12208.43823,W,1.282,337.82,260216,,,A*70
$GPVTG,337.82,T,,M,1.282,N,2.375,K,A*3A
$GPGGA,042309.00,4738.26592,N,12208.43823,W,1,06,1.78,106.9,M,-18.7,M,,*62
$GPGSA,A,3,01,28,24,17,12,15,,,,,,,2.63,1.78,1.94*0B
$GPGSV,3,1,11,01,17,039,27,06,25,156,27,12,15,280,25,15,22,255,25*7E
$GPGSV,3,2,11,17,72,067,41,19,70,204,40,24,41,303,37,28,42,082,35*75
$GPGSV,3,3,11,32,,,23*79
$GPGLL,4738.26592,N,12208.43823,W,042309.00,A,A*72
$GPGST,042309.00,29,,,,8.9,3.5,2.8*5D
$GPZDA,042309.00,26,02,2016,00,00*69
$GPRMC,042310.00,A,4738.26606,N,12208.43815,W,0.861,339.02,260216,,,A*73
$GPVTG,339.02,T,,M,0.861,N,1.596,K,A*32
$GPGGA,042310.00,4738.26606,N,12208.43815,W,1,06,1.78,106.9,M,-18.7,M,,*61
$GPGSA,A,3,01,28,24,17,12,15,,,,,,,2.63,1.78,1.94*0B
$GPGSV,3,1,11,01,17,039,26,06,25,156,25,12,15,280,26,15,22,255,26*7D
$GPGSV,3,2,11,17,72,067,41,19,70,204,40,24,41,303,35,28,42,082,36*74
$GPGSV,3,3,11,32,,,23*79
$GPGLL,4738.26606,N,12208.43815,W,042310.00,A,A*71
$GPGST,042310.00,27,,,,9.6,3.7,2.8*57
$GPZDA,042310.00,26,02,2016,00,00*61
