$GPRMC,045113.08,V,,,,,,,260216,,,N*76
$GPVTG,,,,,,,,,N*30
$GPGGA,045113.08,,,,,0,00,99.99,,,,,,*6C
$GPGSA,A,1,,,,,,,,,,,,,99.99,99.99,99.99*30
$GPGSV,3,1,12,01,09,032,,02,11,182,,03,03,063,,06,37,149,*73
$GPGSV,3,2,12,12,26,288,,13,06,207,,14,01,341,,15,14,245,*7F
$GPGSV,3,3,12,17,60,056,,19,85,189,,24,51,292,,28,32,092,*77
$GPGLL,,,,,045113.08,V,N*40
$GPZDA,045113.08,26,02,2016,00,00*6F
$GPGST,045113.08,0.0000,,,,13,13,13*6F
$GPRMC,045114.00,V,,,,,,,260216,,,N*79
$GPVTG,,,,,,,,,N*30
$GPGGA,045114.00,,,,,0,00,1.34,,,,,,*55
$GPGSA,A,1,,,,,,,,,,,,,1.67,1.34,1.00*07
$GPGSV,3,1,12,01,09,032,36,02,11,182,,03,03,063,,06,37,149,40*72
$GPGSV,3,2,12,12,26,288,32,13,06,207,,14,01,341,,15,14,245,*7E
$GPGSV,3,3,12,17,60,056,,19,85,189,,24,51,292,,28,32,092,*77
$GPGLL,,,,,045114.00,V,N*4F
$GPGST,045114.00,0.0000,,,,973,748,23*65
$GPZDA,045114.00,26,02,2016,00,00*60
$GPRMC,045115.00,V,,,,,,,260216,,,N*78
$GPVTG,,,,,,,,,N*30
$GPGGA,045115.00,,,,,0,07,2.66,,,,,,*57
$GPGSA,A,1,01,17,24,06,28,12,15,,,,,,5.62,2.66,4.95*01
$GPGSV,3,1,12,01,09,032,37,02,11,182,,03,03,063,,06,37,149,39*7D
$GPGSV,3,2,12,12,26,288,33,13,06,207,,14,01,341,,15,14,245,25*78
$GPGSV,3,3,12,17,60,056,31,19,85,189,,24,51,292,37,28,32,092,29*7A
$GPGST,045115.00,26,,,,70,68,165*42
$GPGLL,,,,,045115.00,V,N*4E
$GPZDA,045115.00,26,02,2016,00,00*61
$GPRMC,045116.00,A,4738.26481,N,12208.43320,W,0.264,358.23,260216,,,A*7B
$GPVTG,358.23,T,,M,0.264,N,0.489,K,A*37
$GPGGA,045116.00,4738.26481,N,12208.43320,W,1,07,1.68,89.9,M,-18.7,M,,*54
$GPGSA,A,3,17,24,06,28,12,13,15,,,,,,3.47,1.68,3.03*04
$GPGSV,3,1,12,01,09,032,37,02,11,182,,03,03,063,,06,37,149,39*7D
$GPGSV,3,2,12,12,26,288,33,13,06,207,23,14,01,341,,15,14,245,26*7A
$GPGSV,3,3,12,17,60,056,31,19,85,189,38,24,51,292,37,28,32,092,30*79
$GPGLL,4738.26481,N,12208.43320,W,045116.00,A,A*72
$GPGST,045116.00,18,,,,18,16,45*78
$GPZDA,045116.00,26,02,2016,00,00*62
$GPRMC,045117.00,A,4738.26536,N,12208.43375,W,0.438,357.86,260216,,,A*78
$GPVTG,357.86,T,,M,0.438,N,0.811,K,A*35
$GPGGA,045117.00,4738.26536,N,12208.43375,W,1,07,1.56,99.3,M,-18.7,M,,*5E
$GPGSA,A,3,17,24,06,28,12,13,15,,,,,,3.15,1.56,2.74*0F
$GPGSV,3,1,12,01,09,032,37,02,11,182,,03,03,063,,06,37,149,39*7D
$GPGSV,3,2,12,12,26,288,33,13,06,207,21,14,01,341,,15,14,245,27*79
$GPGSV,3,3,12,17,60,056,31,19,85,189,37,24,51,292,37,28,32,092,30*76
$GPGLL,4738.26536,N,12208.43375,W,045117.00,A,A*7E
$GPGST,045117.00,22,,,,14,12,35*7F
$GPZDA,045117.00,26,02,2016,00,00*63
$GPRMC,045118.00,A,4738.26525,N,12208.43366,W,0.091,,260216,,,A*61
$GPVTG,,T,,M,0.091,N,0.169,K,A*25
$GPGGA,045118.00,4738.26525,N,12208.43366,W,1,07,1.56,102.2,M,-18.7,M,,*63
$GPGSA,A,3,17,24,06,28,12,13,15,,,,,,3.15,1.56,2.74*0F
$GPGSV,3,1,12,01,09,032,37,02,11,182,,03,03,063,,06,37,149,39*7D
$GPGSV,3,2,12,12,26,288,33,13,06,207,19,14,01,341,,15,14,245,26*73
$GPGSV,3,3,12,17,60,056,31,19,85,189,38,24,51,292,37,28,32,092,30*79
$GPGLL,4738.26525,N,12208.43366,W,045118.00,A,A*71
$GPGST,045118.00,21,,,,12,10,30*72
$GPZDA,045118.00,26,02,2016,00,00*6C
$GPRMC,045119.00,A,4738.26489,N,12208.43406,W,0.283,352.17,260216,,,A*7B
$GPVTG,352.17,T,,M,0.283,N,0.524,K,A*35
$GPGGA,045119.00,4738.26489,N,12208.43406,W,1,07,1.56,106.0,M,-18.7,M,,*62
$GPGSA,A,3,17,24,06,28,12,13,15,,,,,,3.15,1.56,2.74*0F
$GPGSV,3,1,12,01,09,032,37,02,11,182,,03,03,063,,06,37,149,39*7D
$GPGSV,3,2,12,12,26,288,33,13,06,207,17,14,01,341,,15,14,245,26*7D
$GPGSV,3,3,12,17,60,056,31,19,85,189,38,24,51,292,37,28,32,092,30*79
$GPGLL,4738.26489,N,12208.43406,W,045119.00,A,A*76
$GPGST,045119.00,21,,,,11,8.9,26*59
$GPZDA,045119.00,26,02,2016,00,00*6D
$GPRMC,045120.00,A,4738.26500,N,12208.43360,W,0.579,354.11,260216,,,A*74
$GPVTG,354.11,T,,M,0.579,N,1.072,K,A*30
$GPGGA,045120.00,4738.26500,N,12208.43360,W,1,07,1.50,107.3,M,-18.7,M,,*6B
$GPGSA,A,3,17,24,06,28,12,13,15,,,,,,3.01,1.50,2.61*08
$GPGSV,3,1,12,01,09,032,37,02,11,182,,03,03,063,,06,37,149,40*73
$GPGSV,3,2,12,12,26,288,33,13,06,207,17,14,01,341,,15,14,245,27*7C
$GPGSV,3,3,12,17,60,056,32,19,85,189,38,24,51,292,37,28,32,092,30*7A
$GPGLL,4738.26500,N,12208.43360,W,045120.00,A,A*7B
$GPGST,045120.00,51,,,,10,8.1,24*5F
$GPZDA,045120.00,26,02,2016,00,00*67
$GPRMC,045121.00,A,4738.26460,N,12208.43386,W,0.237,346.14,260216,,,A*71
$GPVTG,346.14,T,,M,0.237,N,0.439,K,A*31
$GPGGA,045121.00,4738.26460,N,12208.43386,W,1,07,1.50,109.0,M,-18.7,M,,*68
$GPGSA,A,3,17,24,06,28,12,13,15,,,,,,3.01,1.50,2.61*08
$GPGSV,3,1,12,01,09,032,36,02,11,182,,03,03,063,,06,37,149,40*72
$GPGSV,3,2,12,12,26,288,33,13,06,207,17,14,01,341,,15,14,245,26*7D
$GPGSV,3,3,12,17,60,056,32,19,85,189,38,24,51,292,37,28,32,092,31*7B
$GPGLL,4738.26460,N,12208.43386,W,045121.00,A,A*75
$GPGST,045121.00,51,,,,9.3,7.4,22*77
$GPZDA,045121.00,26,02,2016,00,00*66
$GPRMC,045122.00,A,4738.26432,N,12208.43393,W,0.022,,260216,,,A*6D
$GPVTG,,T,,M,0.022,N,0.041,K,A*26
$GPGGA,045122.00,4738.26432,N,12208.43393,W,1,07,1.50,110.5,M,-18.7,M,,*65
$GPGSA,A,3,17,24,06,28,12,13,15,,,,,,3.00,1.50,2.61*09
$GPGSV,3,1,12,01,09,032,36,02,11,182,,03,03,063,,06,37,149,40*72
$GPGSV,3,2,12,12,26,288,32,13,06,207,16,14,01,341,,15,14,245,26*7D
$GPGSV,3,3,12,17,60,056,32,19,85,189,38,24,51,292,37,28,32,092,31*7B
$GPGLL,4738.26432,N,12208.43393,W,045122.00,A,A*75
$GPGST,045122.00,52,,,,8.7,7.0,20*74
$GPZDA,045122.00,26,02,2016,00,00*65
$GPRMC,045123.00,A,4738.26398,N,12208.43414,W,0.850,339.13,260216,,,A*7B
$GPVTG,339.13,T,,M,0.850,N,1.576,K,A*3E
$GPGGA,045123.00,4738.26398,N,12208.43414,W,1,07,1.50,111.5,M,-18.7,M,,*6A
$GPGSA,A,3,17,24,06,28,12,13,15,,,,,,3.00,1.50,2.60*08
$GPGSV,3,1,12,01,09,032,37,02,11,182,,03,03,063,,06,37,149,40*73
$GPGSV,3,2,12,12,26,288,33,13,06,207,16,14,01,341,,15,14,245,26*7C
$GPGSV,3,3,12,17,60,056,32,19,85,189,38,24,51,292,37,28,32,092,31*7B
$GPGLL,4738.26398,N,12208.43414,W,045123.00,A,A*7B
$GPGST,045123.00,52,,,,8.3,6.6,19*7C
$GPZDA,045123.00,26,02,2016,00,00*64
$GPRMC,045124.00,A,4738.26389,N,12208.43415,W,0.074,,260216,,,A*66
$GPVTG,,T,,M,0.074,N,0.137,K,A*25
$GPGGA,045124.00,4738.26389,N,12208.43415,W,1,07,1.50,112.5,M,-18.7,M,,*6F
$GPGSA,A,3,17,24,06,28,12,13,15,,,,,,3.00,1.50,2.60*08
$GPGSV,3,1,12,01,09,032,37,02,11,182,,03,03,063,,06,37,149,40*73
$GPGSV,3,2,12,12,26,288,33,13,06,207,16,14,01,341,,15,14,245,25*7F
$GPGSV,3,3,12,17,60,056,32,19,85,189,38,24,51,292,37,28,32,092,31*7B
$GPGLL,4738.26389,N,12208.43415,W,045124.00,A,A*7D
$GPGST,045124.00,52,,,,8.0,6.4,18*7B
$GPZDA,045124.00,26,02,2016,00,00*63
$GPRMC,045125.00,A,4738.26376,N,12208.43417,W,0.119,,260216,,,A*6F
$GPVTG,,T,,M,0.119,N,0.221,K,A*2B
$GPGGA,045125.00,4738.26376,N,12208.43417,W,1,07,1.50,113.3,M,-18.7,M,,*6B
$GPGSA,A,3,17,24,06,28,12,13,15,,,,,,3.00,1.50,2.60*08
$GPGSV,3,1,12,01,09,032,36,02,11,182,,03,03,063,,06,37,149,40*72
$GPGSV,3,2,12,12,26,288,33,13,06,207,16,14,01,341,,15,14,245,25*7F
$GPGSV,3,3,12,17,60,056,32,19,85,189,37,24,51,292,36,28,32,092,31*75
$GPGLL,4738.26376,N,12208.43417,W,045125.00,A,A*7E
$GPGST,045125.00,52,,,,7.7,6.2,17*7B
$GPZDA,045125.00,26,02,2016,00,00*62
$GPRMC,045126.00,A,4738.26381,N,12208.43415,W,0.648,341.64,260216,,,A*7F
$GPVTG,341.64,T,,M,0.648,N,1.201,K,A*31
$GPGGA,045126.00,4738.26381,N,12208.43415,W,1,07,1.50,113.9,M,-18.7,M,,*68
$GPGSA,A,3,17,24,06,28,12,13,15,,,,,,3.00,1.50,2.60*08
$GPGSV,3,1,12,01,09,032,36,02,11,182,,03,03,063,,06,37,149,40*72
$GPGSV,3,2,12,12,26,288,33,13,06,207,16,14,01,341,,15,14,245,25*7F
$GPGSV,3,3,12,17,60,056,33,19,85,189,37,24,51,292,36,28,32,092,31*74
$GPGLL,4738.26381,N,12208.43415,W,045126.00,A,A*77
$GPGST,045126.00,52,,,,7.5,6.1,16*78
$GPZDA,045126.00,26,02,2016,00,00*61
$GPRMC,045127.00,A,4738.26371,N,12208.43418,W,0.576,335.06,260216,,,A*75
$GPVTG,335.06,T,,M,0.576,N,1.068,K,A*35
$GPGGA,045127.00,4738.26371,N,12208.43418,W,1,07,1.50,114.4,M,-18.7,M,,*61
$GPGSA,A,3,17,24,06,28,12,13,15,,,,,,3.00,1.50,2.60*08
$GPGSV,3,1,12,01,09,032,36,02,11,182,,03,03,063,,06,37,149,40*72
$GPGSV,3,2,12,12,26,288,33,13,06,207,16,14,01,341,,15,14,245,25*7F
$GPGSV,3,3,12,17,60,056,32,19,85,189,37,24,51,292,37,28,32,092,30*75
$GPGLL,4738.26371,N,12208.43418,W,045127.00,A,A*74
$GPGST,045127.00,52,,,,7.4,6.0,16*79
$GPZDA,045127.00,26,02,2016,00,00*60
$GPRMC,045128.00,A,4738.26356,N,12208.43430,W,0.221,342.43,260216,,,A*71
$GPVTG,342.43,T,,M,0.221,N,0.409,K,A*33
$GPGGA,045128.00,4738.26356,N,12208.43430,W,1,07,1.56,114.3,M,-18.7,M,,*60
$GPGSA,A,3,17,24,06,28,12,13,15,,,,,,3.15,1.56,2.73*08
$GPGSV,3,1,12,01,09,032,36,02,11,182,,03,04,063,,06,37,149,40*75
$GPGSV,3,2,12,12,26,288,34,13,06,207,16,14,01,341,,15,14,245,26*7B
$GPGSV,3,3,12,17,60,056,33,19,85,189,37,24,51,292,36,28,32,092,30*75
$GPGLL,4738.26356,N,12208.43430,W,045128.00,A,A*74
$GPGST,045128.00,20,,,,7.2,5.9,15*7C
$GPZDA,045128.00,26,02,2016,00,00*6F
$GPRMC,045129.00,A,4738.26340,N,12208.43443,W,0.260,334.46,260216,,,A*72
$GPVTG,334.46,T,,M,0.260,N,0.481,K,A*32
$GPGGA,045129.00,4738.26340,N,12208.43443,W,1,07,1.56,114.1,M,-18.7,M,,*60
$GPGSA,A,3,17,24,06,28,12,13,15,,,,,,3.15,1.56,2.73*08
$GPGSV,3,1,12,01,09,032,36,02,11,182,,03,04,063,,06,37,149,40*75
$GPGSV,3,2,12,12,26,288,35,13,06,207,17,14,01,341,,15,14,245,26*7B
$GPGSV,3,3,12,17,60,056,33,19,85,189,37,24,51,292,36,28,32,092,31*74
$GPGLL,4738.26340,N,12208.43443,W,045129.00,A,A*76
$GPGST,045129.00,19,,,,7.1,5.8,15*75
$GPZDA,045129.00,26,02,2016,00,00*6E
$GPRMC,045130.00,A,4738.26321,N,12208.43464,W,0.412,328.86,260216,,,A*7A
$GPVTG,328.86,T,,M,0.412,N,0.764,K,A*38
$GPGGA,045130.00,4738.26321,N,12208.43464,W,1,07,1.56,114.0,M,-18.7,M,,*6B
$GPGSA,A,3,17,24,06,28,12,13,15,,,,,,3.15,1.56,2.73*08
$GPGSV,3,1,12,01,09,032,36,02,11,182,,03,04,063,,06,37,149,39*7B
$GPGSV,3,2,12,12,26,288,35,13,06,207,16,14,01,341,,15,14,245,26*7A
$GPGSV,3,3,12,17,60,056,33,19,85,189,37,24,51,292,36,28,32,092,30*75
$GPGLL,4738.26321,N,12208.43464,W,045130.00,A,A*7C
$GPGST,045130.00,20,,,,7.0,5.8,14*77
$GPZDA,045130.00,26,02,2016,00,00*66
$GPRMC,045131.00,A,4738.26295,N,12208.43486,W,0.361,320.24,260216,,,A*7A
$GPVTG,320.24,T,,M,0.361,N,0.669,K,A*37
$GPGGA,045131.00,4738.26295,N,12208.43486,W,1,07,1.56,113.7,M,-18.7,M,,*68
$GPGSA,A,3,17,24,06,28,12,13,15,,,,,,3.15,1.56,2.73*08
$GPGSV,3,1,12,01,09,032,36,02,11,182,,03,04,063,,06,37,149,39*7B
$GPGSV,3,2,12,12,26,288,35,13,06,207,17,14,01,341,,15,14,245,26*7B
$GPGSV,3,3,12,17,60,056,34,19,85,189,37,24,51,292,36,28,32,092,30*72
$GPGLL,4738.26295,N,12208.43486,W,045131.00,A,A*7F
$GPGST,045131.00,19,,,,6.9,5.7,14*7B
$GPZDA,045131.00,26,02,2016,00,00*67
$GPRMC,045132.00,A,4738.26276,N,12208.43496,W,0.098,,260216,,,A*69
$GPVTG,,T,,M,0.098,N,0.181,K,A*2A
$GPGGA,045132.00,4738.26276,N,12208.43496,W,1,07,1.56,113.6,M,-18.7,M,,*66
$GPGSA,A,3,17,24,06,28,12,13,15,,,,,,3.14,1.56,2.73*09
$GPGSV,3,1,12,01,09,032,36,02,11,182,,03,04,063,,06,37,149,39*7B
$GPGSV,3,2,12,12,26,288,35,13,06,207,17,14,01,341,,15,14,245,26*7B
$GPGSV,3,3,12,17,60,056,34,19,85,189,37,24,51,292,36,28,32,092,31*73
$GPGLL,4738.26276,N,12208.43496,W,045132.00,A,A*70
$GPGST,045132.00,19,,,,6.8,5.6,13*7F
$GPZDA,045132.00,26,02,2016,00,00*64
$GPRMC,045133.00,A,4738.26265,N,12208.43502,W,0.222,328.35,260216,,,A*74
$GPVTG,328.35,T,,M,0.222,N,0.412,K,A*37
$GPGGA,045133.00,4738.26265,N,12208.43502,W,1,07,1.56,113.4,M,-18.7,M,,*6B
$GPGSA,A,3,17,24,06,28,12,13,15,,,,,,3.14,1.56,2.73*09
$GPGSV,3,1,12,01,09,032,35,02,11,182,,03,04,063,,06,37,149,39*78
$GPGSV,3,2,12,12,26,288,35,13,06,207,17,14,01,341,,15,14,245,26*7B
$GPGSV,3,3,12,17,60,056,34,19,85,189,36,24,51,292,36,28,32,092,31*72
$GPGLL,4738.26265,N,12208.43502,W,045133.00,A,A*7F
$GPGST,045133.00,19,,,,6.7,5.5,13*72
$GPZDA,045133.00,26,02,2016,00,00*65
$GPRMC,045134.00,A,4738.26234,N,12208.43534,W,0.635,321.26,260216,,,A*7B
$GPVTG,321.26,T,,M,0.635,N,1.177,K,A*39
$GPGGA,045134.00,4738.26234,N,12208.43534,W,1,07,1.56,113.2,M,-18.7,M,,*6B
$GPGSA,A,3,17,24,06,28,12,13,15,,,,,,3.14,1.56,2.73*09
$GPGSV,3,1,12,01,09,032,36,02,11,182,,03,04,063,,06,37,149,39*7B
$GPGSV,3,2,12,12,26,288,35,13,06,207,17,14,01,341,,15,14,245,26*7B
$GPGSV,3,3,12,17,60,056,35,19,85,189,36,24,51,292,36,28,32,092,31*73
$GPGLL,4738.26234,N,12208.43534,W,045134.00,A,A*79
$GPGST,045134.00,19,,,,6.6,5.4,12*74
$GPZDA,045134.00,26,02,2016,00,00*62
$GPRMC,045135.00,A,4738.25892,N,12208.43899,W,0.650,314.14,260216,,,A*71
$GPVTG,314.14,T,,M,0.650,N,1.205,K,A*3B
$GPGGA,045135.00,4738.25892,N,12208.43899,W,1,08,1.01,122.6,M,-18.7,M,,*6E
$GPGSA,A,3,01,17,24,06,28,12,13,15,,,,,1.89,1.01,1.60*0D
$GPGSV,3,1,12,01,09,032,36,02,11,182,,03,04,063,,06,37,149,40*75
$GPGSV,3,2,12,12,26,288,35,13,06,207,17,14,01,341,,15,14,245,26*7B
$GPGSV,3,3,12,17,60,056,35,19,85,189,35,24,51,292,36,28,32,092,30*71
$GPGLL,4738.25892,N,12208.43899,W,045135.00,A,A*77
$GPGST,045135.00,19,,,,5.2,4.6,10*73
$GPZDA,045135.00,26,02,2016,00,00*63
$GPRMC,045136.00,A,4738.25806,N,12208.43996,W,0.108,,260216,,,A*66
$GPVTG,,T,,M,0.108,N,0.201,K,A*29
$GPGGA,045136.00,4738.25806,N,12208.43996,W,1,08,1.01,125.3,M,-18.7,M,,*6C
$GPGSA,A,3,01,17,24,06,28,12,13,15,,,,,1.89,1.01,1.60*0D
$GPGSV,3,1,12,01,09,032,35,02,11,182,,03,04,063,,06,37,149,39*78
$GPGSV,3,2,12,12,26,288,35,13,06,207,17,14,01,341,,15,14,245,26*7B
$GPGSV,3,3,12,17,60,056,34,19,85,189,36,24,51,292,36,28,32,092,31*72
$GPGLL,4738.25806,N,12208.43996,W,045136.00,A,A*77
$GPGST,045136.00,18,,,,4.7,4.4,9.6*57
$GPZDA,045136.00,26,02,2016,00,00*60
$GPRMC,045137.00,A,4738.25766,N,12208.44036,W,0.271,304.39,260216,,,A*74
$GPVTG,304.39,T,,M,0.271,N,0.501,K,A*30
$GPGGA,045137.00,4738.25766,N,12208.44036,W,1,08,1.01,126.5,M,-18.7,M,,*65
$GPGSA,A,3,01,17,24,06,28,12,13,15,,,,,1.89,1.01,1.60*0D
$GPGSV,3,1,12,01,09,032,34,02,11,182,,03,04,063,,06,37,149,38*78
$GPGSV,3,2,12,12,26,288,35,13,06,207,16,14,01,341,,15,14,245,26*7A
$GPGSV,3,3,12,17,60,056,35,19,85,189,34,24,51,292,35,28,32,092,30*73
$GPGLL,4738.25766,N,12208.44036,W,045137.00,A,A*7B
$GPGST,045137.00,19,,,,4.5,4.3,9.1*55
$GPZDA,045137.00,26,02,2016,00,00*61
$GPRMC,045138.00,A,4738.25759,N,12208.44065,W,0.315,301.71,260216,,,A*7B
$GPVTG,301.71,T,,M,0.315,N,0.584,K,A*37
$GPGGA,045138.00,4738.25759,N,12208.44065,W,1,08,1.01,127.0,M,-18.7,M,,*64
$GPGSA,A,3,01,17,24,06,28,12,13,15,,,,,1.89,1.01,1.60*0D
$GPGSV,3,1,12,01,09,032,33,02,11,182,,03,04,063,,06,37,149,39*7E
$GPGSV,3,2,12,12,26,288,35,13,06,207,16,14,01,341,,15,14,245,26*7A
$GPGSV,3,3,12,17,60,056,35,19,85,189,35,24,51,292,36,28,32,092,30*71
$GPGLL,4738.25759,N,12208.44065,W,045138.00,A,A*7E
$GPGST,045138.00,19,,,,4.4,4.2,8.7*5D
$GPZDA,045138.00,26,02,2016,00,00*6E
$GPRMC,045139.00,A,4738.25758,N,12208.44084,W,0.155,,260216,,,A*68
$GPVTG,,T,,M,0.155,N,0.287,K,A*2F
$GPGGA,045139.00,4738.25758,N,12208.44084,W,1,07,1.01,127.4,M,-18.7,M,,*60
$GPGSA,A,3,01,17,24,06,28,12,15,,,,,,1.89,1.01,1.60*0F
$GPGSV,3,1,12,01,09,032,33,02,11,182,,03,04,063,,06,37,149,39*7E
$GPGSV,3,2,12,12,26,288,35,13,06,207,,14,01,341,,15,14,245,26*7D
$GPGSV,3,3,12,17,60,056,35,19,85,189,36,24,51,292,36,28,32,092,31*73
$GPGLL,4738.25758,N,12208.44084,W,045139.00,A,A*71
$GPGST,045139.00,18,,,,4.3,4.2,8.4*59
$GPZDA,045139.00,26,02,2016,00,00*6F
$GPRMC,045140.00,A,4738.25756,N,12208.44105,W,0.145,,260216,,,A*61
$GPVTG,,T,,M,0.145,N,0.269,K,A*2E
$GPGGA,045140.00,4738.25756,N,12208.44105,W,1,07,1.01,128.0,M,-18.7,M,,*63
$GPGSA,A,3,01,17,24,06,28,12,15,,,,,,1.89,1.01,1.60*0F
$GPGSV,3,1,12,01,09,032,34,02,11,182,,03,04,063,,06,37,149,40*77
$GPGSV,3,2,12,12,26,288,35,13,06,207,,14,01,341,,15,14,245,26*7D
$GPGSV,3,3,12,17,60,056,34,19,85,189,36,24,51,292,36,28,32,092,31*72
$GPGLL,4738.25756,N,12208.44105,W,045140.00,A,A*79
$GPGST,045140.00,19,,,,4.2,4.1,8.1*51
$GPZDA,045140.00,26,02,2016,00,00*61
$GPRMC,045141.00,A,4738.25753,N,12208.44117,W,0.157,,260216,,,A*65
$GPVTG,,T,,M,0.157,N,0.291,K,A*2A
$GPGGA,045141.00,4738.25753,N,12208.44117,W,1,07,1.01,128.3,M,-18.7,M,,*67
$GPGSA,A,3,01,17,24,06,28,12,15,,,,,,1.89,1.01,1.60*0F
$GPGSV,3,1,12,01,09,032,33,02,11,182,,03,04,063,,06,37,149,40*70
$GPGSV,3,2,12,12,26,288,35,13,06,207,,14,01,341,,15,14,245,26*7D
$GPGSV,3,3,12,17,60,056,34,19,85,189,35,24,51,292,36,28,32,092,30*70
$GPGLL,4738.25753,N,12208.44117,W,045141.00,A,A*7E
$GPGST,045141.00,19,,,,4.2,4.1,7.8*56
$GPZDA,045141.00,26,02,2016,00,00*60
$GPRMC,045142.00,A,4738.25735,N,12208.44134,W,0.588,296.16,260216,,,A*75
$GPVTG,296.16,T,,M,0.588,N,1.089,K,A*32
$GPGGA,045142.00,4738.25735,N,12208.44134,W,1,07,1.01,128.5,M,-18.7,M,,*63
$GPGSA,A,3,01,17,24,06,28,12,15,,,,,,1.89,1.01,1.60*0F
$GPGSV,3,1,12,01,09,032,33,02,11,182,,03,04,063,,06,37,149,40*70
$GPGSV,3,2,12,12,26,288,34,13,06,207,,14,01,341,,15,14,245,25*7F
$GPGSV,3,3,12,17,60,056,34,19,85,189,34,24,51,292,36,28,32,092,31*70
$GPGLL,4738.25735,N,12208.44134,W,045142.00,A,A*7C
$GPGST,045142.00,20,,,,4.1,4.1,7.6*52
$GPZDA,045142.00,26,02,2016,00,00*63
$GPRMC,045143.00,A,4738.25715,N,12208.44157,W,0.417,291.19,260216,,,A*7C
$GPVTG,291.19,T,,M,0.417,N,0.772,K,A*3F
$GPGGA,045143.00,4738.25715,N,12208.44157,W,1,07,1.01,128.7,M,-18.7,M,,*67
$GPGSA,A,3,01,17,24,06,28,12,15,,,,,,1.89,1.01,1.60*0F
$GPGSV,3,1,12,01,09,032,33,02,11,182,,03,04,063,,06,37,149,40*70
$GPGSV,3,2,12,12,26,288,34,13,06,207,,14,01,341,,15,14,245,25*7F
$GPGSV,3,3,12,17,60,056,35,19,85,189,35,24,51,292,36,28,32,092,30*71
$GPGLL,4738.25715,N,12208.44157,W,045143.00,A,A*7A
$GPGST,045143.00,20,,,,4.1,4.1,7.4*51
$GPZDA,045143.00,26,02,2016,00,00*62
$GPRMC,045144.00,A,4738.25702,N,12208.44178,W,0.209,291.44,260216,,,A*71
$GPVTG,291.44,T,,M,0.209,N,0.387,K,A*30
$GPGGA,045144.00,4738.25702,N,12208.44178,W,1,07,1.01,128.8,M,-18.7,M,,*64
$GPGSA,A,3,01,17,24,06,28,12,15,,,,,,1.89,1.01,1.60*0F
$GPGSV,3,1,12,01,09,032,33,02,11,182,,03,04,063,,06,37,149,40*70
$GPGSV,3,2,12,12,26,288,34,13,06,207,,14,01,341,,15,14,245,25*7F
$GPGSV,3,3,12,17,60,056,35,19,85,188,35,24,51,292,36,28,32,092,30*70
$GPGLL,4738.25702,N,12208.44178,W,045144.00,A,A*76
$GPGST,045144.00,20,,,,4.1,4.2,7.2*53
$GPZDA,045144.00,26,02,2016,00,00*65
$GPRMC,045145.00,A,4738.25694,N,12208.44193,W,0.291,289.30,260216,,,A*70
$GPVTG,289.30,T,,M,0.291,N,0.540,K,A*36
$GPGGA,045145.00,4738.25694,N,12208.44193,W,1,07,1.01,128.8,M,-18.7,M,,*6E
$GPGSA,A,3,01,17,24,06,28,12,15,,,,,,1.89,1.01,1.60*0F
$GPGSV,3,1,12,01,09,032,32,02,11,182,,03,04,063,,06,37,149,40*71
$GPGSV,3,2,12,12,26,288,34,13,06,207,,14,01,341,,15,14,245,25*7F
$GPGSV,3,3,12,17,60,056,35,19,85,188,35,24,51,292,37,28,32,092,30*71
$GPGLL,4738.25694,N,12208.44193,W,045145.00,A,A*7C
$GPGST,045145.00,21,,,,4.1,4.2,7.1*50
$GPZDA,045145.00,26,02,2016,00,00*64
$GPRMC,045146.00,A,4738.25677,N,12208.44210,W,0.399,284.65,260216,,,A*72
$GPVTG,284.65,T,,M,0.399,N,0.739,K,A*3E
$GPGGA,045146.00,4738.25677,N,12208.44210,W,1,07,1.01,128.8,M,-18.7,M,,*68
$GPGSA,A,3,01,17,24,06,28,12,15,,,,,,1.89,1.01,1.60*0F
$GPGSV,3,1,12,01,09,032,32,02,11,182,,03,04,063,,06,37,149,40*71
$GPGSV,3,2,12,12,26,288,34,13,06,207,,14,01,341,,15,14,245,25*7F
$GPGSV,3,3,12,17,60,056,35,19,85,188,35,24,51,292,37,28,32,092,30*71
$GPGLL,4738.25677,N,12208.44210,W,045146.00,A,A*7A
$GPGST,045146.00,21,,,,4.1,4.2,6.9*5A
$GPZDA,045146.00,26,02,2016,00,00*67
$GPRMC,045147.00,A,4738.25656,N,12208.44234,W,0.459,280.40,260216,,,A*7E
$GPVTG,280.40,T,,M,0.459,N,0.850,K,A*36
$GPGGA,045147.00,4738.25656,N,12208.44234,W,1,07,1.01,128.8,M,-18.7,M,,*6C
$GPGSA,A,3,01,17,24,06,28,12,15,,,,,,1.89,1.01,1.60*0F
$GPGSV,3,1,12,01,09,032,32,02,11,182,,03,04,063,,06,37,149,39*7F
$GPGSV,3,2,12,12,26,288,35,13,06,207,,14,01,341,,15,14,245,26*7D
$GPGSV,3,3,12,17,60,056,35,19,85,188,35,24,51,292,36,28,32,092,30*70
$GPGLL,4738.25656,N,12208.44234,W,045147.00,A,A*7E
$GPGST,045147.00,19,,,,4.2,4.1,6.7*5E
$GPZDA,045147.00,26,02,2016,00,00*66
$GPRMC,045148.00,A,4738.25637,N,12208.44253,W,0.187,,260216,,,A*61
$GPVTG,,T,,M,0.187,N,0.346,K,A*2C
$GPGGA,045148.00,4738.25637,N,12208.44253,W,1,07,1.01,128.8,M,-18.7,M,,*65
$GPGSA,A,3,01,17,24,06,28,12,15,,,,,,1.89,1.01,1.60*0F
$GPGSV,3,1,12,01,09,032,32,02,11,182,,03,04,063,,06,37,149,40*71
$GPGSV,3,2,12,12,26,288,35,13,06,207,,14,01,341,,15,14,245,26*7D
$GPGSV,3,3,12,17,60,056,36,19,85,188,35,24,51,292,36,28,32,092,31*72
$GPGLL,4738.25637,N,12208.44253,W,045148.00,A,A*77
$GPGST,045148.00,19,,,,4.1,4.1,6.6*53
$GPZDA,045148.00,26,02,2016,00,00*69
$GPRMC,045149.00,A,4738.25617,N,12208.44254,W,0.301,271.29,260216,,,A*78
$GPVTG,271.29,T,,M,0.301,N,0.558,K,A*38
$GPGGA,045149.00,4738.25617,N,12208.44254,W,1,07,1.01,128.8,M,-18.7,M,,*61
$GPGSA,A,3,01,17,24,06,28,12,15,,,,,,1.89,1.01,1.60*0F
$GPGSV,3,1,12,01,09,032,32,02,11,182,,03,04,063,,06,37,149,40*71
$GPGSV,3,2,12,12,26,288,34,13,06,207,,14,01,341,,15,14,245,26*7C
$GPGSV,3,3,12,17,60,056,35,19,85,188,35,24,51,292,37,28,32,092,30*71
$GPGLL,4738.25617,N,12208.44254,W,045149.00,A,A*73
$GPGST,045149.00,20,,,,4.1,4.1,6.4*5A
$GPZDA,045149.00,26,02,2016,00,00*68
$GPRMC,045150.00,A,4738.25609,N,12208.44251,W,0.141,,260216,,,A*6D
$GPVTG,,T,,M,0.141,N,0.261,K,A*22
$GPGGA,045150.00,4738.25609,N,12208.44251,W,1,07,1.01,128.8,M,-18.7,M,,*63
$GPGSA,A,3,01,17,24,06,28,12,15,,,,,,1.89,1.01,1.60*0F
$GPGSV,3,1,12,01,09,032,31,02,11,182,,03,04,063,,06,37,149,40*72
$GPGSV,3,2,12,12,26,288,34,13,06,207,,14,01,341,,15,14,245,27*7D
$GPGSV,3,3,12,17,60,056,35,19,85,188,35,24,51,292,37,28,32,092,31*70
$GPGLL,4738.25609,N,12208.44251,W,045150.00,A,A*71
$GPGST,045150.00,19,,,,4.2,4.1,6.3*5C
$GPZDA,045150.00,26,02,2016,00,00*60
$GPRMC,045151.00,A,4738.25609,N,12208.44240,W,0.491,280.93,260216,,,A*7A
$GPVTG,280.93,T,,M,0.491,N,0.910,K,A*39
$GPGGA,045151.00,4738.25609,N,12208.44240,W,1,07,1.01,128.8,M,-18.7,M,,*62
$GPGSA,A,3,01,17,24,06,28,12,15,,,,,,1.89,1.01,1.60*0F
$GPGSV,3,1,12,01,09,032,31,02,11,182,,03,04,063,,06,37,149,40*72
$GPGSV,3,2,12,12,26,288,34,13,06,207,,14,01,341,,15,14,245,27*7D
$GPGSV,3,3,12,17,60,056,35,19,85,188,35,24,51,292,37,28,32,092,31*70
$GPGLL,4738.25609,N,12208.44240,W,045151.00,A,A*70
$GPGST,045151.00,19,,,,4.2,4.1,6.2*5C
$GPZDA,045151.00,26,02,2016,00,00*61
$GPRMC,045152.00,A,4738.25607,N,12208.44234,W,0.353,288.82,260216,,,A*75
$GPVTG,288.82,T,,M,0.353,N,0.653,K,A*30
$GPGGA,045152.00,4738.25607,N,12208.44234,W,1,07,1.01,128.9,M,-18.7,M,,*6D
$GPGSA,A,3,01,17,24,06,28,12,15,,,,,,1.89,1.01,1.60*0F
$GPGSV,3,1,12,01,09,032,31,02,11,182,,03,04,063,,06,37,149,40*72
$GPGSV,3,2,12,12,26,288,34,13,06,207,,14,01,341,,15,14,245,27*7D
$GPGSV,3,3,12,17,60,056,35,19,85,188,35,24,51,292,37,28,32,092,30*71
$GPGLL,4738.25607,N,12208.44234,W,045152.00,A,A*7E
$GPGST,045152.00,19,,,,4.2,4.1,6.1*5C
$GPZDA,045152.00,26,02,2016,00,00*62
$GPRMC,045153.00,A,4738.25607,N,12208.44234,W,0.315,292.10,260216,,,A*76
$GPVTG,292.10,T,,M,0.315,N,0.584,K,A*3B
$GPGGA,045153.00,4738.25607,N,12208.44234,W,1,07,1.01,128.9,M,-18.7,M,,*6C
$GPGSA,A,3,01,17,24,06,28,12,15,,,,,,1.89,1.01,1.60*0F
$GPGSV,3,1,12,01,09,032,31,02,11,182,,03,04,063,,06,37,149,40*72
$GPGSV,3,2,12,12,26,288,34,13,06,207,,14,01,341,,15,14,245,28*72
$GPGSV,3,3,12,17,60,056,36,19,85,188,35,24,51,292,37,28,32,092,31*73
$GPGLL,4738.25607,N,12208.44234,W,045153.00,A,A*7F
$GPGST,045153.00,18,,,,4.2,4.1,6.0*5D
$GPZDA,045153.00,26,02,2016,00,00*63
$GPRMC,045154.00,A,4738.25604,N,12208.44234,W,0.029,,260216,,,A*68
$GPVTG,,T,,M,0.029,N,0.054,K,A*29
$GPGGA,045154.00,4738.25604,N,12208.44234,W,1,07,1.01,129.0,M,-18.7,M,,*60
$GPGSA,A,3,01,17,24,06,28,12,15,,,,,,1.89,1.01,1.60*0F
$GPGSV,3,1,12,01,09,032,31,02,11,182,,03,04,063,,06,37,149,40*72
$GPGSV,3,2,12,12,26,288,34,13,06,207,,14,01,341,,15,14,245,27*7D
$GPGSV,3,3,12,17,60,056,36,19,85,188,35,24,51,292,37,28,32,092,32*70
$GPGLL,4738.25604,N,12208.44234,W,045154.00,A,A*7B
$GPGST,045154.00,18,,,,4.2,4.0,5.9*51
$GPZDA,045154.00,26,02,2016,00,00*64
$GPRMC,045155.00,A,4738.25601,N,12208.44228,W,0.163,,260216,,,A*6E
$GPVTG,,T,,M,0.163,N,0.303,K,A*27
$GPGGA,045155.00,4738.25601,N,12208.44228,W,1,07,1.01,129.0,M,-18.7,M,,*69
$GPGSA,A,3,01,17,24,06,28,12,15,,,,,,1.89,1.01,1.60*0F
$GPGSV,3,1,12,01,09,032,30,02,11,182,,03,04,063,,06,37,149,40*73
$GPGSV,3,2,12,12,26,288,33,13,06,207,,14,01,341,,15,14,245,28*75
$GPGSV,3,3,12,17,60,056,36,19,85,188,35,24,51,292,37,28,32,092,31*73
$GPGLL,4738.25601,N,12208.44228,W,045155.00,A,A*72
$GPGST,045155.00,19,,,,4.2,4.0,5.8*50
$GPZDA,045155.00,26,02,2016,00,00*65
$GPRMC,045156.00,A,4738.25590,N,12208.44266,W,0.459,295.16,260216,,,A*77
$GPVTG,295.16,T,,M,0.459,N,0.851,K,A*30
$GPGGA,045156.00,4738.25590,N,12208.44266,W,1,07,1.01,129.3,M,-18.7,M,,*68
$GPGSA,A,3,01,17,24,06,28,12,15,,,,,,1.89,1.01,1.60*0F
$GPGSV,3,1,12,01,09,032,34,02,11,182,,03,04,063,,06,37,149,40*77
$GPGSV,3,2,12,12,26,288,36,13,06,207,,14,01,341,,15,14,245,27*7F
$GPGSV,3,3,12,17,60,056,33,19,85,188,35,24,51,292,35,28,32,092,32*77
$GPGLL,4738.25590,N,12208.44266,W,045156.00,A,A*70
$GPGST,045156.00,18,,,,4.1,4.0,5.7*5E
$GPZDA,045156.00,26,02,2016,00,00*66
$GPRMC,045157.00,A,4738.25608,N,12208.44290,W,0.952,299.23,260216,,,A*71
$GPVTG,299.23,T,,M,0.952,N,1.765,K,A*35
$GPGGA,045157.00,4738.25608,N,12208.44290,W,1,07,1.01,128.7,M,-18.7,M,,*67
$GPGSA,A,3,01,17,24,06,28,12,15,,,,,,1.89,1.01,1.60*0F
$GPGSV,3,1,12,01,09,032,25,02,11,182,,03,04,063,,06,37,149,40*77
$GPGSV,3,2,12,12,26,288,38,13,06,207,,14,01,341,,15,14,245,25*73
$GPGSV,3,3,12,17,60,056,34,19,85,188,33,24,51,292,39,28,32,092,25*7C
$GPGLL,4738.25608,N,12208.44290,W,045157.00,A,A*7A
$GPGST,045157.00,27,,,,4.2,3.9,5.6*5F
$GPZDA,045157.00,26,02,2016,00,00*67
$GPRMC,045158.00,A,4738.25643,N,12208.44288,W,1.321,302.76,260216,,,A*74
$GPVTG,302.76,T,,M,1.321,N,2.448,K,A*36
$GPGGA,045158.00,4738.25643,N,12208.44288,W,1,07,1.01,128.6,M,-18.7,M,,*6F
$GPGSA,A,3,01,17,24,06,28,12,15,,,,,,1.89,1.01,1.59*05
$GPGSV,3,1,12,01,09,032,28,02,11,182,,03,04,063,,06,37,149,33*7E
$GPGSV,3,2,12,12,26,288,35,13,06,207,,14,01,341,,15,14,245,20*7B
$GPGSV,3,3,12,17,60,056,38,19,85,188,34,24,51,292,36,28,32,092,25*78
$GPGLL,4738.25643,N,12208.44288,W,045158.00,A,A*73
$GPZDA,045158.00,26,02,2016,00,00*68
$GPGST,045158.00,30,,,,4.4,3.9,5.5*53
$GPRMC,045159.00,A,4738.25733,N,12208.44259,W,2.825,5.08,260216,,,A*7E
$GPVTG,5.08,T,,M,2.825,N,5.235,K,A*3C
$GPGGA,045159.00,4738.25733,N,12208.44259,W,1,07,1.01,128.3,M,-18.7,M,,*61
$GPGSA,A,3,01,17,24,06,28,12,15,,,,,,1.89,1.01,1.59*05
$GPGSV,3,1,12,01,09,032,27,02,11,182,,03,04,063,,06,37,149,28*7B
$GPGSV,3,2,12,12,26,288,36,13,06,207,,14,01,341,,15,14,245,20*78
$GPGLL,4738.25733,N,12208.44259,W,045159.00,A,A*78
$GPGST,045159.00,29,,,,4.9,3.8,5.4*57
$GPZDA,045159.00,26,02,2016,00,00*69
$GPGSV,3,3,12,17,60,056,38,19,85,188,33,24,51,292,36,28,32,092,31*7A
$GPRMC,045200.00,A,4738.25839,N,12208.44168,W,2.704,358.42,260216,,,A*7C
$GPVTG,358.42,T,,M,2.704,N,5.010,K,A*30
$GPGGA,045200.00,4738.25839,N,12208.44168,W,1,07,1.01,127.7,M,-18.7,M,,*61
$GPGSA,A,3,01,17,24,06,28,12,15,,,,,,1.89,1.01,1.59*05
$GPGSV,3,1,12,01,09,032,27,02,11,182,,03,04,063,,06,37,149,37*75
$GPGSV,3,2,12,12,26,288,29,13,06,207,,14,01,341,,15,14,245,19*7C
$GPGSV,3,3,12,17,60,056,31,19,85,188,34,24,51,292,38,28,32,092,36*7D
$GPGLL,4738.25839,N,12208.44168,W,045200.00,A,A*73
$GPGST,045200.00,30,,,,5.3,3.9,5.4*5A
$GPZDA,045200.00,26,02,2016,00,00*66
$GPRMC,045201.00,A,4738.25975,N,12208.44083,W,3.198,350.09,260216,,,A*75
$GPVTG,350.09,T,,M,3.198,N,5.926,K,A*39
$GPGGA,045201.00,4738.25975,N,12208.44083,W,1,07,1.01,127.0,M,-18.7,M,,*6A
$GPGSA,A,3,01,17,24,06,28,12,15,,,,,,1.89,1.01,1.59*05
$GPGSV,3,1,12,01,09,032,28,02,11,182,,03,04,063,,06,37,149,35*78
$GPGSV,3,2,12,12,26,288,29,13,06,207,,14,01,341,,15,14,245,21*77
$GPGSV,3,3,12,17,60,056,32,19,85,188,36,24,51,292,38,28,32,092,37*7D
$GPGLL,4738.25975,N,12208.44083,W,045201.00,A,A*7F
$GPGST,045201.00,26,,,,5.6,3.8,5.3*5F
$GPZDA,045201.00,26,02,2016,00,00*67
$GPRMC,045202.00,A,4738.26063,N,12208.44112,W,2.270,321.40,260216,,,A*7D
$GPVTG,321.40,T,,M,2.270,N,4.205,K,A*3D
$GPGGA,045202.00,4738.26063,N,12208.44112,W,1,07,1.01,126.6,M,-18.7,M,,*6A
$GPGSA,A,3,01,17,24,06,28,12,15,,,,,,1.89,1.01,1.59*05
$GPGSV,3,1,12,01,09,032,26,02,11,182,,03,04,063,,06,37,149,33*70
$GPGSV,3,2,12,12,26,288,33,13,06,207,,14,01,341,,15,14,245,20*7D
$GPGSV,3,3,12,17,60,056,36,19,85,188,40,24,51,292,35,28,32,092,34*76
$GPGLL,4738.26063,N,12208.44112,W,045202.00,A,A*78
$GPZDA,045202.00,26,02,2016,00,00*64
$GPGST,045202.00,30,,,,6.0,3.9,5.3*5F
$GPRMC,045203.00,A,4738.26114,N,12208.44130,W,0.504,321.36,260216,,,A*7A
$GPVTG,321.36,T,,M,0.504,N,0.933,K,A*30
$GPGGA,045203.00,4738.26114,N,12208.44130,W,1,07,1.01,126.4,M,-18.7,M,,*68
$GPGSA,A,3,01,17,24,06,28,12,15,,,,,,1.89,1.01,1.59*05
$GPGSV,3,1,12,01,09,032,28,02,11,182,,03,04,063,,06,37,149,36*7B
$GPGSV,3,2,12,12,26,288,35,13,06,207,,14,01,341,,15,14,245,20*7B
$GPGSV,3,3,12,17,60,056,35,19,85,188,39,24,51,292,31,28,32,092,33*78
$GPGLL,4738.26114,N,12208.44130,W,045203.00,A,A*78
$GPGST,045203.00,28,,,,6.0,4.1,5.3*58
$GPZDA,045203.00,26,02,2016,00,00*65
$GPRMC,045204.00,A,4738.26154,N,12208.44080,W,1.552,328.42,260216,,,A*7B
$GPVTG,328.42,T,,M,1.552,N,2.875,K,A*39
$GPGGA,045204.00,4738.26154,N,12208.44080,W,1,07,1.01,126.3,M,-18.7,M,,*66
$GPGSA,A,3,01,17,24,06,28,12,15,,,,,,1.89,1.01,1.59*05
$GPGSV,3,1,12,01,09,032,29,02,11,182,,03,04,063,,06,37,149,37*7B
$GPGSV,3,2,12,12,26,288,33,13,06,207,,14,01,341,,15,14,245,20*7D
$GPGSV,3,3,12,17,60,056,35,19,85,188,39,24,51,292,34,28,32,092,33*7D
$GPGLL,4738.26154,N,12208.44080,W,045204.00,A,A*71
$GPGST,045204.00,27,,,,5.9,4.2,5.2*58
$GPZDA,045204.00,26,02,2016,00,00*62
$GPRMC,045205.00,A,4738.26162,N,12208.43948,W,3.398,92.81,260216,,,A*4A
$GPVTG,92.81,T,,M,3.398,N,6.296,K,A*05
$GPGGA,045205.00,4738.26162,N,12208.43948,W,1,07,1.01,126.0,M,-18.7,M,,*6B
$GPGSA,A,3,01,17,24,06,28,12,15,,,,,,1.89,1.01,1.59*05
$GPGSV,3,1,12,01,09,032,22,02,11,182,,03,04,063,,06,37,149,34*73
$GPGSV,3,2,12,12,26,288,34,13,06,207,,14,01,341,,15,14,245,20*7A
$GPGSV,3,3,12,17,60,056,37,19,85,188,39,24,51,292,37,28,32,092,34*7B
$GPGLL,4738.26162,N,12208.43948,W,045205.00,A,A*7F
$GPGST,045205.00,31,,,,6.1,4.2,5.2*55
$GPZDA,045205.00,26,02,2016,00,00*63
$GPRMC,045206.00,A,4738.26202,N,12208.43722,W,5.583,80.63,260216,,,A*4B
$GPVTG,80.63,T,,M,5.583,N,10.346,K,A*3B
$GPGGA,045206.00,4738.26202,N,12208.43722,W,1,07,1.01,126.0,M,-18.7,M,,*6F
$GPGSA,A,3,01,17,24,06,28,12,15,,,,,,1.89,1.01,1.59*05
$GPGSV,3,1,12,01,09,032,22,02,11,182,,03,04,063,,06,37,149,31*76
$GPGSV,3,2,12,12,26,288,31,13,06,207,,14,01,341,,15,14,245,20*7F
$GPGSV,3,3,12,17,60,056,37,19,85,188,37,24,51,292,37,28,32,092,25*75
$GPGLL,4738.26202,N,12208.43722,W,045206.00,A,A*7B
$GPGST,045206.00,33,,,,6.4,4.3,5.2*50
$GPZDA,045206.00,26,02,2016,00,00*60
$GPRMC,045207.00,A,4738.26353,N,12208.43354,W,8.757,61.36,260216,,,A*43
$GPVTG,61.36,T,,M,8.757,N,16.226,K,A*33
$GPGGA,045207.00,4738.26353,N,12208.43354,W,1,07,1.01,125.5,M,-18.7,M,,*68
$GPGSA,A,3,01,17,24,06,28,12,15,,,,,,1.89,1.01,1.59*05
$GPGSV,3,1,12,01,09,032,30,02,11,182,,03,04,063,,06,37,149,31*75
$GPGSV,3,2,12,12,26,288,34,13,06,207,,14,01,341,,15,14,245,21*7B
$GPGSV,3,3,12,17,60,056,38,19,85,188,33,24,51,292,39,28,32,092,33*77
$GPGLL,4738.26353,N,12208.43354,W,045207.00,A,A*7A
$GPGST,045207.00,26,,,,6.7,4.0,5.1*56
$GPZDA,045207.00,26,02,2016,00,00*61
$GPRMC,045208.00,A,4738.26539,N,12208.42986,W,11.052,60.02,260216,,,A*7E
$GPVTG,60.02,T,,M,11.052,N,20.480,K,A*00
$GPGGA,045208.00,4738.26539,N,12208.42986,W,1,07,1.01,124.9,M,-18.7,M,,*64
$GPGSA,A,3,01,17,24,06,28,12,15,,,,,,1.89,1.01,1.59*05
$GPGSV,3,1,12,01,09,032,29,02,11,182,,03,04,063,,06,37,149,37*7B
$GPGSV,3,2,12,12,26,288,34,13,06,207,,14,01,341,,15,14,245,25*7F
$GPGSV,3,3,12,17,60,056,39,19,85,188,36,24,51,292,38,28,32,092,33*72
$GPGLL,4738.26539,N,12208.42986,W,045208.00,A,A*7B
$GPGST,045208.00,20,,,,6.0,3.8,5.0*56
$GPZDA,045208.00,26,02,2016,00,00*6E
$GPRMC,045209.00,A,4738.26756,N,12208.42565,W,12.201,53.30,260216,,,A*73
$GPVTG,53.30,T,,M,12.201,N,22.608,K,A*06
$GPGGA,045209.00,4738.26756,N,12208.42565,W,1,07,1.01,124.2,M,-18.7,M,,*64
$GPGSA,A,3,01,17,24,06,28,12,15,,,,,,1.89,1.01,1.59*05
$GPGSV,4,1,13,01,09,032,30,02,11,182,,03,04,063,,06,37,149,39*7B
$GPGSV,4,2,13,12,26,288,35,13,06,207,,14,01,341,,15,14,245,30*7C
$GPGSV,4,3,13,17,60,056,39,19,85,188,37,24,51,292,38,28,32,092,32*74
$GPGSV,4,4,13,32,,,31*78
$GPGLL,4738.26756,N,12208.42565,W,045209.00,A,A*70
$GPGST,045209.00,16,,,,4.9,3.6,5.0*57
$GPZDA,045209.00,26,02,2016,00,00*6F
$GPRMC,045210.00,A,4738.26997,N,12208.42173,W,12.115,42.25,260216,,,A*79
$GPVTG,42.25,T,,M,12.115,N,22.450,K,A*0B
$GPGGA,045210.00,4738.26997,N,12208.42173,W,1,07,1.01,123.7,M,-18.7,M,,*6E
$GPGSA,A,3,01,17,24,06,28,12,15,,,,,,1.89,1.01,1.59*05
$GPGSV,4,1,13,01,09,032,30,02,11,182,,03,04,063,,06,37,149,39*7B
$GPGSV,4,2,13,12,26,288,28,13,06,207,,14,01,341,,15,14,245,27*76
$GPGSV,4,3,13,17,60,056,37,19,85,188,33,24,51,292,34,28,32,092,35*75
$GPGSV,4,4,13,32,11,322,27*4C
$GPGLL,4738.26997,N,12208.42173,W,045210.00,A,A*78
$GPGST,045210.00,20,,,,4.5,3.7,4.9*5F
$GPZDA,045210.00,26,02,2016,00,00*67
$GPRMC,045211.00,A,4738.27284,N,12208.41900,W,11.470,30.15,260216,,,A*7C
$GPVTG,30.15,T,,M,11.470,N,21.255,K,A*08
$GPGGA,045211.00,4738.27284,N,12208.41900,W,1,07,1.01,123.0,M,-18.7,M,,*6F
$GPGSA,A,3,01,17,24,06,28,12,15,,,,,,1.89,1.01,1.59*05
$GPGSV,4,1,13,01,09,032,31,02,11,182,,03,04,063,,06,37,149,35*76
$GPGSV,4,2,13,12,26,288,35,13,06,207,,14,01,341,,15,14,245,27*7A
$GPGSV,4,3,13,17,60,056,38,19,85,188,35,24,51,292,37,28,32,092,31*7B
$GPGSV,4,4,13,32,11,322,27*4C
$GPGLL,4738.27284,N,12208.41900,W,045211.00,A,A*7E
$GPGST,045211.00,19,,,,4.6,3.7,4.9*57
$GPZDA,045211.00,26,02,2016,00,00*66
$GPRMC,045212.00,A,4738.27542,N,12208.41721,W,10.397,23.13,260216,,,A*74
$GPVTG,23.13,T,,M,10.397,N,19.265,K,A*0B
$GPGGA,045212.00,4738.27542,N,12208.41721,W,1,07,1.01,122.7,M,-18.7,M,,*6A
$GPGSA,A,3,01,17,24,06,28,12,15,,,,,,1.89,1.01,1.59*05
$GPGSV,4,1,13,01,09,032,22,02,11,182,,03,04,063,,06,37,149,31*70
$GPGSV,4,2,13,12,26,288,32,13,06,207,,14,01,341,,15,14,245,33*78
$GPGSV,4,3,13,17,60,056,41,19,85,188,34,24,51,292,31,28,32,092,31*72
$GPGSV,4,4,13,32,11,322,26*4D
$GPGLL,4738.27542,N,12208.41721,W,045212.00,A,A*7D
$GPGST,045212.00,28,,,,5.0,3.8,4.9*5E
$GPZDA,045212.00,26,02,2016,00,00*65
$GPRMC,045213.00,A,4738.27759,N,12208.41605,W,7.437,17.13,260216,,,A*46
$GPVTG,17.13,T,,M,7.437,N,13.782,K,A*31
$GPGGA,045213.00,4738.27759,N,12208.41605,W,1,07,1.01,122.5,M,-18.7,M,,*66
$GPGSA,A,3,01,17,24,06,28,12,15,,,,,,1.89,1.01,1.59*05
$GPGSV,4,1,13,01,09,032,23,02,11,182,,03,04,063,,06,37,149,27*76
$GPGSV,4,2,13,12,26,288,32,13,06,207,,14,01,341,,15,14,245,31*7A
$GPGSV,4,3,13,17,60,056,40,19,85,188,36,24,51,292,24,28,32,092,24*71
$GPGSV,4,4,13,32,11,322,25*4E
$GPGLL,4738.27759,N,12208.41605,W,045213.00,A,A*73
$GPGST,045213.00,40,,,,5.7,4.0,4.8*58
$GPZDA,045213.00,26,02,2016,00,00*64
$GPRMC,045214.00,A,4738.27916,N,12208.41486,W,6.613,27.38,260216,,,A*42
$GPVTG,27.38,T,,M,6.613,N,12.253,K,A*36
$GPGGA,045214.00,4738.27916,N,12208.41486,W,1,07,1.01,122.2,M,-18.7,M,,*6A
$GPGSA,A,3,01,17,24,06,28,12,15,,,,,,1.89,1.01,1.59*05
$GPGSV,4,1,13,01,09,032,24,02,11,182,,03,04,063,,06,37,149,28*7E
$GPGSV,4,2,13,12,26,288,28,13,06,207,,14,01,341,,15,14,245,31*71
$GPGSV,4,3,13,17,60,056,41,19,85,188,36,24,51,292,29,28,32,092,31*79
$GPGSV,4,4,13,32,11,322,24*4F
$GPGLL,4738.27916,N,12208.41486,W,045214.00,A,A*78
$GPGST,045214.00,30,,,,6.4,4.3,4.8*5B
$GPZDA,045214.00,26,02,2016,00,00*63
$GPRMC,045215.00,A,4738.27983,N,12208.41232,W,6.085,71.09,260216,,,A*4E
$GPVTG,71.09,T,,M,6.085,N,11.276,K,A*3A
$GPGGA,045215.00,4738.27983,N,12208.41232,W,1,07,1.01,121.6,M,-18.7,M,,*69
$GPGSA,A,3,01,17,24,06,28,12,15,,,,,,1.89,1.01,1.59*05
$GPGSV,4,1,13,01,09,032,31,02,11,182,,03,04,063,,06,37,149,36*75
$GPGSV,4,2,13,12,26,288,35,13,06,207,,14,01,341,,15,14,245,24*79
$GPGSV,4,3,13,17,60,056,37,19,85,188,35,24,51,292,34,28,32,092,35*73
$GPGSV,4,4,13,32,11,322,24*4F
$GPGLL,4738.27983,N,12208.41232,W,045215.00,A,A*7C
$GPGST,045215.00,21,,,,6.3,4.3,4.8*5D
$GPZDA,045215.00,26,02,2016,00,00*62
$GPRMC,045216.00,A,4738.27996,N,12208.40940,W,7.164,87.64,260216,,,A*4B
$GPVTG,87.64,T,,M,7.164,N,13.276,K,A*35
$GPGGA,045216.00,4738.27996,N,12208.40940,W,1,08,1.01,121.4,M,-18.7,M,,*6C
$GPGSA,A,3,01,17,24,06,28,12,13,15,,,,,1.88,1.01,1.59*06
$GPGSV,4,1,13,01,09,032,24,02,11,182,,03,04,063,,06,37,149,35*72
$GPGSV,4,2,13,12,26,288,32,13,06,207,13,14,01,341,,15,14,245,30*79
$GPGSV,4,3,13,17,60,056,37,19,85,188,31,24,51,292,37,28,32,092,27*77
$GPGSV,4,4,13,32,11,322,29*42
$GPGLL,4738.27996,N,12208.40940,W,045216.00,A,A*74
$GPGST,045216.00,23,,,,6.3,4.2,4.8*5D
$GPZDA,045216.00,26,02,2016,00,00*61
$GPRMC,045217.00,A,4738.27988,N,12208.40577,W,7.059,89.54,260216,,,A*4F
$GPVTG,89.54,T,,M,7.059,N,13.081,K,A*3D
$GPGGA,045217.00,4738.27988,N,12208.40577,W,1,08,1.01,120.7,M,-18.7,M,,*68
$GPGSA,A,3,01,17,24,06,28,12,13,15,,,,,1.88,1.01,1.59*06
$GPGSV,4,1,13,01,09,032,24,02,11,182,,03,04,063,,06,37,149,37*70
$GPGSV,4,2,13,12,26,288,35,13,06,207,14,14,01,341,,15,14,245,30*79
$GPGSV,4,3,13,17,60,056,39,19,85,188,32,24,51,292,41,28,32,092,37*7A
$GPGSV,4,4,13,32,11,322,27*4C
$GPGLL,4738.27988,N,12208.40577,W,045217.00,A,A*72
$GPGST,045217.00,21,,,,6.0,3.6,4.7*51
$GPZDA,045217.00,26,02,2016,00,00*60
$GPRMC,045218.00,A,4738.27989,N,12208.40307,W,6.276,86.27,260216,,,A*45
$GPVTG,86.27,T,,M,6.276,N,11.629,K,A*3E
$GPGGA,045218.00,4738.27989,N,12208.40307,W,1,08,1.01,120.6,M,-18.7,M,,*66
$GPGSA,A,3,01,17,24,06,28,12,13,15,,,,,1.88,1.01,1.59*06
$GPGSV,4,1,14,01,09,032,21,02,11,182,,03,04,063,,06,37,149,34*71
$GPGSV,4,2,14,12,26,288,27,13,06,207,15,14,01,341,,15,14,245,28*75
$GPGSV,4,3,14,17,60,056,37,19,85,188,32,24,51,292,35,28,32,092,26*70
$GPGSV,4,4,14,32,11,322,25*49
$GPGLL,4738.27989,N,12208.40307,W,045218.00,A,A*7D
$GPGST,045218.00,29,,,,6.1,3.8,4.7*59
$GPZDA,045218.00,26,02,2016,00,00*6F
$GPRMC,045219.00,A,4738.28070,N,12208.40088,W,6.427,61.94,260216,,,A*43
$GPVTG,61.94,T,,M,6.427,N,11.910,K,A*38
$GPGGA,045219.00,4738.28070,N,12208.40088,W,1,08,1.01,120.4,M,-18.7,M,,*61
$GPGSA,A,3,01,17,24,06,28,12,13,15,,,,,1.88,1.01,1.59*06
$GPGSV,4,1,14,01,09,032,20,02,11,182,,03,04,063,,06,37,149,26*73
$GPGSV,4,2,14,12,26,288,35,13,06,207,16,14,01,341,,15,14,245,28*75
$GPGSV,4,3,14,17,60,056,37,19,85,188,33,24,51,292,38,28,32,092,28*72
$GPGSV,4,4,14,32,11,322,32*4F
$GPGLL,4738.28070,N,12208.40088,W,045219.00,A,A*78
$GPZDA,045219.00,26,02,2016,00,00*6E
$GPGST,045219.00,35,,,,6.6,4.0,4.7*5D
$GPRMC,045220.00,A,4738.28187,N,12208.39914,W,5.118,38.72,260216,,,A*4C
$GPVTG,38.72,T,,M,5.118,N,9.483,K,A*08
$GPGGA,045220.00,4738.28187,N,12208.39914,W,1,08,1.49,120.4,M,-18.7,M,,*6C
$GPGSA,A,3,01,17,24,06,28,12,13,15,,,,,2.97,1.49,2.57*0A
$GPGSV,4,1,14,01,09,032,18,02,11,182,,03,04,063,,06,37,149,39*76
$GPGSV,4,2,14,12,26,288,26,13,06,207,16,14,01,341,,15,14,245,20*7F
$GPGSV,4,3,14,17,60,056,37,19,85,188,34,24,51,292,36,28,32,092,32*70
$GPGSV,4,4,14,32,11,322,31*4C
$GPGLL,4738.28187,N,12208.39914,W,045220.00,A,A*79
$GPGST,045220.00,57,,,,5.8,4.3,4.7*5D
$GPZDA,045220.00,26,02,2016,00,00*64
$GPRMC,045221.00,A,4738.28323,N,12208.39857,W,5.221,3.58,260216,,,A*7E
$GPVTG,3.58,T,,M,5.221,N,9.674,K,A*3B
$GPGGA,045221.00,4738.28323,N,12208.39857,W,1,08,1.49,120.4,M,-18.7,M,,*67
$GPGSA,A,3,01,17,24,06,28,12,13,15,,,,,2.97,1.49,2.57*0A
$GPGSV,4,1,14,01,09,032,17,02,11,182,,03,04,063,,06,37,149,37*77
$GPGSV,4,2,14,12,26,288,26,13,06,207,15,14,01,341,,15,14,245,29*75
$GPGSV,4,3,14,17,60,056,40,19,85,188,39,24,51,292,33,28,32,092,27*7C
$GPGSV,4,4,14,32,11,322,26*4A
$GPGLL,4738.28323,N,12208.39857,W,045221.00,A,A*72
$GPGST,045221.00,54,,,,5.6,4.5,4.7*57
$GPZDA,045221.00,26,02,2016,00,00*65
$GPRMC,045222.00,A,4738.28491,N,12208.39959,W,7.211,326.78,260216,,,A*7B
$GPVTG,326.78,T,,M,7.211,N,13.361,K,A*06
$GPGGA,045222.00,4738.28491,N,12208.39959,W,1,07,1.56,120.3,M,-18.7,M,,*63
$GPGSA,A,3,17,24,06,28,12,13,15,,,,,,3.12,1.56,2.70*0C
$GPGSV,4,1,14,01,09,032,21,02,11,182,25,03,04,063,,06,37,149,31*73
$GPGSV,4,2,14,12,26,288,29,13,06,207,15,14,01,341,,15,14,245,33*71
$GPGSV,4,3,14,17,60,056,37,19,85,188,39,24,51,292,35,28,32,092,37*7B
$GPGSV,4,4,14,32,11,322,25*49
$GPGLL,4738.28491,N,12208.39959,W,045222.00,A,A*70
$GPGST,045222.00,18,,,,6.0,4.4,4.7*58
$GPZDA,045222.00,26,02,2016,00,00*66
$GPRMC,045223.00,A,4738.28700,N,12208.40229,W,10.000,310.14,260216,,,A*48
$GPVTG,310.14,T,,M,10.000,N,18.529,K,A*3C
$GPGGA,045223.00,4738.28700,N,12208.40229,W,1,08,1.56,120.3,M,-18.7,M,,*64
$GPGSA,A,3,01,17,24,06,28,12,13,15,,,,,3.12,1.56,2.70*0D
$GPGSV,4,1,14,01,09,032,19,02,11,182,23,03,04,063,,06,37,149,33*7C
$GPGSV,4,2,14,12,26,288,36,13,06,207,16,14,01,341,,15,14,245,28*76
$GPGSV,4,4,14,32,11,322,24*48
$GPGLL,4738.28700,N,12208.40229,W,045223.00,A,A*78
$GPGST,045223.00,18,,,,6.3,3.9,4.7*50
$GPZDA,045223.00,26,02,2016,00,00*67
$GPGSV,4,3,14,17,60,056,39,19,85,188,39,24,51,292,39,28,32,092,30*7E
$GPRMC,045224.00,A,4738.28903,N,12208.40612,W,12.276,298.33,260216,,,A*4B
$GPVTG,298.33,T,,M,12.276,N,22.748,K,A*35
$GPGGA,045224.00,4738.28903,N,12208.40612,W,1,08,1.56,120.3,M,-18.7,M,,*62
$GPGSA,A,3,01,17,24,06,28,12,13,15,,,,,3.12,1.56,2.70*0D
$GPGSV,4,1,14,01,09,032,20,02,11,182,21,03,04,063,,06,37,149,36*71
$GPGSV,4,2,14,12,26,288,35,13,06,207,17,14,01,341,,15,14,245,29*75
$GPGSV,4,3,14,17,60,056,39,19,85,188,40,24,51,292,35,28,32,092,31*7D
$GPGSV,4,4,14,32,11,322,22*4E
$GPGLL,4738.28903,N,12208.40612,W,045224.00,A,A*7E
$GPGST,045224.00,17,,,,6.2,3.8,4.7*58
$GPZDA,045224.00,26,02,2016,00,00*60
$GPRMC,045225.00,A,4738.29101,N,12208.41142,W,14.575,287.69,260216,,,A*41
$GPVTG,287.69,T,,M,14.575,N,27.007,K,A*3F
$GPGGA,045225.00,4738.29101,N,12208.41142,W,1,08,1.49,120.1,M,-18.7,M,,*67
$GPGSA,A,3,01,17,24,06,28,12,13,15,,,,,2.97,1.49,2.56*0B
$GPGSV,4,1,14,01,09,032,19,02,11,182,21,03,04,063,,06,37,149,39*74
$GPGSV,4,2,14,12,26,288,37,13,06,207,18,14,01,341,,15,14,245,27*76
$GPGSV,4,3,14,17,60,056,38,19,85,188,39,24,51,292,37,28,32,092,31*70
$GPGSV,4,4,14,32,11,322,22*4E
$GPGLL,4738.29101,N,12208.41142,W,045225.00,A,A*77
$GPZDA,045225.00,26,02,2016,00,00*61
$GPGST,045225.00,32,,,,5.4,3.7,4.7*54
$GPRMC,045226.00,A,4738.29185,N,12208.41749,W,15.873,283.88,260216,,,A*42
$GPVTG,283.88,T,,M,15.873,N,29.413,K,A*31
$GPGGA,045226.00,4738.29185,N,12208.41749,W,1,08,1.49,120.1,M,-18.7,M,,*65
$GPGSA,A,3,01,17,24,06,28,12,13,15,,,,,2.96,1.49,2.56*0A
$GPGSV,4,1,14,01,09,032,18,02,11,182,31,03,04,063,,06,37,149,39*74
$GPGSV,4,2,14,12,26,288,35,13,06,207,18,14,01,341,,15,14,245,36*74
$GPGSV,4,3,14,17,60,056,39,19,85,188,39,24,51,292,36,28,32,092,29*79
$GPGSV,4,4,14,32,11,322,21*4D
$GPGLL,4738.29185,N,12208.41749,W,045226.00,A,A*75
$GPGST,045226.00,35,,,,5.0,3.7,4.7*54
$GPZDA,045226.00,26,02,2016,00,00*62
$GPRMC,045227.00,A,4738.29307,N,12208.42423,W,17.305,285.40,260216,,,A*4D
$GPVTG,285.40,T,,M,17.305,N,32.066,K,A*37
$GPGGA,045227.00,4738.29307,N,12208.42423,W,1,07,1.49,120.1,M,-18.7,M,,*6F
$GPGSA,A,3,17,24,06,28,12,13,15,,,,,,2.96,1.49,2.56*0B
$GPGSV,4,1,14,01,09,032,,02,11,182,33,03,04,063,,06,37,149,38*7E
$GPGSV,4,2,14,12,26,288,34,13,06,207,19,14,01,341,,15,14,245,32*70
$GPGSV,4,3,14,17,60,056,39,19,85,188,40,24,51,292,36,28,32,092,29*77
$GPGSV,4,4,14,32,11,322,20*4C
$GPGLL,4738.29307,N,12208.42423,W,045227.00,A,A*70
$GPGST,045227.00,33,,,,4.8,3.8,4.7*55
$GPZDA,045227.00,26,02,2016,00,00*63
$GPRMC,045228.00,A,4738.29476,N,12208.43121,W,17.911,290.21,260216,,,A*49
$GPVTG,290.21,T,,M,17.911,N,33.189,K,A*3A
$GPGGA,045228.00,4738.29476,N,12208.43121,W,1,07,1.49,120.2,M,-18.7,M,,*64
$GPGSA,A,3,17,24,06,28,12,13,15,,,,,,2.96,1.49,2.56*0B
$GPGSV,4,1,14,01,09,032,,02,11,182,34,03,04,063,,06,37,149,33*72
$GPGSV,4,2,14,12,26,288,34,13,06,207,21,14,01,341,,15,14,245,26*7E
$GPGSV,4,3,14,17,60,056,39,19,85,188,40,24,51,292,36,28,32,092,27*79
$GPGSV,4,4,14,32,11,322,19*46
$GPGLL,4738.29476,N,12208.43121,W,045228.00,A,A*78
$GPGST,045228.00,32,,,,5.1,3.9,4.7*52
$GPZDA,045228.00,26,02,2016,00,00*6C
$GPRMC,045229.00,A,4738.29629,N,12208.43807,W,16.832,286.37,260216,,,A*4C
$GPVTG,286.37,T,,M,16.832,N,31.189,K,A*39
$GPGGA,045229.00,4738.29629,N,12208.43807,W,1,07,1.49,120.2,M,-18.7,M,,*60
$GPGSA,A,3,17,24,06,28,12,13,15,,,,,,2.96,1.49,2.56*0B
$GPGSV,4,1,13,01,09,032,,02,11,182,40,03,04,063,,06,37,149,40*72
$GPGSV,4,2,13,12,26,288,34,13,06,207,21,14,01,341,,15,14,245,32*7C
$GPGSV,4,3,13,17,60,056,39,19,85,188,40,24,51,292,36,28,32,092,27*7E
$GPGSV,4,4,13,32,11,322,16*4E
$GPGLL,4738.29629,N,12208.43807,W,045229.00,A,A*7C
$GPGST,045229.00,29,,,,4.9,3.9,4.7*50
$GPZDA,045229.00,26,02,2016,00,00*6D
$GPRMC,045230.00,A,4738.29774,N,12208.44442,W,16.010,286.36,260216,,,A*4E
$GPVTG,286.36,T,,M,16.010,N,29.666,K,A*3F
$GPGGA,045230.00,4738.29774,N,12208.44442,W,1,07,1.49,120.3,M,-18.7,M,,*6A
$GPGSA,A,3,17,24,06,28,12,13,15,,,,,,2.96,1.49,2.56*0B
$GPGSV,4,1,13,01,09,032,,02,11,182,26,03,04,063,,06,37,149,36*73
$GPGSV,4,2,13,12,26,288,34,13,06,207,22,14,01,341,,15,14,245,32*7F
$GPGSV,4,3,13,17,60,056,38,19,85,188,41,24,51,292,36,28,32,092,26*7F
$GPGSV,4,4,13,32,11,322,16*4E
$GPGLL,4738.29774,N,12208.44442,W,045230.00,A,A*77
$GPGST,045230.00,30,,,,5.0,3.9,4.7*58
$GPZDA,045230.00,26,02,2016,00,00*65
$GPRMC,045231.00,A,4738.29814,N,12208.45003,W,12.658,282.92,260216,,,A*42
$GPVTG,282.92,T,,M,12.658,N,23.455,K,A*33
$GPGGA,045231.00,4738.29814,N,12208.45003,W,1,07,1.49,120.3,M,-18.7,M,,*62
$GPGSA,A,3,17,24,06,28,12,13,15,,,,,,2.96,1.49,2.56*0B
$GPGSV,4,1,13,01,09,032,,02,11,182,34,03,04,063,,06,37,149,38*7E
$GPGSV,4,2,13,12,26,288,34,13,06,207,22,14,01,341,,15,14,245,31*7C
$GPGSV,4,3,13,17,60,056,38,19,85,188,41,24,51,292,35,28,32,092,27*7D
$GPGSV,4,4,13,32,11,322,15*4D
$GPGLL,4738.29814,N,12208.45003,W,045231.00,A,A*7F
$GPGST,045231.00,29,,,,5.0,4.0,4.7*5F
$GPZDA,045231.00,26,02,2016,00,00*64
$GPRMC,045232.00,A,4738.29885,N,12208.45471,W,9.353,288.90,260216,,,A*74
$GPVTG,288.90,T,,M,9.353,N,17.331,K,A*0D
$GPGGA,045232.00,4738.29885,N,12208.45471,W,1,07,1.49,120.1,M,-18.7,M,,*6A
$GPGSA,A,3,17,24,06,28,12,13,15,,,,,,2.96,1.49,2.56*0B
$GPGSV,4,1,13,01,09,032,,02,11,182,33,03,04,063,,06,37,149,36*77
$GPGSV,4,2,13,12,26,288,34,13,06,207,23,14,01,341,,15,14,245,38*74
$GPGSV,4,3,13,17,60,056,38,19,85,188,41,24,51,292,35,28,32,092,27*7D
$GPGSV,4,4,13,32,11,322,14*4C
$GPGST,045232.00,27,,,,5.0,3.7,4.7*52
$GPGLL,4738.29885,N,12208.45471,W,045232.00,A,A*75
$GPZDA,045232.00,26,02,2016,00,00*67
$GPRMC,045233.00,A,4738.29947,N,12208.45704,W,4.917,282.43,260216,,,A*78
$GPVTG,282.43,T,,M,4.917,N,9.111,K,A*31
$GPGGA,045233.00,4738.29947,N,12208.45704,W,1,07,1.49,120.2,M,-18.7,M,,*66
$GPGSA,A,3,17,24,06,28,12,13,15,,,,,,2.96,1.49,2.56*0B
$GPGSV,4,1,13,01,09,032,,02,11,182,34,03,04,063,,06,37,149,38*7E
$GPGSV,4,2,13,12,26,288,35,13,06,207,23,14,01,341,,15,14,245,38*75
$GPGSV,4,3,13,17,60,056,39,19,85,188,41,24,51,292,35,28,32,092,27*7C
$GPGSV,4,4,13,32,11,322,15*4D
$GPGLL,4738.29947,N,12208.45704,W,045233.00,A,A*7A
$GPGST,045233.00,26,,,,4.8,3.5,4.7*59
$GPZDA,045233.00,26,02,2016,00,00*66
$GPRMC,045234.00,A,4738.29982,N,12208.45887,W,4.736,288.79,260216,,,A*7C
$GPVTG,288.79,T,,M,4.736,N,8.776,K,A*39
$GPGGA,045234.00,4738.29982,N,12208.45887,W,1,07,1.49,120.2,M,-18.7,M,,*6C
$GPGSA,A,3,17,24,06,28,12,13,15,,,,,,2.96,1.49,2.56*0B
$GPGSV,4,1,13,01,09,032,,02,11,182,40,03,04,063,,06,37,149,38*7D
$GPGSV,4,2,13,12,26,288,34,13,06,207,24,14,01,341,,15,14,245,36*7D
$GPGSV,4,3,13,17,60,056,39,19,85,188,40,24,51,292,35,28,32,092,27*7D
$GPGSV,4,4,13,32,11,322,16*4E
$GPGLL,4738.29982,N,12208.45887,W,045234.00,A,A*70
$GPGST,045234.00,23,,,,4.7,3.5,4.7*54
$GPZDA,045234.00,26,02,2016,00,00*61
$GPRMC,045235.00,A,4738.30030,N,12208.46132,W,6.731,283.38,260216,,,A*7A
$GPVTG,283.38,T,,M,6.731,N,12.473,K,A*0F
$GPGGA,045235.00,4738.30030,N,12208.46132,W,1,07,1.49,120.2,M,-18.7,M,,*61
$GPGSA,A,3,17,24,06,28,12,13,15,,,,,,2.96,1.49,2.56*0B
$GPGSV,4,1,13,01,09,032,,02,11,182,33,03,04,063,,06,37,149,39*78
$GPGSV,4,2,13,12,26,288,33,13,06,207,23,14,01,341,,15,14,245,32*79
$GPGSV,4,3,13,17,60,056,39,19,85,188,40,24,51,292,35,28,32,092,27*7D
$GPGSV,4,4,13,32,11,322,20*4B
$GPGLL,4738.30030,N,12208.46132,W,045235.00,A,A*7D
$GPGST,045235.00,25,,,,4.4,3.5,4.7*50
$GPZDA,045235.00,26,02,2016,00,00*60
$GPRMC,045236.00,A,4738.30089,N,12208.46471,W,9.849,285.59,260216,,,A*77
$GPVTG,285.59,T,,M,9.849,N,18.249,K,A*04
$GPGGA,045236.00,4738.30089,N,12208.46471,W,1,07,1.49,120.2,M,-18.7,M,,*62
$GPGSA,A,3,17,24,06,28,12,13,15,,,,,,2.96,1.49,2.56*0B
$GPGSV,4,1,13,01,09,032,22,02,11,182,36,03,04,063,,06,37,149,39*7D
$GPGSV,4,2,13,12,26,288,33,13,06,207,22,14,01,341,,15,14,245,28*73
$GPGSV,4,3,13,17,60,056,39,19,85,188,40,24,51,292,35,28,32,092,27*7D
$GPGSV,4,4,13,32,11,322,21*4A
$GPGLL,4738.30089,N,12208.46471,W,045236.00,A,A*7E
$GPGST,045236.00,28,,,,4.3,3.7,4.7*5B
$GPZDA,045236.00,26,02,2016,00,00*63
$GPRMC,045237.00,A,4738.30173,N,12208.46916,W,12.057,285.71,260216,,,A*49
$GPVTG,285.71,T,,M,12.057,N,22.341,K,A*33
$GPGGA,045237.00,4738.30173,N,12208.46916,W,1,07,1.49,120.2,M,-18.7,M,,*6B
$GPGSA,A,3,17,24,06,28,12,13,15,,,,,,2.96,1.49,2.56*0B
$GPGSV,4,1,13,01,08,032,19,02,11,182,33,03,04,063,,06,37,149,39*71
$GPGSV,4,2,13,12,26,288,33,13,06,207,23,14,01,341,,15,14,245,28*72
$GPGSV,4,3,13,17,60,056,39,19,85,188,41,24,51,292,35,28,32,092,27*7C
$GPGSV,4,4,13,32,11,322,21*4A
$GPGLL,4738.30173,N,12208.46916,W,045237.00,A,A*77
$GPGST,045237.00,27,,,,4.2,3.8,4.8*54
$GPZDA,045237.00,26,02,2016,00,00*62
$GPRMC,045238.00,A,4738.30274,N,12208.47423,W,13.545,286.15,260216,,,A*4E
$GPVTG,286.15,T,,M,13.545,N,25.099,K,A*34
$GPGGA,045238.00,4738.30274,N,12208.47423,W,1,08,1.49,120.2,M,-18.7,M,,*65
$GPGSA,A,3,01,17,24,06,28,12,13,15,,,,,2.96,1.49,2.56*0A
$GPGSV,4,1,13,01,08,032,15,02,12,182,33,03,04,063,,06,37,149,39*7E
$GPGSV,4,2,13,12,26,288,28,13,06,207,24,14,01,341,,15,14,245,28*7F
$GPGSV,4,3,13,17,60,056,39,19,85,188,41,24,51,292,35,28,32,092,28*73
$GPGSV,4,4,13,32,11,322,23*48
$GPGLL,4738.30274,N,12208.47423,W,045238.00,A,A*76
$GPGST,045238.00,27,,,,4.1,3.9,4.8*59
$GPZDA,045238.00,26,02,2016,00,00*6D
$GPRMC,045239.00,A,4738.30397,N,12208.47920,W,12.898,284.94,260216,,,A*4A
$GPVTG,284.94,T,,M,12.898,N,23.900,K,A*3C
$GPGGA,045239.00,4738.30397,N,12208.47920,W,1,08,1.49,120.4,M,-18.7,M,,*60
$GPGSA,A,3,01,17,24,06,28,12,13,15,,,,,2.96,1.49,2.56*0A
$GPGSV,4,1,13,01,08,032,14,02,12,182,33,03,04,062,,06,37,149,31*76
$GPGSV,4,2,13,12,26,288,29,13,06,207,30,14,01,341,,15,14,245,28*7B
$GPGSV,4,3,13,17,60,056,39,19,85,188,40,24,51,292,36,28,32,092,29*70
$GPGSV,4,4,13,32,11,322,22*49
$GPGLL,4738.30397,N,12208.47920,W,045239.00,A,A*75
$GPGST,045239.00,22,,,,4.4,4.0,4.8*56
$GPZDA,045239.00,26,02,2016,00,00*6C
$GPRMC,045240.00,A,4738.30509,N,12208.48379,W,11.089,289.94,260216,,,A*4A
$GPVTG,289.94,T,,M,11.089,N,20.549,K,A*38
$GPGGA,045240.00,4738.30509,N,12208.48379,W,1,08,1.49,120.4,M,-18.7,M,,*66
$GPGSA,A,3,01,17,24,06,28,12,13,15,,,,,2.96,1.49,2.56*0A
$GPGSV,4,1,13,01,08,032,15,02,12,182,28,03,04,062,,06,37,149,31*7D
$GPGSV,4,2,13,12,26,288,33,13,06,207,23,14,01,341,,15,14,245,27*7D
$GPGSV,4,3,13,17,60,056,38,19,85,188,40,24,51,292,36,28,32,092,29*71
$GPGSV,4,4,13,32,11,322,23*48
$GPGLL,4738.30509,N,12208.48379,W,045240.00,A,A*73
$GPGST,045240.00,27,,,,4.9,4.1,4.8*51
$GPZDA,045240.00,26,02,2016,00,00*62
$GPRMC,045241.00,A,4738.30655,N,12208.48756,W,10.090,301.81,260216,,,A*44
$GPVTG,301.81,T,,M,10.090,N,18.696,K,A*3E
$GPGGA,045241.00,4738.30655,N,12208.48756,W,1,08,1.49,120.4,M,-18.7,M,,*64
$GPGSA,A,3,01,17,24,06,28,12,13,15,,,,,2.96,1.49,2.55*09
$GPGSV,4,1,13,01,08,032,17,02,12,182,29,03,04,062,,06,37,149,36*79
$GPGSV,4,2,13,12,26,288,33,13,06,207,22,14,01,341,,15,14,245,26*7D
$GPGSV,4,3,13,17,60,056,36,19,85,188,40,24,51,292,36,28,32,092,31*76
$GPGSV,4,4,13,32,11,322,22*49
$GPGLL,4738.30655,N,12208.48756,W,045241.00,A,A*71
$GPGST,045241.00,31,,,,5.3,4.2,4.8*5F
$GPZDA,045241.00,26,02,2016,00,00*63
$GPRMC,045242.00,A,4738.30842,N,12208.49039,W,7.914,318.55,260216,,,A*72
$GPVTG,318.55,T,,M,7.914,N,14.664,K,A*0D
$GPGGA,045242.00,4738.30842,N,12208.49039,W,1,08,1.49,120.3,M,-18.7,M,,*67
$GPGSA,A,3,01,17,24,06,28,12,13,15,,,,,2.95,1.49,2.55*0A
$GPGSV,4,1,13,01,08,032,18,02,12,182,29,03,04,062,,06,38,149,34*7B
$GPGSV,4,2,13,12,26,288,38,13,06,207,21,14,01,341,,15,14,245,25*76
$GPGSV,4,3,13,17,60,056,38,19,85,188,40,24,51,292,40,28,32,092,31*79
$GPGSV,4,4,13,32,11,322,21*4A
$GPGLL,4738.30842,N,12208.49039,W,045242.00,A,A*75
$GPGST,045242.00,31,,,,5.6,3.8,4.7*5B
$GPZDA,045242.00,26,02,2016,00,00*60
$GPRMC,045243.00,A,4738.31052,N,12208.49120,W,7.369,347.53,260216,,,A*7E
$GPVTG,347.53,T,,M,7.369,N,13.656,K,A*07
$GPGGA,045243.00,4738.31052,N,12208.49120,W,1,08,1.49,120.0,M,-18.7,M,,*64
$GPGSA,A,3,01,17,24,06,28,12,13,15,,,,,2.95,1.49,2.55*0A
$GPGSV,4,1,13,01,08,032,22,02,12,182,27,03,04,062,,06,38,149,37*7F
$GPGSV,4,2,13,12,26,288,32,13,06,207,20,14,01,341,,15,14,245,30*79
$GPGSV,4,3,13,17,60,056,36,19,85,188,37,24,51,292,34,28,32,092,39*7C
$GPGSV,4,4,13,32,11,322,20*4B
$GPGLL,4738.31052,N,12208.49120,W,045243.00,A,A*75
$GPGST,045243.00,28,,,,5.7,3.7,4.7*5C
$GPZDA,045243.00,26,02,2016,00,00*61
$GPRMC,045244.00,A,4738.31230,N,12208.49167,W,5.211,339.57,260216,,,A*7D
$GPVTG,339.57,T,,M,5.211,N,9.656,K,A*3D
$GPGGA,045244.00,4738.31230,N,12208.49167,W,1,08,1.49,119.8,M,-18.7,M,,*64
$GPGSA,A,3,01,17,24,06,28,12,13,15,,,,,2.95,1.49,2.55*0A
$GPGSV,4,1,13,01,08,032,20,02,12,182,26,03,04,062,,06,38,149,36*7D
$GPGSV,4,2,13,12,26,288,27,13,06,207,19,14,01,341,,15,14,245,22*74
$GPGSV,4,3,13,17,60,056,34,19,85,188,35,24,51,292,34,28,32,092,37*72
$GPGSV,4,4,13,32,11,322,20*4B
$GPGLL,4738.31230,N,12208.49167,W,045244.00,A,A*77
$GPGST,045244.00,32,,,,6.0,3.8,4.7*5B
$GPZDA,045244.00,26,02,2016,00,00*66
$GPRMC,045245.00,A,4738.31482,N,12208.49185,W,8.771,356.05,260216,,,A*7F
$GPVTG,356.05,T,,M,8.771,N,16.252,K,A*03
$GPGGA,045245.00,4738.31482,N,12208.49185,W,1,08,1.49,119.7,M,-18.7,M,,*69
$GPGSA,A,3,01,17,24,06,28,12,13,15,,,,,2.95,1.49,2.55*0A
$GPGSV,4,1,13,01,08,032,18,02,12,182,24,03,04,062,,06,38,149,35*77
$GPGSV,4,2,13,12,26,288,25,13,06,207,17,14,01,341,,15,14,245,21*7B
$GPGSV,4,3,13,17,60,056,39,19,85,188,35,24,51,292,23,28,32,092,35*7B
$GPGSV,4,4,13,32,11,322,18*40
$GPGLL,4738.31482,N,12208.49185,W,045245.00,A,A*75
$GPGST,045245.00,44,,,,6.0,4.0,4.7*54
$GPZDA,045245.00,26,02,2016,00,00*67
$GPRMC,045246.00,A,4738.31838,N,12208.49255,W,13.254,350.71,260216,,,A*42
$GPVTG,350.71,T,,M,13.254,N,24.560,K,A*39
$GPGGA,045246.00,4738.31838,N,12208.49255,W,1,08,1.55,119.7,M,-18.7,M,,*64
$GPGSA,A,3,01,17,24,06,28,12,13,15,,,,,3.10,1.55,2.69*04
$GPGSV,4,1,13,01,08,032,17,02,12,182,27,03,04,062,,06,38,149,35*7B
$GPGSV,4,2,13,12,26,288,24,13,06,207,16,14,01,341,,15,14,245,21*7B
$GPGSV,4,3,13,17,60,056,40,19,85,188,34,24,51,292,25,28,32,092,27*71
$GPGSV,4,4,13,32,11,322,18*40
$GPGLL,4738.31838,N,12208.49255,W,045246.00,A,A*75
$GPGST,045246.00,38,,,,6.1,4.5,4.7*58
$GPZDA,045246.00,26,02,2016,00,00*64
$GPRMC,045247.00,A,4738.32236,N,12208.48871,W,15.807,13.22,260216,,,A*71
$GPVTG,13.22,T,,M,15.807,N,29.291,K,A*05
$GPGGA,045247.00,4738.32236,N,12208.48871,W,1,07,1.01,120.1,M,-18.7,M,,*6D
$GPGSA,A,3,01,17,24,06,28,12,15,,,,,,1.88,1.01,1.59*04
$GPGSV,4,1,13,01,08,032,18,02,12,182,28,03,04,062,25,06,38,149,35*7C
$GPGSV,4,2,13,12,26,288,40,13,06,207,,14,01,341,,15,14,245,22*7D
$GPGSV,4,3,13,17,60,056,39,19,85,188,34,24,51,292,26,28,32,092,24*7F
$GPGSV,4,4,13,32,11,322,17*4F
$GPGLL,4738.32236,N,12208.48871,W,045247.00,A,A*7E
$GPGST,045247.00,43,,,,6.2,4.3,4.7*50
$GPZDA,045247.00,26,02,2016,00,00*65
$GPRMC,045248.00,A,4738.32492,N,12208.48334,W,11.817,23.52,260216,,,A*7D
$GPVTG,23.52,T,,M,11.817,N,21.896,K,A*01
$GPGGA,045248.00,4738.32492,N,12208.48334,W,1,08,1.55,120.9,M,-18.7,M,,*66
$GPGSA,A,3,01,17,24,06,28,12,13,15,,,,,3.10,1.55,2.69*04
$GPGSV,4,1,13,01,08,032,26,02,12,182,30,03,04,062,22,06,38,149,25*7E
$GPGSV,4,2,13,12,26,288,43,13,06,207,19,14,01,341,,15,14,245,23*77
$GPGSV,4,3,13,17,60,056,39,19,85,188,33,24,51,292,25,28,32,092,22*7D
$GPGSV,4,4,13,32,11,322,*49
$GPGLL,4738.32492,N,12208.48334,W,045248.00,A,A*73
$GPGST,045248.00,46,,,,6.7,3.8,4.7*53
$GPZDA,045248.00,26,02,2016,00,00*6A
$GPRMC,045249.00,A,4738.32846,N,12208.48215,W,11.305,2.69,260216,,,A*48
$GPVTG,2.69,T,,M,11.305,N,20.948,K,A*31
$GPGGA,045249.00,4738.32846,N,12208.48215,W,1,08,1.01,120.7,M,-18.7,M,,*6F
$GPGSA,A,3,01,17,24,06,28,12,13,15,,,,,1.88,1.01,1.58*07
$GPGSV,4,1,13,01,08,032,32,02,12,182,29,03,04,062,21,06,38,149,25*70
$GPGSV,4,2,13,12,26,288,25,13,06,207,17,14,01,341,,15,14,245,25*7F
$GPGSV,4,3,13,17,60,056,37,19,85,188,33,24,51,292,29,28,32,092,29*74
$GPGSV,4,4,13,32,11,322,*49
$GPGLL,4738.32846,N,12208.48215,W,045249.00,A,A*75
$GPGST,045249.00,33,,,,7.4,4.0,4.7*5D
$GPZDA,045249.00,26,02,2016,00,00*6B
$GPRMC,045250.00,A,4738.33489,N,12208.47980,W,18.677,18.35,260216,,,A*7D
$GPVTG,18.35,T,,M,18.677,N,34.609,K,A*05
$GPGGA,045250.00,4738.33489,N,12208.47980,W,1,07,1.01,119.9,M,-18.7,M,,*6A
$GPGSA,A,3,01,17,24,06,28,12,15,,,,,,1.88,1.01,1.58*05
$GPGSV,4,1,13,01,08,032,34,02,12,182,27,03,04,062,21,06,38,149,26*7B
$GPGSV,4,2,13,12,26,288,24,13,06,207,,14,02,341,,15,14,245,25*7B
$GPGSV,4,3,13,17,60,056,39,19,85,188,32,24,51,292,22,28,32,092,34*7C
$GPGSV,4,4,13,32,11,322,*49
$GPGLL,4738.33489,N,12208.47980,W,045250.00,A,A*7B
$GPGST,045250.00,34,,,,7.5,4.3,4.7*50
$GPZDA,045250.00,26,02,2016,00,00*63
$GPRMC,045251.00,A,4738.34184,N,12208.47802,W,18.551,10.50,260216,,,A*74
$GPVTG,10.50,T,,M,18.551,N,34.375,K,A*07
$GPGGA,045251.00,4738.34184,N,12208.47802,W,1,07,1.01,119.3,M,-18.7,M,,*65
$GPGSA,A,3,01,17,24,06,28,12,15,,,,,,1.88,1.01,1.58*05
$GPGSV,4,1,13,01,08,032,34,02,12,182,23,03,04,062,20,06,38,149,35*7C
$GPGSV,4,2,13,12,26,288,24,13,06,207,,14,02,341,,15,14,245,26*78
$GPGSV,4,3,13,17,60,056,39,19,85,188,33,24,51,292,29,28,32,092,33*71
$GPGSV,4,4,13,32,11,322,22*49
$GPGLL,4738.34184,N,12208.47802,W,045251.00,A,A*7E
$GPGST,045251.00,25,,,,7.1,4.6,4.6*51
$GPZDA,045251.00,26,02,2016,00,00*62
$GPRMC,045252.00,A,4738.34772,N,12208.47643,W,16.801,9.42,260216,,,A*4E
$GPVTG,9.42,T,,M,16.801,N,31.133,K,A*3F
$GPGGA,045252.00,4738.34772,N,12208.47643,W,1,08,1.10,118.8,M,-18.7,M,,*67
$GPGSA,A,3,01,17,24,06,28,12,13,15,,,,,1.93,1.10,1.58*0D
$GPGSV,4,1,13,01,08,032,31,02,12,182,19,03,04,062,20,06,38,149,35*70
$GPGSV,4,2,13,12,26,288,22,13,06,207,18,14,02,341,,15,14,245,26*77
$GPGSV,4,3,13,17,60,056,39,19,85,188,33,24,51,292,29,28,32,092,34*76
$GPGSV,4,4,13,32,11,322,23*48
$GPGLL,4738.34772,N,12208.47643,W,045252.00,A,A*79
$GPGST,045252.00,22,,,,6.8,4.9,4.6*52
$GPZDA,045252.00,26,02,2016,00,00*61
$GPRMC,045253.00,A,4738.35233,N,12208.47488,W,13.403,13.28,260216,,,A*77
$GPVTG,13.28,T,,M,13.403,N,24.836,K,A*0B
$GPGGA,045253.00,4738.35233,N,12208.47488,W,1,08,1.10,118.4,M,-18.7,M,,*6E
$GPGSA,A,3,01,17,24,06,28,12,13,15,,,,,1.93,1.10,1.58*0D
$GPGSV,4,1,13,01,08,032,31,02,12,182,19,03,04,062,21,06,38,149,35*71
$GPGSV,4,2,13,12,26,288,20,13,06,207,18,14,02,341,,15,14,245,25*76
$GPGSV,4,3,13,17,59,056,40,19,85,188,30,24,51,292,28,28,32,092,34*70
$GPGSV,4,4,13,32,11,322,22*49
$GPGLL,4738.35233,N,12208.47488,W,045253.00,A,A*7C
$GPGST,045253.00,24,,,,6.6,5.3,4.5*53
$GPZDA,045253.00,26,02,2016,00,00*60
$GPRMC,045254.00,A,4738.35609,N,12208.47369,W,11.252,13.08,260216,,,A*77
$GPVTG,13.08,T,,M,11.252,N,20.850,K,A*0D
$GPGGA,045254.00,4738.35609,N,12208.47369,W,1,08,1.10,118.1,M,-18.7,M,,*69
$GPGSA,A,3,01,17,24,06,28,12,13,15,,,,,1.93,1.10,1.58*0D
$GPGSV,4,1,13,01,08,032,32,02,12,182,20,03,04,062,21,06,38,149,34*79
$GPGSV,4,2,13,12,26,288,19,13,06,207,19,14,02,341,,15,14,245,22*7A
$GPGSV,4,3,13,17,59,056,40,19,85,188,34,24,51,292,28,28,32,092,32*72
$GPGSV,4,4,13,32,11,322,23*48
$GPGLL,4738.35609,N,12208.47369,W,045254.00,A,A*7E
$GPGST,045254.00,28,,,,6.6,5.6,4.5*5D
$GPZDA,045254.00,26,02,2016,00,00*67
$GPRMC,045255.00,A,4738.35860,N,12208.47269,W,8.580,11.35,260216,,,A*4A
$GPVTG,11.35,T,,M,8.580,N,15.899,K,A*32
$GPGGA,045255.00,4738.35860,N,12208.47269,W,1,08,1.10,118.0,M,-18.7,M,,*69
$GPGSA,A,3,01,17,24,06,28,12,13,15,,,,,1.93,1.10,1.58*0D
$GPGSV,4,1,13,01,08,032,32,02,12,182,22,03,04,062,22,06,38,149,33*7F
$GPGSV,4,2,13,12,26,288,19,13,06,207,18,14,02,341,,15,14,245,20*79
$GPGSV,4,3,13,17,59,056,38,19,85,184,33,24,51,292,26,28,32,092,31*7B
$GPGSV,4,4,13,32,11,322,24*4F
$GPGLL,4738.35860,N,12208.47269,W,045255.00,A,A*7F
$GPGST,045255.00,35,,,,6.8,6.1,4.5*5A
$GPZDA,045255.00,26,02,2016,00,00*66
$GPRMC,045256.00,A,4738.36261,N,12208.47273,W,12.505,3.23,260216,,,A*48
$GPVTG,3.23,T,,M,12.505,N,23.172,K,A*39
$GPGGA,045256.00,4738.36261,N,12208.47273,W,1,08,1.10,118.0,M,-18.7,M,,*69
$GPGSA,A,3,01,17,24,06,28,12,13,15,,,,,1.93,1.10,1.58*0D
$GPGSV,4,1,13,01,08,032,31,02,12,182,25,03,04,062,21,06,38,149,36*7D
$GPGSV,4,2,13,12,26,288,18,13,06,207,18,14,02,341,,15,14,245,16*7D
