$GPRMC,045506.97,V,,,,,,,260216,,,N*70
$GPVTG,,,,,,,,,N*30
$GPGGA,045506.97,,,,,0,00,99.99,,,,,,*6A
$GPGSA,A,1,,,,,,,,,,,,,99.99,99.99,99.99*30
$GPGSV,4,1,13,01,08,032,,02,13,181,,03,04,061,,06,39,148,*7F
$GPGSV,4,2,13,12,27,289,,13,05,207,,14,02,340,,15,13,244,*7E
$GPGSV,4,3,13,17,58,056,,19,86,176,,24,52,290,,28,31,093,*7A
$GPGSV,4,4,13,32,12,321,*49
$GPGLL,,,,,045506.97,V,N*46
$GPGST,045506.97,0.0000,,,,9.1,9.1,9.1*4D
$GPZDA,045506.97,26,02,2016,00,00*69
$GPRMC,045508.00,V,,,,,,,260216,,,N*70
$GPVTG,,,,,,,,,N*30
$GPGGA,045508.00,,,,,0,00,99.99,,,,,,*6A
$GPGSA,A,1,,,,,,,,,,,,,99.99,99.99,99.99*30
$GPGSV,4,1,13,01,08,032,,02,13,181,,03,04,061,,06,39,148,*7F
$GPGSV,4,2,13,12,27,289,35,13,05,207,,14,02,340,,15,13,244,*78
$GPGSV,4,3,13,17,58,056,,19,86,176,,24,52,290,39,28,31,093,*70
$GPGSV,4,4,13,32,12,321,*49
$GPGLL,,,,,045508.00,V,N*46
$GPGST,045508.00,0.0000,,,,17,17,17*6D
$GPZDA,045508.00,26,02,2016,00,00*69
$GPRMC,045508.50,V,,,,,,,260216,,,N*75
$GPVTG,,,,,,,,,N*30
$GPGGA,045508.50,,,,,0,04,13.48,,,,,,*65
$GPGSA,A,1,24,06,12,15,,,,,,,,,13.52,13.48,1.00*0D
$GPGSV,4,1,13,01,08,032,,02,13,181,,03,04,061,,06,39,148,32*7E
$GPGSV,4,2,13,12,27,289,36,13,05,207,,14,02,340,,15,13,244,28*71
$GPGSV,4,3,13,17,58,056,,19,86,176,,24,52,290,39,28,31,093,*70
$GPGSV,4,4,13,32,12,321,*49
$GPGLL,,,,,045508.50,V,N*43
$GPGST,045508.50,26,,,,247,195,16*7F
$GPZDA,045508.50,26,02,2016,00,00*6C
$GPRMC,045509.00,V,,,,,,,260216,,,N*71
$GPVTG,,,,,,,,,N*30
$GPGGA,045509.00,,,,,0,04,13.49,,,,,,*60
$GPGSA,A,1,24,06,12,15,,,,,,,,,13.53,13.49,1.00*0D
$GPGSV,4,1,13,01,08,032,,02,13,181,27,03,04,061,,06,39,148,32*7B
$GPGSV,4,2,13,12,27,289,36,13,05,207,,14,02,340,,15,13,244,28*71
$GPGSV,4,3,13,17,58,056,,19,86,176,,24,52,290,39,28,31,093,*70
$GPGSV,4,4,13,32,12,321,*49
$GPGLL,,,,,045509.00,V,N*47
$GPGST,045509.00,17,,,,106,85,15*4C
$GPZDA,045509.00,26,02,2016,00,00*68
$GPRMC,045510.00,A,4738.55693,N,12208.27727,W,0.344,346.02,260216,,,A*72
$GPVTG,346.02,T,,M,0.344,N,0.637,K,A*3F
$GPGGA,045510.00,4738.55693,N,12208.27727,W,1,04,4.19,123.9,M,-18.7,M,,*63
$GPGSA,A,3,24,06,12,15,,,,,,,,,6.90,4.19,5.48*0F
$GPGSV,4,1,13,01,08,032,,02,13,181,27,03,04,061,,06,39,148,31*78
$GPGSV,4,2,13,12,27,289,36,13,05,207,,14,02,340,,15,13,244,28*71
$GPGSV,4,3,13,17,58,056,,19,86,176,,24,52,290,39,28,31,093,*70
$GPGSV,4,4,13,32,12,321,*49
$GPGLL,4738.55693,N,12208.27727,W,045510.00,A,A*74
$GPGST,045510.00,23,,,,51,41,23*7D
$GPZDA,045510.00,26,02,2016,00,00*60
$GPRMC,045511.00,A,4738.55415,N,12208.28061,W,0.536,341.69,260216,,,A*7C
$GPVTG,341.69,T,,M,0.536,N,0.993,K,A*37
$GPGGA,045511.00,4738.55415,N,12208.28061,W,1,05,4.19,125.0,M,-18.7,M,,*6A
$GPGSA,A,3,17,24,06,12,15,,,,,,,,6.90,4.19,5.48*09
$GPGSV,4,1,13,01,08,032,,02,13,181,28,03,04,061,,06,39,148,33*75
$GPGSV,4,2,13,12,27,289,36,13,05,207,,14,02,340,,15,13,244,29*70
$GPGSV,4,3,13,17,58,056,23,19,86,176,,24,52,290,40,28,31,093,*7F
$GPGSV,4,4,13,32,12,321,*49
$GPGLL,4738.55415,N,12208.28061,W,045511.00,A,A*73
$GPGST,045511.00,18,,,,35,29,21*7A
$GPZDA,045511.00,26,02,2016,00,00*61
$GPRMC,045512.00,A,4738.55273,N,12208.28320,W,0.455,333.42,260216,,,A*77
$GPVTG,333.42,T,,M,0.455,N,0.844,K,A*34
$GPGGA,045512.00,4738.55273,N,12208.28320,W,1,05,4.19,124.7,M,-18.7,M,,*6F
$GPGSA,A,3,17,24,06,12,15,,,,,,,,6.90,4.19,5.48*09
$GPGSV,4,1,13,01,08,032,,02,13,181,28,03,04,061,,06,39,148,33*75
$GPGSV,4,2,13,12,27,289,36,13,05,207,,14,02,340,,15,13,244,29*70
$GPGSV,4,3,13,17,58,056,22,19,86,176,,24,52,290,40,28,31,093,*7E
$GPGSV,4,4,13,32,12,321,*49
$GPGLL,4738.55273,N,12208.28320,W,045512.00,A,A*70
$GPGST,045512.00,17,,,,29,24,20*77
$GPZDA,045512.00,26,02,2016,00,00*62
$GPRMC,045513.00,A,4738.55075,N,12208.28572,W,1.192,325.96,260216,,,A*72
$GPVTG,325.96,T,,M,1.192,N,2.209,K,A*34
$GPGGA,045513.00,4738.55075,N,12208.28572,W,1,05,2.35,125.5,M,-18.7,M,,*60
$GPGSA,A,3,17,24,06,12,15,,,,,,,,4.86,2.35,4.26*0D
$GPGSV,4,1,13,01,08,032,,02,13,181,28,03,04,061,,06,39,148,33*75
$GPGSV,4,2,13,12,27,289,36,13,05,207,,14,02,340,,15,13,244,28*71
$GPGSV,4,4,13,32,12,321,*49
$GPGSV,4,3,13,17,58,056,22,19,86,176,36,24,52,290,40,28,31,093,*7B
$GPGLL,4738.55075,N,12208.28572,W,045513.00,A,A*74
$GPZDA,045513.00,26,02,2016,00,00*63
$GPGST,045513.00,31,,,,25,21,19*71
$GPRMC,045514.00,A,4738.54982,N,12208.28740,W,0.910,319.34,260216,,,A*72
$GPVTG,319.34,T,,M,0.910,N,1.687,K,A*31
$GPGGA,045514.00,4738.54982,N,12208.28740,W,1,05,2.35,125.1,M,-18.7,M,,*60
$GPGSA,A,3,17,24,06,12,15,,,,,,,,4.86,2.35,4.26*0D
$GPGSV,4,1,14,01,08,032,,02,13,181,28,03,04,061,,06,39,148,33*72
$GPGSV,4,2,14,12,27,289,36,13,05,207,,14,02,340,,15,13,244,28*76
$GPGSV,4,3,14,17,58,056,22,19,86,176,37,24,52,290,40,28,31,093,*7D
$GPGSV,4,4,14,32,12,321,*4E
$GPGLL,4738.54982,N,12208.28740,W,045514.00,A,A*70
$GPGST,045514.00,31,,,,22,19,18*7B
$GPZDA,045514.00,26,02,2016,00,00*64
$GPRMC,045515.00,A,4738.54971,N,12208.28755,W,0.330,327.49,260216,,,A*74
$GPVTG,327.49,T,,M,0.330,N,0.612,K,A*33
$GPGGA,045515.00,4738.54971,N,12208.28755,W,1,05,2.35,124.5,M,-18.7,M,,*6C
$GPGSA,A,3,17,24,06,12,15,,,,,,,,4.86,2.35,4.25*0E
$GPGSV,4,1,15,01,08,032,,02,13,181,28,03,04,061,,06,39,148,33*73
$GPGSV,4,2,15,12,27,289,35,13,05,207,,14,02,340,,15,13,244,28*74
$GPGSV,4,3,15,17,58,056,21,19,86,176,36,24,52,290,40,28,31,093,*7E
$GPGSV,4,4,15,32,12,321,*4F
$GPGLL,4738.54971,N,12208.28755,W,045515.00,A,A*79
$GPGST,045515.00,33,,,,21,17,17*7A
$GPZDA,045515.00,26,02,2016,00,00*65
$GPRMC,045516.00,A,4738.54938,N,12208.28813,W,0.897,321.23,260216,,,A*7B
$GPVTG,321.23,T,,M,0.897,N,1.662,K,A*39
$GPGGA,045516.00,4738.54938,N,12208.28813,W,1,05,2.35,123.8,M,-18.7,M,,*65
$GPGSA,A,3,17,24,06,12,15,,,,,,,,4.86,2.35,4.25*0E
$GPGSV,4,1,15,01,08,032,,02,13,181,28,03,04,061,,06,39,148,34*74
$GPGSV,4,2,15,12,27,289,35,13,05,207,,14,02,340,,15,13,244,28*74
$GPGSV,4,3,15,17,58,056,21,19,86,176,36,24,52,290,40,28,31,093,*7E
$GPGSV,4,4,15,32,12,321,*4F
$GPGLL,4738.54938,N,12208.28813,W,045516.00,A,A*7A
$GPGST,045516.00,33,,,,19,16,16*72
$GPZDA,045516.00,26,02,2016,00,00*66
$GPRMC,045517.00,A,4738.54899,N,12208.28877,W,1.343,315.53,260216,,,A*71
$GPVTG,315.53,T,,M,1.343,N,2.489,K,A*3E
$GPGGA,045517.00,4738.54899,N,12208.28877,W,1,05,2.35,123.0,M,-18.7,M,,*64
$GPGSA,A,3,17,24,06,12,15,,,,,,,,4.86,2.35,4.25*0E
$GPGSV,4,1,15,01,08,032,,02,13,181,28,03,04,061,,06,39,148,34*74
$GPGSV,4,2,15,12,27,289,35,13,05,207,,14,02,340,,15,13,244,28*74
$GPGSV,4,3,15,17,58,056,21,19,86,176,36,24,52,290,40,28,31,093,*7E
$GPGSV,4,4,15,32,12,321,*4F
$GPGST,045517.00,33,,,,18,15,16*71
$GPZDA,045517.00,26,02,2016,00,00*67
$GPGLL,4738.54899,N,12208.28877,W,045517.00,A,A*73
$GPRMC,045518.00,A,4738.54886,N,12208.28921,W,1.245,310.01,260216,,,A*77
$GPVTG,310.01,T,,M,1.245,N,2.307,K,A*3A
$GPGGA,045518.00,4738.54886,N,12208.28921,W,1,05,2.35,122.3,M,-18.7,M,,*65
$GPGSA,A,3,17,24,06,12,15,,,,,,,,4.85,2.35,4.25*0D
$GPGSV,4,1,15,01,08,032,,02,13,181,28,03,04,061,,06,39,148,34*74
$GPGSV,4,2,15,12,27,289,35,13,05,207,,14,02,340,,15,13,244,29*75
$GPGSV,4,3,15,17,58,056,21,19,86,176,36,24,52,290,40,28,31,093,*7E
$GPGSV,4,4,15,32,12,321,*4F
$GPGLL,4738.54886,N,12208.28921,W,045518.00,A,A*70
$GPGST,045518.00,32,,,,18,14,15*7D
$GPZDA,045518.00,26,02,2016,00,00*68
$GPRMC,045519.00,A,4738.54919,N,12208.28907,W,0.091,,260216,,,A*62
$GPVTG,,T,,M,0.091,N,0.168,K,A*24
$GPGGA,045519.00,4738.54919,N,12208.28907,W,1,05,2.35,121.5,M,-18.7,M,,*62
$GPGSA,A,3,17,24,06,12,15,,,,,,,,4.85,2.35,4.25*0D
$GPGSV,4,1,15,01,08,032,,02,13,181,28,03,04,061,,06,39,148,34*74
$GPGSV,4,2,15,12,27,289,35,13,05,207,,14,02,340,,15,13,244,29*75
$GPGSV,4,3,15,17,58,056,21,19,86,176,36,24,52,290,40,28,31,093,*7E
$GPGSV,4,4,15,32,12,321,*4F
$GPGLL,4738.54919,N,12208.28907,W,045519.00,A,A*72
$GPGST,045519.00,32,,,,17,14,15*73
$GPZDA,045519.00,26,02,2016,00,00*69
$GPRMC,045520.00,A,4738.54937,N,12208.28890,W,0.333,301.68,260216,,,A*72
$GPVTG,301.68,T,,M,0.333,N,0.617,K,A*32
$GPGGA,045520.00,4738.54937,N,12208.28890,W,1,05,2.34,120.8,M,-18.7,M,,*66
$GPGSA,A,3,17,24,06,12,15,,,,,,,,4.85,2.34,4.24*0D
$GPGSV,4,1,15,01,08,032,,02,13,181,28,03,04,061,,06,39,148,34*74
$GPGSV,4,2,15,12,27,289,34,13,05,207,,14,02,340,,15,13,244,29*74
$GPGSV,4,3,15,17,58,056,21,19,86,176,36,24,52,290,40,28,31,093,*7E
$GPGSV,4,4,15,32,12,321,*4F
$GPGLL,4738.54937,N,12208.28890,W,045520.00,A,A*7B
$GPGST,045520.00,32,,,,16,13,14*7E
$GPZDA,045520.00,26,02,2016,00,00*63
$GPRMC,045521.00,A,4738.54969,N,12208.28879,W,0.392,298.66,260216,,,A*7B
$GPVTG,298.66,T,,M,0.392,N,0.726,K,A*35
$GPGGA,045521.00,4738.54969,N,12208.28879,W,1,05,2.34,120.2,M,-18.7,M,,*61
$GPGSA,A,3,17,24,06,12,15,,,,,,,,4.85,2.34,4.24*0D
$GPGSV,4,1,15,01,08,032,,02,13,181,28,03,04,061,,06,39,148,34*74
$GPGSV,4,2,15,12,27,289,34,13,05,207,,14,02,340,,15,13,244,29*74
$GPGSV,4,3,15,17,58,056,21,19,86,176,36,24,52,290,40,28,31,093,*7E
$GPGSV,4,4,15,32,12,321,*4F
$GPGLL,4738.54969,N,12208.28879,W,045521.00,A,A*76
$GPZDA,045521.00,26,02,2016,00,00*62
$GPGST,045521.00,32,,,,16,13,14*7F
$GPRMC,045522.00,A,4738.55040,N,12208.28830,W,0.348,298.18,260216,,,A*78
$GPVTG,298.18,T,,M,0.348,N,0.645,K,A*3F
$GPGGA,045522.00,4738.55040,N,12208.28830,W,1,05,2.34,119.7,M,-18.7,M,,*63
$GPGSA,A,3,17,24,06,12,15,,,,,,,,4.84,2.34,4.24*0C
$GPGSV,4,1,15,01,08,032,,02,13,181,29,03,04,061,,06,39,148,34*75
$GPGSV,4,2,15,12,27,289,34,13,05,207,,14,02,340,,15,13,244,30*7C
$GPGSV,4,3,15,17,58,056,22,19,86,176,36,24,52,290,39,28,31,093,*73
$GPGSV,4,4,15,32,12,321,*4F
$GPGLL,4738.55040,N,12208.28830,W,045522.00,A,A*7B
$GPGST,045522.00,30,,,,15,13,14*7D
$GPZDA,045522.00,26,02,2016,00,00*61
$GPRMC,045523.00,A,4738.55220,N,12208.28700,W,1.583,300.80,260216,,,A*70
$GPVTG,300.80,T,,M,1.583,N,2.933,K,A*32
$GPGGA,045523.00,4738.55220,N,12208.28700,W,1,05,2.74,119.5,M,-18.7,M,,*6C
$GPGSA,A,3,17,24,06,12,15,,,,,,,,5.62,2.74,4.91*0F
$GPGSV,4,1,15,01,08,032,,02,13,181,20,03,04,061,,06,39,148,35*7D
$GPGSV,4,2,15,12,27,289,34,13,05,207,,14,02,340,,15,13,244,30*7C
$GPGSV,4,3,15,17,58,056,21,19,86,176,38,24,52,290,37,28,31,093,*70
$GPGSV,4,4,15,32,12,321,*4F
$GPGLL,4738.55220,N,12208.28700,W,045523.00,A,A*72
$GPGST,045523.00,33,,,,15,12,14*7E
$GPZDA,045523.00,26,02,2016,00,00*60
$GPRMC,045524.00,A,4738.55246,N,12208.28756,W,1.825,298.28,260216,,,A*77
$GPVTG,298.28,T,,M,1.825,N,3.382,K,A*30
$GPGGA,045524.00,4738.55246,N,12208.28756,W,1,05,2.74,119.6,M,-18.7,M,,*6B
$GPGSA,A,3,17,24,06,15,28,,,,,,,,5.62,2.74,4.91*06
$GPGSV,4,1,15,01,08,032,,02,13,181,20,03,04,061,,06,39,148,35*7D
$GPGSV,4,2,15,12,27,289,,13,05,207,,14,02,340,,15,13,244,29*73
$GPGSV,4,3,15,17,58,056,19,19,86,176,38,24,52,290,37,28,31,093,24*7D
$GPGSV,4,4,15,32,12,321,*4F
$GPGLL,4738.55246,N,12208.28756,W,045524.00,A,A*76
$GPZDA,045524.00,26,02,2016,00,00*67
$GPGST,045524.00,37,,,,15,12,14*7D
$GPRMC,045525.00,A,4738.55309,N,12208.28793,W,2.387,268.48,260216,,,A*7C
$GPVTG,268.48,T,,M,2.387,N,4.423,K,A*32
$GPGGA,045525.00,4738.55309,N,12208.28793,W,1,07,2.74,119.5,M,-18.7,M,,*68
$GPGSA,A,3,17,24,06,12,13,15,28,,,,,,5.62,2.74,4.90*06
$GPGSV,4,1,15,01,08,032,,02,13,181,22,03,04,061,,06,39,148,35*7F
$GPGSV,4,2,15,12,27,289,38,13,05,207,22,14,02,340,,15,13,244,28*79
$GPGSV,4,3,15,17,58,056,17,19,86,176,38,24,52,290,40,28,31,093,22*75
$GPGSV,4,4,15,32,12,321,*4F
$GPGLL,4738.55309,N,12208.28793,W,045525.00,A,A*74
$GPGST,045525.00,65,,,,15,12,14*7B
$GPZDA,045525.00,26,02,2016,00,00*66
$GPRMC,045526.00,A,4738.55289,N,12208.29021,W,4.716,271.30,260216,,,A*74
$GPVTG,271.30,T,,M,4.716,N,8.740,K,A*35
$GPGGA,045526.00,4738.55289,N,12208.29021,W,1,07,2.37,120.7,M,-18.7,M,,*62
$GPGSA,A,2,17,24,06,12,13,15,28,,,,,,2.57,2.37,1.00*0D
$GPGSV,4,1,15,01,08,032,,02,13,181,21,03,04,061,,06,39,148,36*7F
$GPGSV,4,2,15,12,27,289,38,13,05,207,21,14,02,340,,15,13,244,29*7B
$GPGSV,4,3,15,17,58,056,28,19,86,176,38,24,52,290,37,28,31,093,20*7B
$GPGSV,4,4,15,32,12,321,*4F
$GPGLL,4738.55289,N,12208.29021,W,045526.00,A,A*71
$GPGST,045526.00,18,,,,14,11,10*74
$GPZDA,045526.00,26,02,2016,00,00*65
$GPRMC,045527.00,A,4738.55500,N,12208.29045,W,1.374,270.28,260216,,,A*7C
$GPVTG,270.28,T,,M,1.374,N,2.547,K,A*37
$GPGGA,045527.00,4738.55500,N,12208.29045,W,1,07,1.89,117.5,M,-18.7,M,,*67
$GPGSA,A,3,17,24,06,12,13,15,28,,,,,,3.46,1.89,2.89*09
$GPGSV,4,1,15,01,08,032,,02,13,181,23,03,04,061,,06,39,148,38*73
$GPGSV,4,2,15,12,27,289,42,13,05,207,20,14,02,340,,15,13,244,30*7F
$GPGSV,4,3,15,17,58,056,14,19,86,176,39,24,52,290,41,28,31,093,20*74
$GPGSV,4,4,15,32,12,321,*4F
$GPGLL,4738.55500,N,12208.29045,W,045527.00,A,A*74
$GPGST,045527.00,40,,,,22,19,15*70
$GPZDA,045527.00,26,02,2016,00,00*64
$GPRMC,045528.00,A,4738.55325,N,12208.29086,W,0.329,267.78,260216,,,A*77
$GPVTG,267.78,T,,M,0.329,N,0.609,K,A*36
$GPGGA,045528.00,4738.55325,N,12208.29086,W,1,07,1.80,114.3,M,-18.7,M,,*6A
$GPGSA,A,3,17,24,06,12,13,15,28,,,,,,3.22,1.80,2.66*03
$GPGSV,4,1,15,01,08,032,,02,13,181,21,03,04,061,,06,39,148,36*7F
$GPGSV,4,2,15,12,27,289,38,13,05,207,21,14,02,340,,15,13,244,30*73
$GPGSV,4,3,15,17,58,056,19,19,86,176,39,24,52,290,42,28,31,093,20*7A
$GPGSV,4,4,15,32,12,321,*4F
$GPGLL,4738.55325,N,12208.29086,W,045528.00,A,A*75
$GPGST,045528.00,47,,,,18,15,14*7C
$GPZDA,045528.00,26,02,2016,00,00*6B
$GPRMC,045529.00,A,4738.55288,N,12208.29071,W,0.583,276.56,260216,,,A*72
$GPVTG,276.56,T,,M,0.583,N,1.080,K,A*3A
$GPGGA,045529.00,4738.55288,N,12208.29071,W,1,07,1.80,112.9,M,-18.7,M,,*69
$GPGSA,A,3,17,24,06,12,13,15,28,,,,,,3.21,1.80,2.66*00
$GPGSV,4,1,15,01,08,032,,02,13,181,19,03,04,061,,06,39,148,37*75
$GPGSV,4,2,15,12,27,289,39,13,05,207,21,14,02,340,,15,13,244,31*73
$GPGSV,4,3,15,17,58,056,22,19,86,176,39,24,52,290,43,28,31,093,20*73
$GPGSV,4,4,15,32,12,321,*4F
$GPGLL,4738.55288,N,12208.29071,W,045529.00,A,A*7A
$GPGST,045529.00,65,,,,15,13,13*71
$GPZDA,045529.00,26,02,2016,00,00*6A
$GPRMC,045530.00,A,4738.55319,N,12208.29035,W,0.350,284.30,260216,,,A*76
$GPVTG,284.30,T,,M,0.350,N,0.649,K,A*3D
$GPGGA,045530.00,4738.55319,N,12208.29035,W,1,07,1.80,112.7,M,-18.7,M,,*66
$GPGSA,A,3,17,24,06,12,13,15,28,,,,,,3.21,1.80,2.66*00
$GPGSV,4,1,15,01,08,032,,02,13,181,15,03,04,061,,06,39,148,37*79
$GPGSV,4,2,15,12,27,289,35,13,05,207,21,14,02,340,,15,13,244,31*7F
$GPGSV,4,3,15,17,58,056,23,19,86,176,39,24,52,290,43,28,31,093,19*78
$GPGSV,4,4,15,32,12,321,*4F
$GPGLL,4738.55319,N,12208.29035,W,045530.00,A,A*7B
$GPGST,045530.00,66,,,,14,12,13*7A
$GPZDA,045530.00,26,02,2016,00,00*62
$GPRMC,045531.00,A,4738.55430,N,12208.28890,W,0.713,293.82,260216,,,A*71
$GPVTG,293.82,T,,M,0.713,N,1.321,K,A*3B
$GPGGA,045531.00,4738.55430,N,12208.28890,W,1,07,1.80,113.7,M,-18.7,M,,*6C
$GPGSA,A,3,17,24,06,12,13,15,28,,,,,,3.21,1.80,2.66*00
$GPGSV,4,1,15,01,08,032,,02,13,181,18,03,04,061,,06,39,148,37*74
$GPGSV,4,2,15,12,27,289,37,13,05,207,21,14,02,340,,15,13,244,32*7E
$GPGSV,4,3,15,17,58,056,23,19,86,176,37,24,52,290,34,28,31,093,17*78
$GPGSV,4,4,15,32,12,321,*4F
$GPGLL,4738.55430,N,12208.28890,W,045531.00,A,A*70
$GPGST,045531.00,44,,,,13,11,13*7F
$GPZDA,045531.00,26,02,2016,00,00*63
$GPRMC,045532.00,A,4738.55420,N,12208.28893,W,0.583,303.03,260216,,,A*7A
$GPVTG,303.03,T,,M,0.583,N,1.080,K,A*39
$GPGGA,045532.00,4738.55420,N,12208.28893,W,1,07,1.89,114.0,M,-18.7,M,,*64
$GPGSA,A,3,17,24,06,12,13,15,28,,,,,,3.45,1.89,2.89*0A
$GPGSV,4,1,15,01,08,032,,02,13,181,27,03,04,061,,06,39,148,36*79
$GPGSV,4,2,15,12,27,289,36,13,05,207,20,14,02,340,,15,13,244,34*78
$GPGSV,4,3,15,17,58,056,22,19,86,176,38,24,52,290,40,28,31,093,18*7A
$GPGSV,4,4,15,32,12,321,*4F
$GPGLL,4738.55420,N,12208.28893,W,045532.00,A,A*71
$GPGST,045532.00,45,,,,13,11,13*7D
$GPZDA,045532.00,26,02,2016,00,00*60
$GPRMC,045533.00,A,4738.55331,N,12208.28977,W,2.466,228.81,260216,,,A*7D
$GPVTG,228.81,T,,M,2.466,N,4.569,K,A*34
$GPGGA,045533.00,4738.55331,N,12208.28977,W,1,06,2.33,113.3,M,-18.7,M,,*6E
$GPGSA,A,3,17,24,06,12,13,15,,,,,,,4.82,2.33,4.22*09
$GPGSV,4,1,15,01,08,032,,02,13,181,28,03,04,061,,06,39,148,39*79
$GPGSV,4,2,15,12,27,289,31,13,05,207,20,14,02,340,,15,13,244,30*7B
$GPGSV,4,3,15,17,58,056,20,19,86,176,41,24,52,290,43,28,31,093,*7C
$GPGSV,4,4,15,32,12,321,*4F
$GPGLL,4738.55331,N,12208.28977,W,045533.00,A,A*7C
$GPGST,045533.00,58,,,,14,11,13*77
$GPZDA,045533.00,26,02,2016,00,00*61
$GPRMC,045534.00,A,4738.55353,N,12208.29068,W,4.484,268.23,260216,,,A*7E
$GPVTG,268.23,T,,M,4.484,N,8.309,K,A*3E
$GPGGA,045534.00,4738.55353,N,12208.29068,W,1,06,4.19,113.4,M,-18.7,M,,*62
$GPGSA,A,3,24,06,12,13,15,28,,,,,,,6.88,4.19,5.46*00
$GPGSV,4,1,15,01,08,032,,02,13,181,25,03,04,061,,06,39,148,37*7A
$GPGSV,4,2,15,12,27,289,33,13,05,207,20,14,02,340,,15,13,244,33*7A
$GPGSV,4,3,15,17,58,056,,19,86,176,41,24,52,290,45,28,31,093,25*7F
$GPGSV,4,4,15,32,12,321,*4F
$GPGLL,4738.55353,N,12208.29068,W,045534.00,A,A*79
$GPGST,045534.00,27,,,,14,11,12*79
$GPZDA,045534.00,26,02,2016,00,00*66
$GPRMC,045535.00,A,4738.55433,N,12208.29192,W,4.748,271.29,260216,,,A*7B
$GPVTG,271.29,T,,M,4.748,N,8.799,K,A*32
$GPGGA,045535.00,4738.55433,N,12208.29192,W,1,08,2.33,113.7,M,-18.7,M,,*65
$GPGSA,A,3,17,24,06,01,12,13,15,28,,,,,4.82,2.33,4.22*02
$GPGSV,4,1,15,01,08,032,22,02,13,181,25,03,04,061,,06,39,148,40*7A
$GPGSV,4,2,15,12,27,289,38,13,05,207,21,14,02,340,,15,13,244,36*75
$GPGSV,4,3,15,17,58,056,33,19,86,176,42,24,52,290,41,28,31,093,22*7F
$GPGSV,4,4,15,32,12,321,*4F
$GPGLL,4738.55433,N,12208.29192,W,045535.00,A,A*7D
$GPGST,045535.00,22,,,,12,10,12*7A
$GPZDA,045535.00,26,02,2016,00,00*67
$GPRMC,045536.00,A,4738.55434,N,12208.29468,W,6.256,272.40,260216,,,A*7B
$GPVTG,272.40,T,,M,6.256,N,11.592,K,A*07
$GPGGA,045536.00,4738.55434,N,12208.29468,W,1,06,2.33,114.3,M,-18.7,M,,*6C
$GPGSA,A,3,17,24,06,12,13,15,,,,,,,4.81,2.33,4.21*09
$GPGSV,4,1,15,01,08,032,,02,13,181,22,03,04,061,,06,39,148,38*72
$GPGSV,4,2,15,12,27,289,31,13,05,207,20,14,02,340,,15,13,244,35*7E
$GPGSV,4,3,15,17,58,056,38,19,86,176,40,24,52,290,39,28,31,093,*79
$GPGSV,4,4,15,32,12,321,*4F
$GPGLL,4738.55434,N,12208.29468,W,045536.00,A,A*79
$GPGST,045536.00,18,,,,11,8.6,12*52
$GPZDA,045536.00,26,02,2016,00,00*64
$GPRMC,045537.00,A,4738.55177,N,12208.30129,W,8.281,256.04,260216,,,A*72
$GPVTG,256.04,T,,M,8.281,N,15.344,K,A*0C
$GPGGA,045537.00,4738.55177,N,12208.30129,W,1,07,2.33,115.5,M,-18.7,M,,*61
$GPGSA,A,3,17,24,06,12,13,15,28,,,,,,4.81,2.33,4.21*03
$GPGSV,4,1,15,01,08,032,,02,13,181,21,03,04,061,,06,39,148,38*71
$GPGSV,4,2,15,12,27,289,35,13,05,207,22,14,02,340,,15,13,244,31*7C
$GPGSV,4,3,15,17,58,056,40,19,86,176,40,24,52,290,39,28,31,093,23*77
$GPGSV,4,4,15,32,12,321,*4F
$GPGLL,4738.55177,N,12208.30129,W,045537.00,A,A*72
$GPGST,045537.00,14,,,,8.4,6.3,12*76
$GPZDA,045537.00,26,02,2016,00,00*65
$GPRMC,045538.00,A,4738.55108,N,12208.30558,W,8.708,267.04,260216,,,A*71
$GPVTG,267.04,T,,M,8.708,N,16.135,K,A*0D
$GPGGA,045538.00,4738.55108,N,12208.30558,W,1,07,2.28,117.1,M,-18.7,M,,*68
$GPGSA,A,3,17,24,06,12,13,15,28,,,,,,4.36,2.28,3.71*07
$GPGSV,4,1,15,01,08,032,,02,13,181,20,03,04,061,,06,39,148,33*7B
$GPGSV,4,2,15,12,27,289,35,13,05,207,29,14,02,340,,15,13,244,29*7E
$GPGSV,4,3,15,17,58,056,40,19,86,176,40,24,52,290,38,28,31,093,20*75
$GPGSV,4,4,15,32,12,321,*4F
$GPGLL,4738.55108,N,12208.30558,W,045538.00,A,A*77
$GPGST,045538.00,18,,,,6.8,4.7,11*72
$GPZDA,045538.00,26,02,2016,00,00*6A
$GPRMC,045539.00,A,4738.55053,N,12208.30983,W,9.306,261.31,260216,,,A*7E
$GPVTG,261.31,T,,M,9.306,N,17.244,K,A*02
$GPGGA,045539.00,4738.55053,N,12208.30983,W,1,07,1.47,117.1,M,-18.7,M,,*66
$GPGSA,A,3,17,24,06,12,13,15,28,,,,,,2.85,1.47,2.44*04
$GPGSV,4,1,15,01,08,032,,02,13,181,20,03,04,061,,06,39,148,33*7B
$GPGSV,4,2,15,12,27,289,37,13,05,207,27,14,02,340,,15,13,244,28*73
$GPGSV,4,3,15,17,58,056,39,19,86,176,41,24,52,290,37,28,31,093,31*75
$GPGSV,4,4,15,32,12,321,*4F
$GPGST,045539.00,32,,,,6.5,4.2,11*73
$GPGLL,4738.55053,N,12208.30983,W,045539.00,A,A*73
$GPZDA,045539.00,26,02,2016,00,00*6B
$GPRMC,045540.00,A,4738.55033,N,12208.31437,W,9.808,271.64,260216,,,A*71
$GPVTG,271.64,T,,M,9.808,N,18.173,K,A*0E
$GPGGA,045540.00,4738.55033,N,12208.31437,W,1,07,1.47,117.9,M,-18.7,M,,*65
$GPGSA,A,3,17,24,06,12,13,15,28,,,,,,2.85,1.47,2.44*04
$GPGSV,4,1,14,01,08,032,,02,13,181,20,03,04,061,,06,39,148,33*7A
$GPGSV,4,2,14,12,27,289,26,13,05,207,27,14,02,340,,15,13,244,26*7C
$GPGSV,4,3,14,17,58,056,40,19,86,176,39,24,52,290,40,28,31,093,35*71
$GPGSV,4,4,14,32,12,321,24*48
$GPGLL,4738.55033,N,12208.31437,W,045540.00,A,A*78
$GPGST,045540.00,29,,,,6.5,3.7,10*74
$GPZDA,045540.00,26,02,2016,00,00*65
$GPRMC,045541.00,A,4738.55056,N,12208.31817,W,8.979,276.89,260216,,,A*7F
$GPVTG,276.89,T,,M,8.979,N,16.638,K,A*0A
$GPGGA,045541.00,4738.55056,N,12208.31817,W,1,07,1.47,118.4,M,-18.7,M,,*6B
$GPGSA,A,3,17,24,06,12,13,15,28,,,,,,2.85,1.47,2.44*04
$GPGSV,4,1,14,01,08,032,,02,13,181,21,03,04,061,,06,39,148,40*7F
$GPGSV,4,2,14,12,27,289,37,13,05,207,26,14,02,340,,15,13,244,31*7B
$GPGSV,4,3,14,17,58,056,39,19,86,176,36,24,52,290,38,28,31,093,33*79
$GPGSV,4,4,14,32,12,321,23*4F
$GPGLL,4738.55056,N,12208.31817,W,045541.00,A,A*74
$GPGST,045541.00,26,,,,6.2,3.8,9.9*5D
$GPZDA,045541.00,26,02,2016,00,00*64
$GPRMC,045542.00,A,4738.55038,N,12208.32178,W,8.832,274.63,260216,,,A*7F
$GPVTG,274.63,T,,M,8.832,N,16.365,K,A*0F
$GPGGA,045542.00,4738.55038,N,12208.32178,W,1,07,1.47,118.0,M,-18.7,M,,*67
$GPGSA,A,3,17,24,06,12,13,15,28,,,,,,2.84,1.47,2.44*05
$GPGSV,4,1,14,01,08,032,,02,13,181,20,03,04,061,,06,39,148,39*70
$GPGSV,4,2,14,12,27,289,37,13,05,207,24,14,02,340,,15,13,244,29*70
$GPGSV,4,3,14,17,58,056,39,19,86,176,34,24,52,290,38,28,31,093,29*70
$GPGSV,4,4,14,32,12,321,22*4E
$GPGLL,4738.55038,N,12208.32178,W,045542.00,A,A*7C
$GPGST,045542.00,26,,,,6.1,4.0,9.5*5E
$GPZDA,045542.00,26,02,2016,00,00*67
$GPRMC,045543.00,A,4738.55052,N,12208.32504,W,7.479,267.92,260216,,,A*7D
$GPVTG,267.92,T,,M,7.479,N,13.858,K,A*0F
$GPGGA,045543.00,4738.55052,N,12208.32504,W,1,07,1.47,118.3,M,-18.7,M,,*66
$GPGSA,A,3,17,24,06,12,13,15,28,,,,,,2.84,1.47,2.44*05
$GPGSV,4,1,14,01,08,032,,02,13,181,19,03,04,061,,06,39,148,39*7A
$GPGSV,4,2,14,12,27,289,37,13,05,207,23,14,02,340,,15,13,244,29*77
$GPGSV,4,3,14,17,58,056,39,19,86,176,35,24,52,290,38,28,31,093,30*79
$GPGSV,4,4,14,32,12,321,25*49
$GPGLL,4738.55052,N,12208.32504,W,045543.00,A,A*7E
$GPGST,045543.00,24,,,,6.0,4.2,9.2*59
$GPZDA,045543.00,26,02,2016,00,00*66
$GPRMC,045544.00,A,4738.55042,N,12208.32741,W,4.195,267.98,260216,,,A*76
$GPVTG,267.98,T,,M,4.195,N,7.773,K,A*32
$GPGGA,045544.00,4738.55042,N,12208.32741,W,1,07,1.47,118.2,M,-18.7,M,,*62
$GPGSA,A,3,17,24,06,12,13,15,28,,,,,,2.84,1.47,2.44*05
$GPGSV,4,1,14,01,08,032,,02,13,181,22,03,04,061,,06,39,148,39*72
$GPGSV,4,2,14,12,27,289,38,13,05,207,25,14,02,340,,15,13,244,29*7E
$GPGSV,4,3,14,17,58,056,39,19,86,176,35,24,52,290,38,28,31,093,31*78
$GPGSV,4,4,14,32,12,321,24*48
$GPGLL,4738.55042,N,12208.32741,W,045544.00,A,A*7B
$GPGST,045544.00,20,,,,5.8,4.2,8.8*5A
$GPZDA,045544.00,26,02,2016,00,00*61
$GPRMC,045545.00,A,4738.55024,N,12208.32888,W,1.144,269.66,260216,,,A*7B
$GPVTG,269.66,T,,M,1.144,N,2.119,K,A*3B
$GPGGA,045545.00,4738.55024,N,12208.32888,W,1,07,1.46,118.0,M,-18.7,M,,*6A
$GPGSA,A,3,17,24,06,12,13,15,28,,,,,,2.84,1.46,2.44*04
$GPGSV,4,1,13,01,08,032,,02,13,181,30,03,04,061,,06,39,148,40*78
$GPGSV,4,2,13,12,27,289,38,13,05,207,25,14,02,340,,15,13,244,19*7A
$GPGSV,4,3,13,17,58,056,39,19,86,176,35,24,52,290,39,28,31,093,29*77
$GPGSV,4,4,13,32,12,321,25*4E
$GPGLL,4738.55024,N,12208.32888,W,045545.00,A,A*70
$GPGST,045545.00,33,,,,5.1,3.7,8.5*5F
$GPZDA,045545.00,26,02,2016,00,00*60
$GPRMC,045546.00,A,4738.54940,N,12208.32951,W,0.538,266.39,260216,,,A*7C
$GPVTG,266.39,T,,M,0.538,N,0.996,K,A*3D
$GPGGA,045546.00,4738.54940,N,12208.32951,W,1,07,1.46,118.0,M,-18.7,M,,*66
$GPGSA,A,3,17,24,06,12,13,15,28,,,,,,2.84,1.46,2.44*04
$GPGSV,4,1,13,01,08,032,,02,13,181,30,03,04,061,,06,39,148,40*78
$GPGSV,4,2,13,12,27,289,38,13,05,207,24,14,02,340,,15,13,244,21*70
$GPGSV,4,3,13,17,58,056,39,19,86,176,36,24,52,290,38,28,31,093,30*7D
$GPGLL,4738.54940,N,12208.32951,W,045546.00,A,A*7C
$GPGSV,4,4,13,32,12,321,26*4D
$GPGST,045546.00,30,,,,4.6,3.5,8.2*5C
$GPZDA,045546.00,26,02,2016,00,00*63
$GPRMC,045547.00,A,4738.54921,N,12208.32972,W,0.115,,260216,,,A*66
$GPVTG,,T,,M,0.115,N,0.212,K,A*27
$GPGGA,045547.00,4738.54921,N,12208.32972,W,1,07,1.46,118.0,M,-18.7,M,,*61
$GPGSA,A,3,17,24,06,12,13,15,28,,,,,,2.84,1.46,2.44*04
$GPGSV,4,1,13,01,07,031,,02,13,181,30,03,04,061,,06,39,148,40*74
$GPGSV,4,2,13,12,27,289,36,13,05,207,26,14,02,340,,15,13,244,22*7F
$GPGSV,4,3,13,17,58,056,39,19,86,176,36,24,52,290,39,28,31,093,31*7D
$GPGSV,4,4,13,32,12,321,25*4E
$GPGLL,4738.54921,N,12208.32972,W,045547.00,A,A*7B
$GPGST,045547.00,26,,,,4.4,3.3,8.0*5C
$GPZDA,045547.00,26,02,2016,00,00*62
$GPRMC,045548.00,A,4738.54928,N,12208.32974,W,0.197,275.93,260216,,,A*78
$GPVTG,275.93,T,,M,0.197,N,0.364,K,A*39
$GPGGA,045548.00,4738.54928,N,12208.32974,W,1,07,1.46,117.9,M,-18.7,M,,*67
$GPGSA,A,3,17,24,06,12,13,15,28,,,,,,2.84,1.46,2.43*03
$GPGSV,4,1,13,01,07,031,,02,13,181,30,03,04,061,,06,39,148,40*74
$GPGSV,4,2,13,12,27,289,36,13,05,207,26,14,02,340,,15,13,244,23*7E
$GPGSV,4,3,13,17,58,056,38,19,86,176,36,24,52,290,39,28,31,093,31*7C
$GPGSV,4,4,13,32,12,321,23*48
$GPGLL,4738.54928,N,12208.32974,W,045548.00,A,A*7B
$GPZDA,045548.00,26,02,2016,00,00*6D
$GPGST,045548.00,24,,,,4.3,3.3,7.8*51
$GPRMC,045549.00,A,4738.54935,N,12208.32972,W,0.256,274.58,260216,,,A*7B
$GPVTG,274.58,T,,M,0.256,N,0.474,K,A*37
$GPGGA,045549.00,4738.54935,N,12208.32972,W,1,07,1.46,117.8,M,-18.7,M,,*6D
$GPGSA,A,3,17,24,06,12,13,15,28,,,,,,2.84,1.46,2.43*03
$GPGSV,4,1,13,01,07,031,,02,13,181,30,03,04,061,,06,39,148,40*74
$GPGSV,4,2,13,12,27,289,36,13,05,207,26,14,02,340,,15,13,244,25*78
$GPGSV,4,3,13,17,58,056,38,19,86,176,36,24,52,290,39,28,31,093,32*7F
$GPGSV,4,4,13,32,12,321,21*4A
$GPGLL,4738.54935,N,12208.32972,W,045549.00,A,A*70
$GPGST,045549.00,22,,,,4.2,3.3,7.6*59
$GPZDA,045549.00,26,02,2016,00,00*6C
$GPRMC,045550.00,A,4738.54941,N,12208.33048,W,2.299,277.88,260216,,,A*7E
$GPVTG,277.88,T,,M,2.299,N,4.260,K,A*3F
$GPGGA,045550.00,4738.54941,N,12208.33048,W,1,07,1.46,117.3,M,-18.7,M,,*6C
$GPGSA,A,3,17,24,06,12,13,15,28,,,,,,2.84,1.46,2.43*03
$GPGSV,4,1,13,01,07,031,,02,13,181,30,03,04,061,,06,39,148,41*75
$GPGSV,4,2,13,12,27,289,39,13,05,207,24,14,02,340,,15,13,244,24*74
$GPGSV,4,3,13,17,58,056,39,19,86,176,38,24,52,290,39,28,31,093,31*73
$GPGSV,4,4,13,32,12,321,30*4A
$GPGLL,4738.54941,N,12208.33048,W,045550.00,A,A*7A
$GPZDA,045550.00,26,02,2016,00,00*64
$GPGST,045550.00,26,,,,4.1,3.1,7.3*51
$GPRMC,045551.00,A,4738.54952,N,12208.33123,W,0.951,278.25,260216,,,A*74
$GPVTG,278.25,T,,M,0.951,N,1.762,K,A*38
$GPGGA,045551.00,4738.54952,N,12208.33123,W,1,07,1.46,116.8,M,-18.7,M,,*69
$GPGSA,A,3,17,24,06,12,13,15,28,,,,,,2.84,1.46,2.43*03
$GPGSV,4,1,13,01,07,031,,02,13,181,21,03,04,061,,06,39,148,41*75
$GPGSV,4,2,13,12,27,289,39,13,05,207,22,14,02,340,,15,13,244,25*73
$GPGSV,4,3,13,17,58,056,39,19,86,176,36,24,52,290,38,28,31,093,31*7C
$GPGSV,4,4,13,32,12,321,24*4F
$GPGLL,4738.54952,N,12208.33123,W,045551.00,A,A*75
$GPGST,045551.00,28,,,,4.0,3.1,7.1*5D
$GPZDA,045551.00,26,02,2016,00,00*65
$GPRMC,045552.00,A,4738.54973,N,12208.33130,W,0.670,285.19,260216,,,A*77
$GPVTG,285.19,T,,M,0.670,N,1.241,K,A*3D
$GPGGA,045552.00,4738.54973,N,12208.33130,W,1,07,1.46,116.4,M,-18.7,M,,*67
$GPGSA,A,3,17,24,06,12,13,15,28,,,,,,2.84,1.46,2.43*03
$GPGSV,4,1,13,01,07,031,,02,13,181,22,03,04,061,,06,39,148,41*76
$GPGSV,4,2,13,12,27,289,38,13,05,207,21,14,02,340,,15,13,244,22*76
$GPGSV,4,3,13,17,58,056,39,19,86,176,36,24,52,290,39,28,31,093,29*74
$GPGSV,4,4,13,32,12,321,26*4D
$GPGLL,4738.54973,N,12208.33130,W,045552.00,A,A*77
$GPGST,045552.00,33,,,,3.9,3.0,7.0*5A
$GPZDA,045552.00,26,02,2016,00,00*66
$GPRMC,045553.00,A,4738.54999,N,12208.33119,W,0.754,292.53,260216,,,A*76
$GPVTG,292.53,T,,M,0.754,N,1.398,K,A*37
$GPGGA,045553.00,4738.54999,N,12208.33119,W,1,07,1.46,116.1,M,-18.7,M,,*6C
$GPGSA,A,3,17,24,06,12,13,15,28,,,,,,2.84,1.46,2.43*03
$GPGSV,4,1,13,01,07,031,,02,13,181,22,03,04,061,,06,39,148,41*76
$GPGSV,4,2,13,12,27,289,38,13,05,207,21,14,02,340,,15,13,244,20*74
$GPGSV,4,3,13,17,58,056,39,19,86,176,36,24,52,290,38,28,31,093,28*74
$GPGSV,4,4,13,32,12,321,26*4D
$GPGLL,4738.54999,N,12208.33119,W,045553.00,A,A*79
$GPGST,045553.00,36,,,,3.8,3.0,6.8*56
$GPZDA,045553.00,26,02,2016,00,00*67
$GPRMC,045554.00,A,4738.55010,N,12208.33117,W,0.237,287.40,260216,,,A*70
$GPVTG,287.40,T,,M,0.237,N,0.439,K,A*3C
$GPGGA,045554.00,4738.55010,N,12208.33117,W,1,06,1.48,115.8,M,-18.7,M,,*69
$GPGSA,A,3,17,24,06,12,13,28,,,,,,,2.88,1.48,2.47*01
$GPGSV,4,1,13,01,07,031,,02,13,181,21,03,04,061,,06,39,148,41*75
$GPGSV,4,2,13,12,27,289,38,13,05,207,21,14,02,340,,15,13,244,*76
$GPGSV,4,3,13,17,58,056,39,19,86,176,36,24,52,290,38,28,31,093,27*7B
$GPGSV,4,4,13,32,12,321,25*4E
$GPGLL,4738.55010,N,12208.33117,W,045554.00,A,A*79
$GPGST,045554.00,28,,,,3.8,3.0,6.7*51
$GPZDA,045554.00,26,02,2016,00,00*60
$GPRMC,045555.00,A,4738.54993,N,12208.33172,W,1.860,285.00,260216,,,A*7E
$GPVTG,285.00,T,,M,1.860,N,3.447,K,A*39
$GPGGA,045555.00,4738.54993,N,12208.33172,W,1,07,1.48,115.5,M,-18.7,M,,*64
$GPGSA,A,3,17,24,06,12,13,15,28,,,,,,2.88,1.48,2.47*05
$GPGSV,4,1,13,01,07,031,,02,13,181,20,03,04,061,,06,39,148,40*75
$GPGSV,4,2,13,12,27,289,38,13,05,207,22,14,02,340,,15,13,244,25*72
$GPGSV,4,3,13,17,58,056,39,19,86,176,37,24,52,290,38,28,31,093,32*7E
$GPGSV,4,4,13,32,12,321,26*4D
$GPGLL,4738.54993,N,12208.33172,W,045555.00,A,A*78
$GPGST,045555.00,23,,,,3.8,3.1,6.6*5B
$GPZDA,045555.00,26,02,2016,00,00*61
$GPRMC,045556.00,A,4738.54975,N,12208.33288,W,3.910,260.30,260216,,,A*7F
$GPVTG,260.30,T,,M,3.910,N,7.246,K,A*36
$GPGGA,045556.00,4738.54975,N,12208.33288,W,1,07,1.46,115.3,M,-18.7,M,,*61
$GPGSA,A,3,17,24,06,12,13,15,28,,,,,,2.84,1.46,2.43*03
$GPGSV,4,1,13,01,07,031,,02,13,181,22,03,04,061,,06,39,148,41*76
$GPGSV,4,2,13,12,27,289,36,13,05,207,20,14,02,340,,15,13,244,26*7D
$GPGSV,4,3,13,17,58,056,39,19,86,176,41,24,52,290,40,28,31,093,31*73
$GPGSV,4,4,13,32,12,321,26*4D
$GPGLL,4738.54975,N,12208.33288,W,045556.00,A,A*75
$GPGST,045556.00,32,,,,3.8,3.0,6.5*5A
$GPZDA,045556.00,26,02,2016,00,00*62
$GPRMC,045557.00,A,4738.54944,N,12208.33478,W,4.950,256.46,260216,,,A*72
$GPVTG,256.46,T,,M,4.950,N,9.173,K,A*3A
$GPGGA,045557.00,4738.54944,N,12208.33478,W,1,07,1.46,115.3,M,-18.7,M,,*6B
$GPGSA,A,3,17,24,06,12,13,15,28,,,,,,2.84,1.46,2.43*03
$GPGSV,4,1,13,01,07,031,,02,13,181,24,03,04,061,,06,39,148,27*70
$GPGSV,4,2,13,12,27,289,25,13,05,207,18,14,02,340,,15,13,244,26*74
$GPGSV,4,3,13,17,58,056,37,19,86,176,41,24,52,290,39,28,31,093,32*70
$GPGSV,4,4,13,32,12,321,26*4D
$GPGLL,4738.54944,N,12208.33478,W,045557.00,A,A*7F
$GPGST,045557.00,56,,,,4.3,3.2,6.4*56
$GPZDA,045557.00,26,02,2016,00,00*63
$GPRMC,045558.00,A,4738.54841,N,12208.33709,W,6.728,237.12,260216,,,A*79
$GPVTG,237.12,T,,M,6.728,N,12.467,K,A*05
$GPGGA,045558.00,4738.54841,N,12208.33709,W,1,07,1.53,115.1,M,-18.7,M,,*63
$GPGSA,A,3,17,24,06,12,13,15,28,,,,,,3.00,1.53,2.58*00
$GPGSV,4,1,13,01,07,031,,02,13,181,27,03,04,061,,06,39,148,32*77
$GPGSV,4,2,13,12,27,289,23,13,05,207,16,14,02,340,,15,13,244,26*7C
$GPGSV,4,3,13,17,58,056,39,19,86,176,41,24,52,290,39,28,31,093,35*79
$GPGSV,4,4,13,32,12,321,26*4D
$GPGLL,4738.54841,N,12208.33709,W,045558.00,A,A*71
$GPGST,045558.00,31,,,,4.9,3.2,6.3*55
$GPZDA,045558.00,26,02,2016,00,00*6C
$GPRMC,045559.00,A,4738.54639,N,12208.33928,W,8.487,214.60,260216,,,A*78
$GPVTG,214.60,T,,M,8.487,N,15.727,K,A*09
$GPGGA,045559.00,4738.54639,N,12208.33928,W,1,07,1.53,114.9,M,-18.7,M,,*67
$GPGSA,A,3,17,24,06,12,13,15,28,,,,,,3.00,1.53,2.58*00
$GPGSV,4,1,13,01,07,031,,02,13,181,32,03,04,061,,06,39,148,26*76
$GPGSV,4,2,13,12,27,289,23,13,04,206,17,14,02,340,,15,13,244,24*7F
$GPGSV,4,3,13,17,58,056,40,19,86,176,40,24,52,290,37,28,31,093,35*78
$GPGSV,4,4,13,32,12,321,31*4B
$GPGLL,4738.54639,N,12208.33928,W,045559.00,A,A*7C
$GPGST,045559.00,34,,,,5.8,3.3,6.3*50
$GPZDA,045559.00,26,02,2016,00,00*6D
$GPRMC,045600.00,A,4738.54219,N,12208.34096,W,12.836,191.71,260216,,,A*49
$GPVTG,191.71,T,,M,12.836,N,23.784,K,A*36
$GPGGA,045600.00,4738.54219,N,12208.34096,W,1,08,1.53,114.5,M,-18.7,M,,*66
$GPGSA,A,3,17,24,06,01,12,13,15,28,,,,,3.00,1.53,2.58*01
$GPGSV,4,1,14,01,07,031,13,02,13,181,31,03,04,061,,06,39,148,40*70
$GPGSV,4,2,14,12,27,289,39,13,04,206,19,14,02,340,,15,13,244,22*7B
$GPGSV,4,3,14,17,58,056,39,19,86,176,41,24,52,290,37,28,31,093,31*74
$GPGSV,4,4,14,32,12,321,25*49
$GPGLL,4738.54219,N,12208.34096,W,045600.00,A,A*7E
$GPGST,045600.00,26,,,,5.4,3.3,6.2*51
$GPZDA,045600.00,26,02,2016,00,00*62
$GPRMC,045601.00,A,4738.53840,N,12208.34217,W,13.978,190.72,260216,,,A*4A
$GPVTG,190.72,T,,M,13.978,N,25.901,K,A*3B
$GPGGA,045601.00,4738.53840,N,12208.34217,W,1,07,1.53,114.6,M,-18.7,M,,*61
$GPGSA,A,3,17,24,06,12,13,15,28,,,,,,2.99,1.53,2.58*01
$GPGSV,4,1,14,01,07,031,12,02,13,181,26,03,04,061,,06,39,148,29*78
$GPGSV,4,2,14,12,27,289,26,13,04,206,18,14,02,340,,15,13,244,19*7C
$GPGSV,4,3,14,17,58,056,39,19,86,176,39,24,52,290,39,28,31,093,35*71
$GPGSV,4,4,14,32,12,321,23*4F
$GPGLL,4738.53840,N,12208.34217,W,045601.00,A,A*75
$GPGST,045601.00,38,,,,5.8,3.3,6.2*53
$GPZDA,045601.00,26,02,2016,00,00*63
$GPRMC,045602.00,A,4738.53372,N,12208.34307,W,17.170,184.31,260216,,,A*45
$GPVTG,184.31,T,,M,17.170,N,31.817,K,A*3E
$GPGGA,045602.00,4738.53372,N,12208.34307,W,1,08,1.53,114.4,M,-18.7,M,,*65
$GPGSA,A,3,17,24,06,01,12,13,15,28,,,,,2.99,1.53,2.58*00
$GPGSV,4,1,14,01,07,031,11,02,13,181,27,03,04,061,,06,39,148,30*72
$GPGSV,4,2,14,12,27,289,36,13,04,206,19,14,02,340,,15,13,244,19*7C
$GPGSV,4,3,14,17,58,056,38,19,86,176,39,24,52,290,38,28,31,093,35*71
$GPGSV,4,4,14,32,12,321,21*4D
$GPGLL,4738.53372,N,12208.34307,W,045602.00,A,A*7C
$GPGST,045602.00,32,,,,6.5,3.5,6.1*51
$GPZDA,045602.00,26,02,2016,00,00*60
$GPRMC,045603.00,A,4738.52838,N,12208.34416,W,19.077,189.08,260216,,,A*48
$GPVTG,189.08,T,,M,19.077,N,35.350,K,A*3D
$GPGGA,045603.00,4738.52838,N,12208.34416,W,1,07,1.53,114.4,M,-18.7,M,,*68
$GPGSA,A,3,17,24,06,12,13,15,28,,,,,,2.99,1.53,2.57*0E
$GPGSV,4,1,14,01,07,031,,02,13,181,28,03,04,061,,06,39,148,29*75
$GPGSV,4,2,14,12,27,289,32,13,04,206,20,14,02,340,,15,13,244,19*72
$GPGSV,4,3,14,17,58,056,38,19,86,176,40,24,52,290,32,28,31,093,35*75
$GPGSV,4,4,14,32,12,321,19*46
$GPGLL,4738.52838,N,12208.34416,W,045603.00,A,A*7E
$GPGST,045603.00,35,,,,7.2,3.8,6.1*5C
$GPZDA,045603.00,26,02,2016,00,00*61
$GPRMC,045604.00,A,4738.52264,N,12208.34505,W,20.034,184.79,260216,,,A*49
$GPVTG,184.79,T,,M,20.034,N,37.123,K,A*3F
$GPGGA,045604.00,4738.52264,N,12208.34505,W,1,07,1.53,114.5,M,-18.7,M,,*6E
$GPGSA,A,3,17,24,06,12,13,15,28,,,,,,2.99,1.53,2.57*0E
$GPGSV,4,1,14,01,07,031,,02,13,181,27,03,04,061,,06,39,148,33*71
$GPGSV,4,2,14,12,27,289,27,13,04,206,28,14,02,340,,15,13,244,19*7E
$GPGSV,4,3,14,17,58,056,38,19,86,176,38,24,52,290,29,28,31,093,26*72
$GPGSV,4,4,14,32,12,321,21*4D
$GPGLL,4738.52264,N,12208.34505,W,045604.00,A,A*79
$GPGST,045604.00,37,,,,7.6,4.2,6.2*53
$GPZDA,045604.00,26,02,2016,00,00*66
$GPRMC,045605.00,V,,,,,,,260216,,,N*7E
$GPVTG,,,,,,,,,N*30
$GPGGA,045605.00,,,,,0,07,1.46,,,,,,*50
$GPGSA,A,1,17,24,06,12,13,15,28,,,,,,2.83,1.46,2.42*07
$GPGSV,4,1,15,01,07,031,,02,13,181,28,03,04,061,,06,39,148,34*78
$GPGSV,4,2,15,12,27,289,27,13,04,206,27,14,02,340,,15,13,244,18*71
$GPGSV,4,3,15,17,58,056,39,19,87,170,39,24,52,290,29,28,31,093,25*77
$GPGSV,4,4,15,32,12,321,21*4C
$GPGLL,,,,,045605.00,V,N*48
$GPGST,045605.00,41,,,,33,31,101*4C
$GPZDA,045605.00,26,02,2016,00,00*67
$GPRMC,045606.00,A,4738.50813,N,12208.35161,W,24.394,192.95,260216,,,A*4C
$GPVTG,192.95,T,,M,24.394,N,45.201,K,A*31
$GPGGA,045606.00,4738.50813,N,12208.35161,W,1,07,1.46,115.9,M,-18.7,M,,*6A
$GPGSA,A,3,17,24,06,12,13,15,28,,,,,,2.83,1.46,2.42*05
$GPGSV,4,1,15,01,07,031,,02,13,181,29,03,04,061,,06,39,148,35*78
$GPGSV,4,2,15,12,27,289,36,13,04,206,26,14,02,340,,15,13,244,16*7E
$GPGSV,4,3,15,17,58,056,38,19,87,170,39,24,52,290,37,28,31,093,23*7F
$GPGSV,4,4,15,32,12,321,21*4C
$GPGLL,4738.50813,N,12208.35161,W,045606.00,A,A*74
$GPGST,045606.00,54,,,,20,12,39*72
$GPZDA,045606.00,26,02,2016,00,00*64
$GPRMC,045607.00,A,4738.50170,N,12208.35388,W,24.117,196.56,260216,,,A*46
$GPVTG,196.56,T,,M,24.117,N,44.689,K,A*36
$GPGGA,045607.00,4738.50170,N,12208.35388,W,1,06,1.66,112.8,M,-18.7,M,,*67
$GPGSA,A,3,17,24,06,01,12,28,,,,,,,3.45,1.66,3.03*0F
$GPGSV,4,1,15,01,07,031,13,02,13,181,30,03,04,061,,06,39,148,35*72
$GPGSV,4,2,15,12,27,289,34,13,04,206,23,14,02,340,,15,13,244,*7E
$GPGSV,4,3,15,17,58,056,38,19,87,170,39,24,52,290,37,28,31,093,29*75
$GPGSV,4,4,15,32,12,321,21*4C
$GPGLL,4738.50170,N,12208.35388,W,045607.00,A,A*7C
$GPGST,045607.00,16,,,,15,8.5,32*58
$GPZDA,045607.00,26,02,2016,00,00*65
$GPRMC,045608.00,A,4738.49578,N,12208.35561,W,22.853,192.48,260216,,,A*48
$GPVTG,192.48,T,,M,22.853,N,42.347,K,A*33
$GPGGA,045608.00,4738.49578,N,12208.35561,W,1,06,1.66,111.8,M,-18.7,M,,*6E
$GPGSA,A,3,17,24,06,01,12,28,,,,,,,3.45,1.66,3.03*0F
$GPGSV,4,1,15,01,07,031,12,02,13,181,30,03,04,061,,06,39,148,32*74
$GPGSV,4,2,15,12,27,289,24,13,04,206,23,14,02,340,,15,13,244,*7F
$GPGSV,4,3,15,17,58,056,39,19,87,170,39,24,52,290,35,28,31,093,29*76
$GPGSV,4,4,15,32,12,321,19*47
$GPGLL,4738.49578,N,12208.35561,W,045608.00,A,A*76
$GPGST,045608.00,26,,,,13,7.3,29*51
$GPZDA,045608.00,26,02,2016,00,00*6A
$GPRMC,045609.00,A,4738.48975,N,12208.35722,W,20.869,192.77,260216,,,A*4B
$GPVTG,192.77,T,,M,20.869,N,38.671,K,A*39
$GPGGA,045609.00,4738.48975,N,12208.35722,W,1,07,1.66,111.8,M,-18.7,M,,*6B
$GPGSA,A,3,17,24,06,01,12,15,28,,,,,,3.45,1.66,3.03*0B
$GPGSV,4,1,15,01,07,031,12,02,13,181,31,03,04,061,,06,39,148,33*74
$GPGSV,4,2,15,12,27,289,30,13,04,206,23,14,02,340,,15,13,244,22*7A
$GPGSV,4,3,15,17,58,056,39,19,87,170,39,24,52,290,37,28,31,093,27*7A
$GPGSV,4,4,15,32,12,321,16*48
$GPGLL,4738.48975,N,12208.35722,W,045609.00,A,A*72
$GPGST,045609.00,20,,,,12,6.3,27*58
$GPZDA,045609.00,26,02,2016,00,00*6B
$GPRMC,045607.00,A,4738.48539,N,12208.35892,W,17.977,193.21,260216,,,A*4D
$GPVTG,193.21,T,,M,17.977,N,33.312,K,A*3A
$GPGGA,045607.00,4738.48539,N,12208.35892,W,1,07,1.66,111.4,M,-18.7,M,,*69
$GPGSA,A,3,17,24,06,01,12,15,28,,,,,,3.45,1.66,3.03*0B
$GPGSV,4,1,15,01,07,031,12,02,13,181,25,03,04,061,,06,39,148,36*74
$GPGSV,4,2,15,12,27,289,33,13,04,206,32,14,02,340,,15,13,244,22*79
$GPGSV,4,3,15,17,58,056,39,19,87,170,39,24,52,289,37,28,31,093,26*73
$GPGSV,4,4,15,32,12,321,15*4B
$GPGLL,4738.48539,N,12208.35892,W,045607.00,A,A*7C
$GPGST,045607.00,19,,,,11,5.7,25*5A
$GPZDA,045607.00,26,02,2016,00,00*65
$GPRMC,045608.00,A,4738.48068,N,12208.36065,W,16.444,192.52,260216,,,A*49
$GPVTG,192.52,T,,M,16.444,N,30.471,K,A*32
$GPGGA,045608.00,4738.48068,N,12208.36065,W,1,07,1.53,112.7,M,-18.7,M,,*62
$GPGSA,A,3,17,24,06,01,12,15,28,,,,,,2.99,1.53,2.57*0D
$GPGSV,4,1,15,01,07,031,13,02,13,181,27,03,04,061,,06,39,148,36*77
$GPGSV,4,2,15,12,27,289,30,13,04,206,31,14,02,340,,15,13,244,23*78
$GPGSV,4,3,15,17,58,056,39,19,87,170,39,24,52,289,36,28,31,093,26*72
$GPGSV,4,4,15,32,12,321,13*4D
$GPGLL,4738.48068,N,12208.36065,W,045608.00,A,A*71
$GPGST,045608.00,29,,,,9.5,5.3,24*71
$GPZDA,045608.00,26,02,2016,00,00*6A
$GPRMC,045609.00,A,4738.47637,N,12208.36199,W,13.988,192.28,260216,,,A*4C
$GPVTG,192.28,T,,M,13.988,N,25.919,K,A*30
$GPGGA,045609.00,4738.47637,N,12208.36199,W,1,07,1.53,113.8,M,-18.7,M,,*6C
$GPGSA,A,3,17,24,06,01,12,15,28,,,,,,2.99,1.53,2.57*0D
$GPGSV,4,1,15,01,07,031,12,02,13,181,32,03,04,061,,06,39,148,36*72
$GPGSV,4,2,15,12,27,289,24,13,04,206,31,14,02,340,,15,13,244,23*7D
$GPGSV,4,3,15,17,58,056,38,19,87,170,39,24,52,289,30,28,31,093,25*76
$GPGSV,4,4,15,32,12,321,13*4D
$GPGLL,4738.47637,N,12208.36199,W,045609.00,A,A*71
$GPGST,045609.00,34,,,,8.8,5.2,24*71
$GPZDA,045609.00,26,02,2016,00,00*6B
$GPRMC,045610.00,A,4738.47335,N,12208.36316,W,10.846,195.22,260216,,,A*4B
$GPVTG,195.22,T,,M,10.846,N,20.098,K,A*38
$GPGGA,045610.00,4738.47335,N,12208.36316,W,1,07,1.01,114.5,M,-18.7,M,,*6B
$GPGSA,A,3,17,24,06,01,12,15,28,,,,,,1.84,1.01,1.54*05
$GPGSV,4,1,15,01,07,031,15,02,13,181,31,03,04,061,,06,39,148,39*79
$GPGSV,4,2,15,12,27,289,37,13,04,206,24,14,02,340,,15,13,244,23*7B
$GPGSV,4,3,15,17,58,056,39,19,87,170,38,24,52,289,33,28,31,093,25*75
$GPGSV,4,4,15,32,12,321,14*4A
$GPGLL,4738.47335,N,12208.36316,W,045610.00,A,A*7B
$GPGST,045610.00,55,,,,7.1,5.0,21*7F
$GPZDA,045610.00,26,02,2016,00,00*63
$GPRMC,045611.00,A,4738.47105,N,12208.36406,W,6.825,198.81,260216,,,A*7B
$GPVTG,198.81,T,,M,6.825,N,12.646,K,A*0A
$GPGGA,045611.00,4738.47105,N,12208.36406,W,1,07,1.01,114.7,M,-18.7,M,,*6F
$GPGSA,A,3,17,24,06,01,12,15,28,,,,,,1.84,1.01,1.54*05
$GPGSV,4,1,15,01,07,031,13,02,13,181,31,03,04,061,,06,39,148,41*70
$GPGSV,4,2,15,12,27,289,37,13,04,206,31,14,02,340,,15,13,244,22*7E
$GPGSV,4,3,15,17,58,056,39,19,87,170,39,24,52,289,38,28,30,094,25*79
$GPGSV,4,4,15,32,12,321,13*4D
$GPGLL,4738.47105,N,12208.36406,W,045611.00,A,A*7D
$GPGST,045611.00,60,,,,5.9,4.5,19*7D
$GPZDA,045611.00,26,02,2016,00,00*62
$GPRMC,045612.00,A,4738.46970,N,12208.36469,W,3.606,202.16,260216,,,A*7E
$GPVTG,202.16,T,,M,3.606,N,6.683,K,A*32
$GPGGA,045612.00,4738.46970,N,12208.36469,W,1,07,1.01,114.2,M,-18.7,M,,*6B
$GPGSA,A,3,17,24,06,01,12,15,28,,,,,,1.84,1.01,1.54*05
$GPGSV,4,1,15,01,07,031,15,02,13,181,29,03,04,061,,06,39,148,41*7F
$GPGSV,4,2,15,12,27,289,36,13,04,206,29,14,02,340,,15,13,244,24*70
$GPGSV,4,3,15,17,58,056,39,19,87,170,38,24,52,289,35,28,30,094,30*71
$GPGSV,4,4,15,32,12,321,15*4B
$GPGLL,4738.46970,N,12208.36469,W,045612.00,A,A*7C
$GPGST,045612.00,55,,,,5.2,4.3,17*7B
$GPZDA,045612.00,26,02,2016,00,00*61
$GPRMC,045613.00,A,4738.46881,N,12208.36503,W,3.504,207.62,260216,,,A*7A
$GPVTG,207.62,T,,M,3.504,N,6.493,K,A*36
$GPGGA,045613.00,4738.46881,N,12208.36503,W,1,07,1.01,116.3,M,-18.7,M,,*6B
$GPGSA,A,3,17,24,06,01,12,15,28,,,,,,1.84,1.01,1.54*05
$GPGSV,4,1,15,01,07,031,16,02,13,181,28,03,04,061,,06,39,148,39*72
$GPGSV,4,2,15,12,27,289,38,13,04,206,29,14,02,340,,15,13,244,31*7A
$GPGSV,4,3,15,17,58,056,38,19,87,170,38,24,52,289,37,28,30,094,30*72
$GPGSV,4,4,15,32,12,321,18*46
$GPGLL,4738.46881,N,12208.36503,W,045613.00,A,A*7F
$GPGST,045613.00,50,,,,4.7,4.0,16*79
$GPZDA,045613.00,26,02,2016,00,00*60
$GPRMC,045614.00,A,4738.46796,N,12208.36586,W,6.141,223.08,260216,,,A*73
$GPVTG,223.08,T,,M,6.141,N,11.380,K,A*0F
$GPGGA,045614.00,4738.46796,N,12208.36586,W,1,07,1.01,115.3,M,-18.7,M,,*6B
$GPGSA,A,3,17,24,06,01,12,15,28,,,,,,1.84,1.01,1.54*05
$GPGSV,4,1,15,01,07,031,17,02,13,181,32,03,04,061,,06,39,148,25*75
$GPGSV,4,2,15,12,27,289,29,13,04,206,31,14,02,340,,15,13,244,31*73
$GPGSV,4,3,15,17,58,056,40,19,87,170,39,24,52,289,37,28,30,094,38*74
$GPGSV,4,4,15,32,12,321,18*46
$GPGLL,4738.46796,N,12208.36586,W,045614.00,A,A*7C
$GPGST,045614.00,53,,,,4.4,3.4,13*78
$GPZDA,045614.00,26,02,2016,00,00*67
$GPRMC,045615.00,A,4738.46702,N,12208.36838,W,8.863,245.84,260216,,,A*74
$GPVTG,245.84,T,,M,8.863,N,16.422,K,A*04
$GPGGA,045615.00,4738.46702,N,12208.36838,W,1,07,1.01,114.4,M,-18.7,M,,*69
$GPGSA,A,3,17,24,06,01,12,15,28,,,,,,1.84,1.01,1.54*05
$GPGSV,4,1,15,01,07,031,17,02,13,181,26,03,04,061,,06,39,148,31*75
$GPGSV,4,2,15,12,27,289,33,13,04,206,31,14,02,340,,15,13,244,31*78
$GPGSV,4,3,15,17,58,056,36,19,87,170,40,24,52,289,39,28,30,094,38*75
$GPGSV,4,4,15,32,12,321,18*46
$GPGST,045615.00,50,,,,4.7,2.9,11*77
$GPZDA,045615.00,26,02,2016,00,00*66
$GPGLL,4738.46702,N,12208.36838,W,045615.00,A,A*78
$GPRMC,045616.00,A,4738.46654,N,12208.37285,W,11.816,267.11,260216,,,A*4E
$GPVTG,267.11,T,,M,11.816,N,21.894,K,A*37
$GPGGA,045616.00,4738.46654,N,12208.37285,W,1,07,1.01,114.8,M,-18.7,M,,*69
$GPGSA,A,3,17,24,06,01,12,15,28,,,,,,1.84,1.01,1.54*05
$GPGSV,4,1,15,01,07,031,19,02,13,181,25,03,04,061,,06,39,148,37*7E
$GPGSV,4,2,15,12,27,289,33,13,04,206,24,14,02,340,,15,13,244,27*7B
$GPGSV,4,3,15,17,58,056,41,19,87,170,41,24,52,289,40,28,30,094,34*76
$GPGSV,4,4,15,32,12,321,17*49
$GPGLL,4738.46654,N,12208.37285,W,045616.00,A,A*74
$GPGST,045616.00,33,,,,4.8,2.7,11*70
$GPZDA,045616.00,26,02,2016,00,00*65
$GPRMC,045617.00,A,4738.46703,N,12208.37852,W,14.708,281.94,260216,,,A*4C
$GPVTG,281.94,T,,M,14.708,N,27.254,K,A*37
$GPGGA,045617.00,4738.46703,N,12208.37852,W,1,07,1.01,115.1,M,-18.7,M,,*63
$GPGSA,A,3,17,24,06,01,12,15,28,,,,,,1.84,1.01,1.54*05
$GPGSV,4,1,15,01,07,031,19,02,13,181,36,03,04,061,,06,39,148,40*7C
$GPGSV,4,2,15,12,27,289,29,13,04,206,25,14,02,340,,15,13,244,32*75
$GPGSV,4,3,15,17,58,056,40,19,87,170,41,24,52,289,39,28,30,094,33*7E
$GPGSV,4,4,15,32,12,321,17*49
$GPGLL,4738.46703,N,12208.37852,W,045617.00,A,A*76
$GPGST,045617.00,32,,,,4.4,2.5,10*7F
$GPZDA,045617.00,26,02,2016,00,00*64
$GPRMC,045618.00,A,4738.46829,N,12208.38502,W,17.167,287.55,260216,,,A*44
$GPVTG,287.55,T,,M,17.167,N,31.811,K,A*3C
$GPGGA,045618.00,4738.46829,N,12208.38502,W,1,07,1.01,115.0,M,-18.7,M,,*6D
$GPGSA,A,3,17,24,06,01,12,15,28,,,,,,1.84,1.01,1.54*05
$GPGSV,4,1,15,01,07,031,29,02,13,181,35,03,04,061,,06,39,148,39*72
$GPGSV,4,2,15,12,27,289,36,13,04,206,23,14,02,340,,15,13,244,31*7E
$GPGSV,4,3,15,17,58,056,38,19,87,170,41,24,52,289,41,28,30,094,28*74
$GPGSV,4,4,15,32,12,321,16*48
$GPGLL,4738.46829,N,12208.38502,W,045618.00,A,A*79
$GPGST,045618.00,25,,,,4.1,2.4,9.8*5C
$GPZDA,045618.00,26,02,2016,00,00*6B
$GPRMC,045619.00,A,4738.46998,N,12208.39239,W,19.416,286.17,260216,,,A*4A
$GPVTG,286.17,T,,M,19.416,N,35.977,K,A*33
$GPGGA,045619.00,4738.46998,N,12208.39239,W,1,07,1.01,115.0,M,-18.7,M,,*69
$GPGSA,A,3,17,24,06,01,12,15,28,,,,,,1.84,1.01,1.54*05
$GPGSV,4,1,15,01,07,031,19,02,13,181,35,03,04,061,,06,39,148,39*71
$GPGSV,4,2,15,12,27,289,35,13,04,206,22,14,02,340,,15,13,244,30*7D
$GPGSV,4,3,15,17,58,056,39,19,87,170,41,24,52,289,41,28,30,094,29*74
$GPGSV,4,4,15,32,12,321,14*4A
$GPGST,045619.00,33,,,,3.9,2.2,9.6*5D
$GPZDA,045619.00,26,02,2016,00,00*6A
$GPGLL,4738.46998,N,12208.39239,W,045619.00,A,A*7D
$GPRMC,045620.00,A,4738.47164,N,12208.40068,W,21.671,285.41,260216,,,A*4A
$GPVTG,285.41,T,,M,21.671,N,40.156,K,A*32
$GPGGA,045620.00,4738.47164,N,12208.40068,W,1,07,1.01,114.6,M,-18.7,M,,*66
$GPGSA,A,3,17,24,06,01,12,15,28,,,,,,1.84,1.01,1.54*05
$GPGSV,4,1,15,01,07,031,17,02,13,181,34,03,04,061,,06,39,148,39*7E
$GPGSV,4,2,15,12,27,289,34,13,04,206,20,14,02,340,,15,13,244,27*78
$GPGSV,4,3,15,17,58,056,39,19,87,170,41,24,52,289,41,28,30,094,31*7D
$GPGSV,4,4,15,32,12,321,15*4B
$GPGLL,4738.47164,N,12208.40068,W,045620.00,A,A*75
$GPGST,045620.00,50,,,,3.7,2.1,9.4*5D
$GPZDA,045620.00,26,02,2016,00,00*60
$GPRMC,045621.00,A,4738.47319,N,12208.40987,W,23.716,284.25,260216,,,A*4A
$GPVTG,284.25,T,,M,23.716,N,43.945,K,A*3A
$GPGGA,045621.00,4738.47319,N,12208.40987,W,1,07,1.01,114.6,M,-18.7,M,,*67
$GPGSA,A,3,17,24,06,01,12,15,28,,,,,,1.84,1.01,1.54*05
$GPGSV,4,1,15,01,07,031,14,02,13,181,37,03,04,061,,06,39,148,39*7E
$GPGSV,4,2,15,12,27,289,32,13,04,206,18,14,02,340,,15,13,244,24*76
$GPGSV,4,3,15,17,58,056,39,19,87,170,41,24,52,289,40,28,30,094,31*7C
$GPGSV,4,4,15,32,12,321,17*49
$GPGLL,4738.47319,N,12208.40987,W,045621.00,A,A*74
$GPGST,045621.00,55,,,,3.5,2.1,9.3*5C
$GPZDA,045621.00,26,02,2016,00,00*61
$GPRMC,045622.00,A,4738.47481,N,12208.41975,W,24.693,284.01,260216,,,A*4E
$GPVTG,284.01,T,,M,24.693,N,45.757,K,A*3C
$GPGGA,045622.00,4738.47481,N,12208.41975,W,1,07,1.01,115.2,M,-18.7,M,,*6B
$GPGSA,A,3,17,24,06,01,12,15,28,,,,,,1.84,1.01,1.54*05
$GPGSV,4,1,14,01,07,031,12,02,13,181,37,03,04,061,,06,39,148,39*79
$GPGSV,4,2,14,12,27,289,35,13,04,206,,14,02,340,,15,13,244,21*7C
$GPGSV,4,3,14,17,58,056,39,19,87,170,41,24,52,289,40,28,30,094,32*7E
$GPGSV,4,4,14,32,12,321,19*46
$GPGLL,4738.47481,N,12208.41975,W,045622.00,A,A*7D
$GPGST,045622.00,60,,,,3.4,2.0,9.2*58
$GPZDA,045622.00,26,02,2016,00,00*62
$GPRMC,045623.00,A,4738.47644,N,12208.42957,W,23.979,284.29,260216,,,A*41
$GPVTG,284.29,T,,M,23.979,N,44.433,K,A*3A
$GPGGA,045623.00,4738.47644,N,12208.42957,W,1,06,1.52,115.3,M,-18.7,M,,*64
$GPGSA,A,3,17,24,06,12,15,28,,,,,,,2.98,1.52,2.56*0D
$GPGSV,4,1,14,01,07,031,08,02,13,181,37,03,04,061,,06,39,148,40*7C
$GPGSV,4,2,14,12,27,289,33,13,04,206,,14,02,340,,15,13,244,23*78
$GPGSV,4,3,14,17,58,056,39,19,87,170,41,24,52,289,40,28,30,094,32*7E
$GPGSV,4,4,14,32,12,321,29*45
$GPGLL,4738.47644,N,12208.42957,W,045623.00,A,A*74
$GPGST,045623.00,23,,,,3.2,1.9,9.1*51
$GPZDA,045623.00,26,02,2016,00,00*63
$GPRMC,045624.00,A,4738.47802,N,12208.43898,W,23.040,284.22,260216,,,A*41
$GPVTG,284.22,T,,M,23.040,N,42.693,K,A*3C
$GPGGA,045624.00,4738.47802,N,12208.43898,W,1,06,1.52,115.6,M,-18.7,M,,*69
$GPGSA,A,3,17,24,06,12,15,28,,,,,,,2.98,1.52,2.56*0D
$GPGSV,4,1,14,01,07,031,,02,13,181,35,03,04,061,,06,39,148,39*78
$GPGSV,4,2,14,12,27,289,33,13,04,206,,14,02,340,,15,13,244,31*7B
$GPGSV,4,3,14,17,58,056,39,19,87,170,41,24,52,289,40,28,30,094,32*7E
$GPGSV,4,4,14,32,12,321,21*4D
$GPGLL,4738.47802,N,12208.43898,W,045624.00,A,A*7C
$GPGST,045624.00,15,,,,3.2,1.9,9.0*52
$GPZDA,045624.00,26,02,2016,00,00*64
$GPRMC,045625.00,A,4738.47955,N,12208.44803,W,22.297,284.12,260216,,,A*4C
$GPVTG,284.12,T,,M,22.297,N,41.317,K,A*3C
$GPGGA,045625.00,4738.47955,N,12208.44803,W,1,06,1.52,115.5,M,-18.7,M,,*6D
$GPGSA,A,3,17,24,06,12,15,28,,,,,,,2.98,1.52,2.56*0D
$GPGSV,4,1,14,01,07,031,,02,13,181,31,03,04,061,,06,39,148,39*7C
$GPGSV,4,2,14,12,27,289,34,13,04,206,,14,02,340,,15,13,244,22*7E
$GPGSV,4,3,14,17,58,056,39,19,87,170,41,24,52,289,41,28,30,094,32*7F
$GPGSV,4,4,14,32,12,321,23*4F
$GPGLL,4738.47955,N,12208.44803,W,045625.00,A,A*7B
$GPGST,045625.00,25,,,,3.1,1.9,8.9*5B
$GPZDA,045625.00,26,02,2016,00,00*65
$GPRMC,045626.00,A,4738.48106,N,12208.45669,W,21.218,284.32,260216,,,A*4B
$GPVTG,284.32,T,,M,21.218,N,39.317,K,A*35
$GPGGA,045626.00,4738.48106,N,12208.45669,W,1,06,1.52,115.3,M,-18.7,M,,*6A
$GPGSA,A,3,17,24,06,12,15,28,,,,,,,2.98,1.52,2.56*0D
$GPGSV,4,1,14,01,07,031,,02,13,181,31,03,04,061,,06,39,148,39*7C
$GPGSV,4,2,14,12,27,289,34,13,04,206,,14,02,340,,15,13,244,22*7E
$GPGSV,4,3,14,17,58,056,39,19,87,170,41,24,52,289,41,28,30,094,32*7F
$GPGSV,4,4,14,32,12,321,20*4C
$GPGLL,4738.48106,N,12208.45669,W,045626.00,A,A*7A
$GPGST,045626.00,25,,,,3.0,1.8,8.9*58
$GPZDA,045626.00,26,02,2016,00,00*66
$GPRMC,045627.00,A,4738.48251,N,12208.46488,W,19.960,284.18,260216,,,A*42
$GPVTG,284.18,T,,M,19.960,N,36.986,K,A*3F
$GPGGA,045627.00,4738.48251,N,12208.46488,W,1,07,1.52,114.9,M,-18.7,M,,*6E
$GPGSA,A,3,17,24,06,01,12,15,28,,,,,,2.98,1.52,2.56*0C
$GPGSV,4,1,15,01,07,031,23,02,13,181,24,03,04,061,,06,39,148,39*78
$GPGSV,4,2,15,12,27,289,33,13,04,206,27,14,02,340,,15,13,244,36*78
$GPGSV,4,3,15,17,58,056,39,19,87,170,41,24,52,289,40,28,30,094,32*7F
$GPGSV,4,4,15,32,12,321,17*49
$GPGLL,4738.48251,N,12208.46488,W,045627.00,A,A*74
$GPGST,045627.00,13,,,,3.0,1.8,8.6*53
$GPZDA,045627.00,26,02,2016,00,00*67
$GPRMC,045628.00,A,4738.48385,N,12208.47263,W,18.942,283.18,260216,,,A*41
$GPVTG,283.18,T,,M,18.942,N,35.099,K,A*3D
$GPGGA,045628.00,4738.48385,N,12208.47263,W,1,07,1.52,114.9,M,-18.7,M,,*6B
$GPGSA,A,3,17,24,06,01,12,15,28,,,,,,2.98,1.52,2.56*0C
$GPGSV,4,1,15,01,07,031,22,02,13,181,24,03,04,061,,06,39,148,40*77
$GPGSV,4,2,15,12,27,289,32,13,04,206,,14,02,340,,15,13,244,30*7A
$GPGSV,4,3,15,17,58,056,39,19,87,170,41,24,52,289,40,28,30,094,32*7F
$GPGSV,4,4,15,32,12,321,15*4B
$GPGLL,4738.48385,N,12208.47263,W,045628.00,A,A*71
$GPGST,045628.00,16,,,,2.9,1.8,8.6*51
$GPZDA,045628.00,26,02,2016,00,00*68
$GPRMC,045629.00,A,4738.48498,N,12208.48044,W,20.016,280.98,260216,,,A*4B
$GPVTG,280.98,T,,M,20.016,N,37.090,K,A*3E
$GPGGA,045629.00,4738.48498,N,12208.48044,W,1,06,1.52,115.4,M,-18.7,M,,*64
$GPGSA,A,3,17,24,06,12,15,28,,,,,,,2.98,1.52,2.56*0D
$GPGSV,4,1,15,01,07,031,19,02,13,181,24,03,04,061,,06,39,148,39*71
$GPGSV,4,2,15,12,27,289,31,13,04,206,22,14,02,340,,15,13,244,29*71
$GPGSV,4,3,15,17,58,056,39,19,87,170,42,24,52,289,40,28,30,094,32*7C
$GPGSV,4,4,15,32,12,321,13*4D
$GPGLL,4738.48498,N,12208.48044,W,045629.00,A,A*73
$GPGST,045629.00,17,,,,2.9,1.8,8.7*50
$GPZDA,045629.00,26,02,2016,00,00*69
$GPRMC,045630.00,A,4738.48607,N,12208.48911,W,22.698,279.97,260216,,,A*45
$GPVTG,279.97,T,,M,22.698,N,42.060,K,A*38
$GPGGA,045630.00,4738.48607,N,12208.48911,W,1,07,1.01,115.7,M,-18.7,M,,*65
$GPGSA,A,3,17,24,06,01,12,15,28,,,,,,1.84,1.01,1.54*05
$GPGSV,4,1,15,01,07,031,17,02,13,181,34,03,04,061,,06,39,148,39*7E
$GPGSV,4,2,15,12,27,289,29,13,04,206,21,14,02,340,,15,13,244,28*7A
$GPGSV,4,3,15,17,58,056,39,19,87,170,42,24,52,289,39,28,30,094,32*72
$GPGSV,4,4,15,32,12,321,15*4B
$GPGLL,4738.48607,N,12208.48911,W,045630.00,A,A*76
$GPGST,045630.00,51,,,,2.9,1.8,8.8*55
$GPZDA,045630.00,26,02,2016,00,00*61
$GPRMC,045631.00,A,4738.48714,N,12208.49883,W,24.713,278.26,260216,,,A*43
$GPVTG,278.26,T,,M,24.713,N,45.793,K,A*3B
$GPGGA,045631.00,4738.48714,N,12208.49883,W,1,07,1.01,115.4,M,-18.7,M,,*6F
$GPGSA,A,3,17,24,06,01,12,15,28,,,,,,1.84,1.01,1.54*05
$GPGSV,4,1,15,01,07,031,14,02,13,181,26,03,04,061,,06,39,148,39*7E
$GPGSV,4,2,15,12,27,289,29,13,04,206,20,14,02,340,,15,13,244,32*70
$GPGSV,4,3,15,17,58,056,39,19,87,170,40,24,52,289,39,28,30,094,32*70
$GPGSV,4,4,15,32,12,321,19*47
$GPGLL,4738.48714,N,12208.49883,W,045631.00,A,A*7F
$GPGST,045631.00,52,,,,2.9,1.7,9.0*51
$GPZDA,045631.00,26,02,2016,00,00*60
$GPRMC,045632.00,A,4738.48794,N,12208.50917,W,25.328,275.25,260216,,,A*4F
$GPVTG,275.25,T,,M,25.328,N,46.933,K,A*3F
$GPGGA,045632.00,4738.48794,N,12208.50917,W,1,07,1.01,115.1,M,-18.7,M,,*65
$GPGSA,A,3,17,24,06,01,12,15,28,,,,,,1.84,1.01,1.54*05
$GPGSV,4,1,14,01,07,031,16,02,13,181,26,03,04,061,,06,39,148,32*76
$GPGSV,4,2,14,12,27,289,33,13,04,206,20,14,02,340,,15,13,244,31*79
$GPGSV,4,3,14,17,58,056,40,19,87,170,42,24,52,289,39,28,30,094,30*7F
$GPGSV,4,4,14,32,12,321,19*46
$GPGLL,4738.48794,N,12208.50917,W,045632.00,A,A*70
$GPGST,045632.00,52,,,,2.9,1.7,9.1*53
$GPZDA,045632.00,26,02,2016,00,00*63
$GPRMC,045633.00,A,4738.48844,N,12208.51965,W,25.267,271.99,260216,,,A*41
$GPVTG,271.99,T,,M,25.267,N,46.819,K,A*3F
$GPGGA,045633.00,4738.48844,N,12208.51965,W,1,07,1.01,114.7,M,-18.7,M,,*65
$GPGSA,A,3,17,24,06,01,12,15,28,,,,,,1.84,1.01,1.54*05
$GPGSV,4,1,14,01,07,031,16,02,13,181,26,03,04,061,,06,39,148,40*73
$GPGSV,4,2,14,12,27,289,36,13,04,206,21,14,02,340,,15,13,244,31*7D
$GPGSV,4,3,14,17,58,056,41,19,87,170,42,24,52,289,39,28,30,094,31*7F
$GPGSV,4,4,14,32,12,321,19*46
$GPGLL,4738.48844,N,12208.51965,W,045633.00,A,A*77
$GPGST,045633.00,53,,,,2.9,1.7,8.8*5B
$GPZDA,045633.00,26,02,2016,00,00*62
$GPRMC,045634.00,A,4738.48871,N,12208.53005,W,24.962,271.93,260216,,,A*48
$GPVTG,271.93,T,,M,24.962,N,46.254,K,A*39
$GPGGA,045634.00,4738.48871,N,12208.53005,W,1,06,1.52,114.6,M,-18.7,M,,*6F
$GPGSA,A,3,17,24,06,12,15,28,,,,,,,2.98,1.52,2.56*0D
$GPGSV,4,1,14,01,07,031,,02,13,181,35,03,04,061,,06,39,148,40*76
$GPGSV,4,2,14,12,27,289,36,13,04,206,21,14,02,340,,15,13,244,35*79
$GPGSV,4,3,14,17,58,056,41,19,87,170,42,24,52,289,38,28,30,094,32*7D
$GPGSV,4,4,14,32,12,321,17*48
$GPGLL,4738.48871,N,12208.53005,W,045634.00,A,A*7B
$GPGST,045634.00,17,,,,2.8,1.7,8.7*52
$GPZDA,045634.00,26,02,2016,00,00*65
$GPRMC,045635.00,A,4738.48889,N,12208.54015,W,23.897,272.10,260216,,,A*4C
$GPVTG,272.10,T,,M,23.897,N,44.281,K,A*37
$GPGGA,045635.00,4738.48889,N,12208.54015,W,1,06,1.52,114.9,M,-18.7,M,,*60
$GPGSA,A,3,17,24,06,12,15,28,,,,,,,2.97,1.52,2.55*01
$GPGSV,4,1,14,01,07,031,,02,13,181,27,03,04,061,,06,39,148,40*75
$GPGSV,4,2,14,12,27,289,35,13,04,206,20,14,02,340,,15,13,244,32*7C
$GPGSV,4,3,14,17,58,056,41,19,87,170,42,24,52,289,39,28,30,094,31*7F
$GPGSV,4,4,14,32,12,321,14*4B
$GPGLL,4738.48889,N,12208.54015,W,045635.00,A,A*7B
$GPGST,045635.00,16,,,,2.8,1.7,8.6*53
$GPZDA,045635.00,26,02,2016,00,00*64
$GPRMC,045636.00,A,4738.48906,N,12208.54980,W,22.703,272.07,260216,,,A*49
$GPVTG,272.07,T,,M,22.703,N,42.068,K,A*31
$GPGGA,045636.00,4738.48906,N,12208.54980,W,1,06,1.52,115.1,M,-18.7,M,,*69
$GPGSA,A,3,17,24,06,12,15,28,,,,,,,2.97,1.52,2.55*01
$GPGSV,4,1,13,01,07,031,,02,13,181,33,03,04,061,,06,39,148,40*77
$GPGSV,4,2,13,12,27,289,35,13,04,206,20,14,02,340,,15,13,244,31*78
$GPGSV,4,3,13,17,58,056,41,19,87,170,41,24,52,289,39,28,30,094,32*78
$GPGSV,4,4,13,32,12,321,13*4B
$GPGLL,4738.48906,N,12208.54980,W,045636.00,A,A*7B
$GPGST,045636.00,14,,,,2.7,1.7,8.5*5E
$GPZDA,045636.00,26,02,2016,00,00*67
$GPRMC,045637.00,A,4738.48922,N,12208.55890,W,21.170,271.90,260216,,,A*43
$GPVTG,271.90,T,,M,21.170,N,39.229,K,A*36
$GPGGA,045637.00,4738.48922,N,12208.55890,W,1,06,1.52,115.1,M,-18.7,M,,*6F
$GPGSA,A,3,17,24,06,12,15,28,,,,,,,2.97,1.52,2.55*01
$GPGSV,4,1,13,01,07,031,,02,13,181,35,03,04,061,,06,39,148,40*71
$GPGSV,4,2,13,12,27,289,36,13,04,206,20,14,02,340,,15,13,244,31*7B
$GPGSV,4,3,13,17,58,056,41,19,87,170,41,24,52,289,39,28,30,094,31*7B
$GPGSV,4,4,13,32,12,321,*49
$GPGLL,4738.48922,N,12208.55890,W,045637.00,A,A*7D
$GPGST,045637.00,14,,,,2.7,1.7,8.3*59
$GPZDA,045637.00,26,02,2016,00,00*66
$GPRMC,045638.00,A,4738.48936,N,12208.56729,W,19.494,270.82,260216,,,A*41
$GPVTG,270.82,T,,M,19.494,N,36.122,K,A*37
$GPGGA,045638.00,4738.48936,N,12208.56729,W,1,06,1.52,114.9,M,-18.7,M,,*62
$GPGSA,A,3,17,24,06,12,15,28,,,,,,,2.97,1.52,2.55*01
$GPGSV,4,1,13,01,07,031,,02,13,181,30,03,04,061,,06,39,148,38*7B
$GPGSV,4,2,13,12,27,289,35,13,04,206,17,14,02,340,,15,13,244,26*7A
$GPGSV,4,3,13,17,58,056,41,19,87,170,41,24,52,289,38,28,30,094,32*79
$GPGSV,4,4,13,32,12,321,*49
$GPGLL,4738.48936,N,12208.56729,W,045638.00,A,A*79
$GPGST,045638.00,18,,,,2.6,1.7,8.3*5B
$GPZDA,045638.00,26,02,2016,00,00*69
$GPRMC,045639.00,A,4738.48904,N,12208.57473,W,16.855,261.31,260216,,,A*4A
$GPVTG,261.31,T,,M,16.855,N,31.232,K,A*34
$GPGGA,045639.00,4738.48904,N,12208.57473,W,1,06,1.52,114.9,M,-18.7,M,,*6F
$GPGSA,A,3,17,24,06,12,15,28,,,,,,,2.97,1.52,2.55*01
$GPGSV,4,1,13,01,07,031,,02,13,181,22,03,04,061,,06,39,148,29*78
$GPGSV,4,2,13,12,27,289,26,13,04,206,15,14,02,340,,15,13,244,27*7B
$GPGSV,4,3,13,17,58,056,40,19,87,170,41,24,52,289,40,28,30,094,36*73
$GPGSV,4,4,13,32,12,321,*49
$GPGLL,4738.48904,N,12208.57473,W,045639.00,A,A*74
$GPGST,045639.00,25,,,,2.7,1.7,8.2*54
$GPZDA,045639.00,26,02,2016,00,00*68
$GPRMC,045640.00,A,4738.48780,N,12208.58087,W,14.942,244.37,260216,,,A*42
$GPVTG,244.37,T,,M,14.942,N,27.688,K,A*32
$GPGGA,045640.00,4738.48780,N,12208.58087,W,1,06,1.52,114.7,M,-18.7,M,,*6D
$GPGSA,A,3,17,24,06,12,15,28,,,,,,,2.97,1.52,2.55*01
$GPGSV,4,1,13,01,07,031,,02,13,181,30,03,04,061,,06,39,148,32*71
$GPGSV,4,2,13,12,27,289,32,13,04,206,12,14,02,340,,15,13,244,33*7C
$GPGSV,4,3,13,17,58,056,39,19,87,170,42,24,52,289,40,28,30,094,36*7E
$GPGSV,4,4,13,32,12,321,*49
$GPGLL,4738.48780,N,12208.58087,W,045640.00,A,A*78
$GPGST,045640.00,15,,,,3.0,1.7,8.2*5F
$GPZDA,045640.00,26,02,2016,00,00*66
$GPRMC,045641.00,A,4738.48536,N,12208.58559,W,14.880,221.99,260216,,,A*42
$GPVTG,221.99,T,,M,14.880,N,27.572,K,A*3C
$GPGGA,045641.00,4738.48536,N,12208.58559,W,1,06,1.52,114.2,M,-18.7,M,,*60
$GPGSA,A,3,17,24,06,12,15,28,,,,,,,2.97,1.52,2.55*01
$GPGSV,4,1,13,01,07,031,16,02,13,181,34,03,04,061,,06,39,148,27*76
$GPGSV,4,2,13,12,27,289,32,13,04,206,10,14,02,340,,15,13,244,33*7E
$GPGSV,4,3,13,17,58,056,40,19,87,170,42,24,52,289,36,28,30,094,38*7F
$GPGSV,4,4,13,32,12,321,26*4D
$GPGLL,4738.48536,N,12208.58559,W,045641.00,A,A*70
$GPGST,045641.00,20,,,,3.4,1.7,8.1*5F
$GPZDA,045641.00,26,02,2016,00,00*67
$GPRMC,045642.00,A,4738.48091,N,12208.58863,W,16.495,198.16,260216,,,A*41
$GPVTG,198.16,T,,M,16.495,N,30.565,K,A*30
$GPGGA,045642.00,4738.48091,N,12208.58863,W,1,06,1.52,115.8,M,-18.7,M,,*64
$GPGSA,A,3,17,24,06,12,15,28,,,,,,,2.97,1.52,2.55*01
$GPGSV,4,1,13,01,07,031,,02,13,181,25,03,04,061,,06,39,148,41*71
$GPGSV,4,2,13,12,27,289,35,13,04,206,13,14,02,340,,15,13,244,26*7E
$GPGSV,4,3,13,17,58,056,37,19,87,170,41,24,52,289,36,28,30,094,29*7C
$GPGSV,4,4,13,32,12,321,31*4B
$GPGLL,4738.48091,N,12208.58863,W,045642.00,A,A*7F
$GPGST,045642.00,20,,,,3.4,1.7,8.2*5F
$GPZDA,045642.00,26,02,2016,00,00*64
$GPRMC,045643.00,A,4738.47613,N,12208.58978,W,17.642,184.02,260216,,,A*49
$GPVTG,184.02,T,,M,17.642,N,32.690,K,A*3A
$GPGGA,045643.00,4738.47613,N,12208.58978,W,1,06,1.52,116.8,M,-18.7,M,,*6E
$GPGSA,A,3,17,24,06,12,15,28,,,,,,,2.97,1.52,2.55*01
$GPGSV,4,1,13,01,07,031,,02,13,181,30,03,04,061,,06,39,148,35*76
$GPGSV,4,2,13,12,27,289,38,13,04,206,,14,02,340,,15,13,244,22*75
$GPGSV,4,3,13,17,58,056,38,19,87,170,41,24,52,289,38,28,30,094,33*76
$GPGSV,4,4,13,32,12,321,24*4F
$GPGLL,4738.47613,N,12208.58978,W,045643.00,A,A*76
$GPGST,045643.00,26,,,,3.7,1.8,8.0*56
$GPZDA,045643.00,26,02,2016,00,00*65
$GPRMC,045644.00,A,4738.47078,N,12208.58987,W,19.130,181.02,260216,,,A*4C
$GPVTG,181.02,T,,M,19.130,N,35.448,K,A*33
$GPGGA,045644.00,4738.47078,N,12208.58987,W,1,06,1.52,117.6,M,-18.7,M,,*6D
