$GPGST,043642.00,18,,,,33,22,15*73
$GPRMC,043724.92,V,,,,,,,260216,,,N*71
$GPVTG,,,,,,,,,N*30
$GPGGA,043724.92,,,,,0,00,99.99,,,,,,*6B
$GPGSA,A,1,,,,,,,,,,,,,99.99,99.99,99.99*30
$GPGSV,4,1,14,01,13,035,,02,06,183,,03,01,068,,06,31,153,*7D
$GPGSV,4,2,14,12,20,284,,13,11,210,,15,18,250,,17,66,059,*74
$GPGSV,4,3,14,19,78,202,,24,46,299,,28,37,087,,30,02,145,*7A
$GPGSV,4,4,14*7C
$GPGLL,,,,,043724.92,V,N*47
$GPGST,043724.92,0.0000,,,,21,21,21*69
$GPZDA,043724.92,26,02,2016,00,00*68
$GPRMC,043726.00,V,,,,,,,260216,,,N*78
$GPVTG,,,,,,,,,N*30
$GPGGA,043726.00,,,,,0,00,99.99,,,,,,*62
$GPGSA,A,1,,,,,,,,,,,,,99.99,99.99,99.99*30
$GPGSV,4,1,14,01,13,035,,02,06,183,,03,01,068,,06,31,153,*7D
$GPGSV,4,2,14,12,20,284,,13,11,210,,15,18,250,,17,66,059,*74
$GPGSV,4,3,14,19,78,202,39,24,46,299,,28,37,087,,30,02,145,*70
$GPGSV,4,4,14*7C
$GPGLL,,,,,043726.00,V,N*4E
$GPGST,043726.00,0.0000,,,,26,26,26*67
$GPZDA,043726.00,26,02,2016,00,00*61
$GPRMC,043727.00,V,,,,,,,260216,,,N*79
$GPVTG,,,,,,,,,N*30
$GPGGA,043727.00,,,,,0,00,99.99,,,,,,*63
$GPGSA,A,1,,,,,,,,,,,,,99.99,99.99,99.99*30
$GPGSV,4,1,14,01,13,035,,02,06,183,,03,01,068,,06,31,153,*7D
$GPGSV,4,2,14,12,20,284,,13,11,210,,15,18,250,,17,66,059,39*7E
$GPGSV,4,3,14,19,78,202,42,24,46,299,34,28,37,087,,30,02,145,*7B
$GPGSV,4,4,14*7C
$GPGLL,,,,,043727.00,V,N*4F
$GPGST,043727.00,0.0000,,,,37,37,36*67
$GPZDA,043727.00,26,02,2016,00,00*60
$GPRMC,043728.00,V,,,,,,,260216,,,N*76
$GPVTG,,,,,,,,,N*30
$GPGGA,043728.00,,,,,0,00,99.99,,,,,,*6C
$GPGSA,A,1,,,,,,,,,,,,,99.99,99.99,99.99*30
$GPGSV,4,1,14,01,13,035,,02,06,183,,03,01,068,,06,31,153,*7D
$GPGSV,4,2,14,12,20,284,,13,11,210,,15,18,250,,17,66,059,39*7E
$GPGSV,4,3,14,19,78,202,43,24,46,299,34,28,37,087,,30,02,145,*7A
$GPGSV,4,4,14*7C
$GPGLL,,,,,043728.00,V,N*40
$GPGST,043728.00,0.0000,,,,49,49,49*60
$GPZDA,043728.00,26,02,2016,00,00*6F
$GPRMC,043729.00,V,,,,,,,260216,,,N*77
$GPVTG,,,,,,,,,N*30
$GPGGA,043729.00,,,,,0,00,99.99,,,,,,*6D
$GPGSA,A,1,,,,,,,,,,,,,99.99,99.99,99.99*30
$GPGSV,4,1,14,01,13,035,24,02,06,183,,03,01,068,,06,31,153,*7B
$GPGSV,4,2,14,12,20,284,,13,11,210,,15,18,250,25,17,66,059,38*78
$GPGSV,4,4,14*7C
$GPGSV,4,3,14,19,78,202,42,24,46,299,34,28,37,087,,30,02,145,*7B
$GPGLL,,,,,043729.00,V,N*41
$GPZDA,043729.00,26,02,2016,00,00*6E
$GPGST,043729.00,0.0000,,,,63,63,62*68
$GPRMC,043730.00,V,,,,,,,260216,,,N*7F
$GPVTG,,,,,,,,,N*30
$GPGGA,043730.00,,,,,0,00,99.99,,,,,,*65
$GPGSA,A,1,,,,,,,,,,,,,99.99,99.99,99.99*30
$GPGSV,4,1,14,01,13,035,23,02,06,183,,03,01,068,,06,31,153,*7C
$GPGSV,4,2,14,12,20,284,,13,11,210,,15,18,250,23,17,66,059,37*71
$GPGSV,4,3,14,19,78,202,42,24,46,299,33,28,37,087,,30,02,145,*7C
$GPGSV,4,4,14*7C
$GPGLL,,,,,043730.00,V,N*49
$GPGST,043730.00,0.0000,,,,77,77,75*66
$GPZDA,043730.00,26,02,2016,00,00*66
$GPRMC,043731.00,V,,,,,,,260216,,,N*7E
$GPVTG,,,,,,,,,N*30
$GPGGA,043731.00,,,,,0,04,2.40,,,,,,*56
$GPGSA,A,1,17,24,01,15,,,,,,,,,3.01,2.40,1.81*09
$GPGSV,4,1,15,01,13,035,22,02,06,183,,03,01,068,,06,31,153,*7C
$GPGSV,4,2,15,12,20,284,,13,11,210,,15,18,250,21,17,66,059,37*72
$GPGSV,4,3,15,19,78,202,42,24,46,299,33,28,37,087,,30,02,145,*7D
$GPGSV,4,4,15,32,,,32*7D
$GPGLL,,,,,043731.00,V,N*48
$GPGST,043731.00,49,,,,100,31,108*7C
$GPZDA,043731.00,26,02,2016,00,00*67
$GPRMC,043732.00,A,4738.42613,N,12208.51111,W,0.630,359.78,260216,,,A*7F
$GPVTG,359.78,T,,M,0.630,N,1.167,K,A*39
$GPGGA,043732.00,4738.42613,N,12208.51111,W,1,05,2.40,197.5,M,-18.7,M,,*63
$GPGSA,A,3,17,24,01,13,15,,,,,,,,3.01,2.40,1.81*09
$GPGSV,4,1,15,01,13,035,23,02,06,183,,03,01,068,,06,31,153,*7D
$GPGSV,4,3,15,19,78,202,42,24,46,299,34,28,37,087,,30,02,145,*7A
$GPGSV,4,4,15,32,,,32*7D
$GPGSV,4,2,15,12,20,284,,13,11,210,25,15,18,250,20,17,66,059,37*74
$GPGLL,4738.42613,N,12208.51111,W,043732.00,A,A*7C
$GPGST,043732.00,49,,,,58,18,55*71
$GPZDA,043732.00,26,02,2016,00,00*64
$GPRMC,043733.00,A,4738.42611,N,12208.51133,W,0.799,348.68,260216,,,A*7F
$GPVTG,348.68,T,,M,0.799,N,1.480,K,A*36
$GPGGA,043733.00,4738.42611,N,12208.51133,W,1,05,2.40,198.1,M,-18.7,M,,*6B
$GPGSA,A,3,17,24,01,13,15,,,,,,,,3.01,2.40,1.81*09
$GPGSV,4,1,15,01,13,035,23,02,06,183,,03,01,068,,06,31,153,*7D
$GPGSV,4,2,15,12,20,284,,13,11,210,23,15,18,250,21,17,66,059,37*73
$GPGSV,4,3,15,19,78,202,42,24,46,299,33,28,37,087,,30,02,145,*7D
$GPGSV,4,4,15,32,,,33*7C
$GPGLL,4738.42611,N,12208.51133,W,043733.00,A,A*7F
$GPGST,043733.00,47,,,,50,16,49*75
$GPZDA,043733.00,26,02,2016,00,00*65
$GPRMC,043734.00,A,4738.42533,N,12208.51162,W,1.293,340.41,260216,,,A*72
$GPVTG,340.41,T,,M,1.293,N,2.395,K,A*3B
$GPGGA,043734.00,4738.42533,N,12208.51162,W,1,06,1.52,196.6,M,-18.7,M,,*61
$GPGSA,A,3,17,06,24,01,13,15,,,,,,,2.23,1.52,1.63*02
$GPGSV,4,1,15,01,13,035,24,02,06,183,,03,01,068,,06,31,153,21*79
$GPGSV,4,2,15,12,20,284,,13,11,210,21,15,18,250,20,17,66,059,37*70
$GPGSV,4,3,15,19,78,202,42,24,46,299,34,28,37,087,22,30,02,145,*7A
$GPGSV,4,4,15,32,,,33*7C
$GPGLL,4738.42533,N,12208.51162,W,043734.00,A,A*7F
$GPZDA,043734.00,26,02,2016,00,00*62
$GPGST,043734.00,53,,,,37,14,40*7D
$GPRMC,043735.00,A,4738.42490,N,12208.51215,W,1.006,334.02,260216,,,A*72
$GPVTG,334.02,T,,M,1.006,N,1.864,K,A*37
$GPGGA,043735.00,4738.42490,N,12208.51215,W,1,07,1.52,196.4,M,-18.7,M,,*68
$GPGSA,A,3,17,06,24,01,12,13,15,,,,,,2.23,1.52,1.63*01
$GPGSV,4,1,15,01,13,035,25,02,06,183,,03,01,068,,06,31,153,19*73
$GPGSV,4,2,15,12,20,284,23,13,11,210,20,15,18,250,20,17,66,059,37*70
$GPGSV,4,3,15,19,78,202,43,24,46,299,34,28,37,087,21,30,02,145,*78
$GPGSV,4,4,15,32,,,33*7C
$GPGLL,4738.42490,N,12208.51215,W,043735.00,A,A*75
$GPGST,043735.00,82,,,,34,12,37*75
$GPZDA,043735.00,26,02,2016,00,00*63
$GPRMC,043736.00,A,4738.42454,N,12208.51240,W,0.460,327.90,260216,,,A*75
$GPVTG,327.90,T,,M,0.460,N,0.852,K,A*3F
$GPGGA,043736.00,4738.42454,N,12208.51240,W,1,07,1.52,196.0,M,-18.7,M,,*67
$GPGSA,A,3,17,06,24,01,12,13,15,,,,,,2.23,1.52,1.63*01
$GPGSV,4,1,15,01,13,035,24,02,06,183,,03,01,068,,06,31,153,17*7C
$GPGSV,4,2,15,12,20,284,23,13,11,210,20,15,18,250,20,17,66,059,37*70
$GPGSV,4,3,15,19,78,202,43,24,46,299,34,28,37,087,21,30,02,145,*78
$GPGSV,4,4,15,32,,,33*7C
$GPGLL,4738.42454,N,12208.51240,W,043736.00,A,A*7E
$GPGST,043736.00,83,,,,32,11,35*70
$GPZDA,043736.00,26,02,2016,00,00*60
$GPRMC,043737.00,A,4738.42158,N,12208.51240,W,0.196,338.86,260216,,,A*78
$GPVTG,338.86,T,,M,0.196,N,0.363,K,A*33
$GPGGA,043737.00,4738.42158,N,12208.51240,W,1,07,0.96,190.7,M,-18.7,M,,*67
$GPGSA,A,3,17,06,24,01,12,13,15,,,,,,1.85,0.96,1.58*0F
$GPGSV,4,1,15,01,13,035,25,02,06,183,,03,01,068,,06,31,153,17*7D
$GPGSV,4,2,15,12,20,284,22,13,11,210,20,15,18,250,23,17,66,059,37*72
$GPGSV,4,3,15,19,78,202,42,24,46,299,34,28,37,087,19,30,02,145,*72
$GPGSV,4,4,15,32,,,32*7D
$GPGLL,4738.42158,N,12208.51240,W,043737.00,A,A*76
$GPGST,043737.00,69,,,,28,11,31*7A
$GPZDA,043737.00,26,02,2016,00,00*61
$GPRMC,043738.00,A,4738.42093,N,12208.51247,W,0.222,329.90,260216,,,A*7D
$GPVTG,329.90,T,,M,0.222,N,0.412,K,A*39
$GPGGA,043738.00,4738.42093,N,12208.51247,W,1,07,0.96,189.0,M,-18.7,M,,*66
$GPGSA,A,3,17,06,24,01,12,13,15,,,,,,1.85,0.96,1.58*0F
$GPGSV,4,1,15,01,13,035,24,02,06,183,,03,01,068,,06,31,153,16*7D
$GPGSV,4,2,15,12,20,284,22,13,11,210,20,15,18,250,25,17,66,059,37*74
$GPGSV,4,3,15,19,78,202,42,24,46,299,34,28,37,087,20,30,02,145,*78
$GPGSV,4,4,15,32,,,33*7C
$GPGLL,4738.42093,N,12208.51247,W,043738.00,A,A*78
$GPGST,043738.00,68,,,,24,10,28*71
$GPZDA,043738.00,26,02,2016,00,00*6E
$GPRMC,043739.00,A,4738.42095,N,12208.51251,W,1.264,321.23,260216,,,A*7E
$GPVTG,321.23,T,,M,1.264,N,2.343,K,A*3B
$GPGGA,043739.00,4738.42095,N,12208.51251,W,1,07,0.96,188.3,M,-18.7,M,,*64
$GPGSA,A,3,17,06,24,01,12,13,15,,,,,,1.85,0.96,1.58*0F
$GPGSV,4,1,15,01,13,035,24,02,06,183,,03,01,068,,06,31,153,16*7D
$GPGSV,4,2,15,12,20,284,23,13,11,210,20,15,18,250,25,17,66,059,37*75
$GPGSV,4,3,15,19,78,202,42,24,46,299,34,28,37,087,19,30,02,145,19*7A
$GPGSV,4,4,15,32,,,33*7C
$GPGLL,4738.42095,N,12208.51251,W,043739.00,A,A*78
$GPGST,043739.00,67,,,,22,9.6,26*57
$GPZDA,043739.00,26,02,2016,00,00*6F
$GPRMC,043740.00,A,4738.42227,N,12208.51263,W,0.941,312.29,260216,,,A*7D
$GPVTG,312.29,T,,M,0.941,N,1.743,K,A*3B
$GPGGA,043740.00,4738.42227,N,12208.51263,W,1,07,1.25,189.3,M,-18.7,M,,*68
$GPGSA,A,3,17,06,24,01,12,13,15,,,,,,2.03,1.25,1.60*00
$GPGSV,4,1,15,01,13,035,23,02,06,183,,03,01,068,,06,31,153,18*74
$GPGSV,4,2,15,12,20,284,22,13,11,210,20,15,18,250,26,17,66,059,37*77
$GPGSV,4,3,15,19,78,202,42,24,46,299,34,28,37,087,,30,02,145,19*72
$GPGSV,4,4,15,32,,,33*7C
$GPGLL,4738.42227,N,12208.51263,W,043740.00,A,A*7C
$GPGST,043740.00,50,,,,20,9.3,24*58
$GPZDA,043740.00,26,02,2016,00,00*61
$GPRMC,043741.00,A,4738.42434,N,12208.51259,W,0.625,308.86,260216,,,A*72
$GPVTG,308.86,T,,M,0.625,N,1.159,K,A*35
$GPGGA,043741.00,4738.42434,N,12208.51259,W,1,07,1.25,191.6,M,-18.7,M,,*68
$GPGSA,A,3,17,06,24,01,12,13,15,,,,,,2.03,1.25,1.60*00
$GPGSV,4,1,15,01,13,035,22,02,06,183,,03,01,068,,06,31,153,19*74
$GPGSV,4,2,15,12,20,284,23,13,11,210,29,15,18,250,32,17,66,059,37*7A
$GPGSV,4,3,15,19,78,202,42,24,46,299,40,28,37,087,24,30,02,145,18*76
$GPGSV,4,4,15,32,,,32*7D
$GPGLL,4738.42434,N,12208.51259,W,043741.00,A,A*70
$GPGST,043741.00,40,,,,17,7.8,22*5F
$GPZDA,043741.00,26,02,2016,00,00*60
$GPRMC,043742.00,A,4738.42571,N,12208.51234,W,1.475,311.46,260216,,,A*78
$GPVTG,311.46,T,,M,1.475,N,2.733,K,A*3E
$GPGGA,043742.00,4738.42571,N,12208.51234,W,1,07,1.25,192.8,M,-18.7,M,,*6D
$GPGSA,A,3,17,06,24,01,12,13,15,,,,,,2.03,1.25,1.60*00
$GPGSV,4,1,15,01,13,035,25,02,06,183,,03,01,068,,06,31,153,19*73
$GPGSV,4,2,15,12,20,284,34,13,11,210,27,15,18,250,37,17,66,059,36*76
$GPGSV,4,3,15,19,78,202,42,24,46,299,37,28,37,087,23,30,02,145,17*7E
$GPGSV,4,4,15,32,,,25*7B
$GPGLL,4738.42571,N,12208.51234,W,043742.00,A,A*78
$GPGST,043742.00,29,,,,14,7.4,20*5E
$GPZDA,043742.00,26,02,2016,00,00*63
$GPRMC,043743.00,A,4738.42579,N,12208.51200,W,1.843,313.47,260216,,,A*7C
$GPVTG,313.47,T,,M,1.843,N,3.415,K,A*32
$GPGGA,043743.00,4738.42579,N,12208.51200,W,1,08,1.25,193.6,M,-18.7,M,,*63
$GPGSA,A,3,17,06,28,24,01,12,13,15,,,,,2.03,1.25,1.60*0A
$GPGSV,4,1,15,01,13,035,25,02,06,183,,03,01,068,,06,31,153,22*7B
$GPGSV,4,2,15,12,20,284,33,13,11,210,26,15,18,250,36,17,66,059,34*73
$GPGSV,4,3,15,19,78,202,42,24,46,299,40,28,37,087,25,30,02,145,16*79
$GPGSV,4,4,15,32,,,24*7A
$GPGLL,4738.42579,N,12208.51200,W,043743.00,A,A*76
$GPGST,043743.00,29,,,,12,6.9,18*5E
$GPZDA,043743.00,26,02,2016,00,00*62
$GPRMC,043744.00,A,4738.42552,N,12208.51268,W,1.726,313.62,260216,,,A*77
$GPVTG,313.62,T,,M,1.726,N,3.198,K,A*39
$GPGGA,043744.00,4738.42552,N,12208.51268,W,1,08,1.25,193.7,M,-18.7,M,,*62
$GPGSA,A,3,17,06,28,24,01,12,13,15,,,,,2.03,1.25,1.59*00
$GPGSV,4,1,15,01,13,035,26,02,06,183,,03,01,068,,06,31,153,21*7B
$GPGSV,4,2,15,12,20,284,32,13,11,210,27,15,18,250,31,17,66,059,40*77
$GPGSV,4,3,15,19,78,202,38,24,46,299,40,28,37,087,23,30,02,145,16*72
$GPGSV,4,4,15,32,,,25*7B
$GPGLL,4738.42552,N,12208.51268,W,043744.00,A,A*76
$GPGST,043744.00,25,,,,12,6.2,17*51
$GPZDA,043744.00,26,02,2016,00,00*65
$GPRMC,043745.00,A,4738.42153,N,12208.51255,W,0.880,313.58,260216,,,A*76
$GPVTG,313.58,T,,M,0.880,N,1.631,K,A*34
$GPGGA,043745.00,4738.42153,N,12208.51255,W,1,07,0.96,192.9,M,-18.7,M,,*61
$GPGSA,A,3,17,06,24,01,12,13,15,,,,,,1.85,0.96,1.58*0F
$GPGSV,4,1,15,01,13,035,25,02,06,183,,03,01,068,,06,31,153,36*7E
$GPGSV,4,2,15,12,20,284,31,13,11,210,26,15,18,250,30,17,66,059,41*75
$GPGSV,4,3,15,19,78,202,38,24,46,299,37,28,37,087,26,30,02,145,15*74
$GPGSV,4,4,15,32,,,24*7A
$GPGLL,4738.42153,N,12208.51255,W,043745.00,A,A*7C
$GPGST,043745.00,27,,,,11,5.8,16*59
$GPZDA,043745.00,26,02,2016,00,00*64
$GPRMC,043746.00,A,4738.42432,N,12208.51241,W,0.450,302.95,260216,,,A*72
$GPVTG,302.95,T,,M,0.450,N,0.835,K,A*3F
$GPGGA,043746.00,4738.42432,N,12208.51241,W,1,07,0.91,196.8,M,-18.7,M,,*67
$GPGSA,A,3,17,06,24,01,12,13,15,,,,,,1.80,0.91,1.55*00
$GPGSV,4,1,15,01,13,035,26,02,06,183,,03,01,068,,06,31,153,38*73
$GPGSV,4,2,15,12,20,284,32,13,11,210,25,15,18,250,39,17,66,059,39*73
$GPGSV,4,3,15,19,78,202,36,24,46,299,35,28,37,087,24,30,02,145,*7E
$GPGSV,4,4,15,32,,,24*7A
$GPGLL,4738.42432,N,12208.51241,W,043746.00,A,A*78
$GPGST,043746.00,25,,,,8.7,5.5,15*77
$GPZDA,043746.00,26,02,2016,00,00*67
$GPRMC,043747.00,A,4738.42427,N,12208.51317,W,1.355,297.66,260216,,,A*77
$GPVTG,297.66,T,,M,1.355,N,2.511,K,A*34
$GPGGA,043747.00,4738.42427,N,12208.51317,W,1,08,0.91,195.9,M,-18.7,M,,*6D
$GPGSA,A,3,17,06,28,24,01,12,13,15,,,,,1.80,0.91,1.55*0A
$GPGSV,4,1,15,01,13,035,24,02,06,183,,03,01,068,,06,31,153,36*7F
$GPGSV,4,2,15,12,20,284,33,13,11,210,26,15,18,250,31,17,66,059,42*75
$GPGSV,4,3,15,19,78,202,39,24,46,299,35,28,37,087,24,30,02,145,*71
$GPGSV,4,4,15,32,,,25*7B
$GPGLL,4738.42427,N,12208.51317,W,043747.00,A,A*7F
$GPGST,043747.00,28,,,,8.0,5.5,14*7D
$GPZDA,043747.00,26,02,2016,00,00*66
$GPRMC,043748.00,A,4738.42270,N,12208.51394,W,0.503,292.19,260216,,,A*7E
$GPVTG,292.19,T,,M,0.503,N,0.932,K,A*32
$GPGGA,043748.00,4738.42270,N,12208.51394,W,1,08,1.02,198.7,M,-18.7,M,,*65
$GPGSA,A,3,17,06,28,24,01,12,13,15,,,,,1.87,1.02,1.57*04
$GPGSV,4,1,15,01,13,035,34,02,06,183,24,03,01,068,,06,31,153,37*79
$GPGSV,4,2,15,12,20,284,32,13,11,210,31,15,18,250,31,17,66,059,42*72
$GPGSV,4,3,15,19,78,202,37,24,46,299,38,28,37,087,25,30,02,145,*73
$GPGSV,4,4,15,32,,,25*7B
$GPGLL,4738.42270,N,12208.51394,W,043748.00,A,A*7F
$GPGST,043748.00,17,,,,6.6,4.8,12*7C
$GPZDA,043748.00,26,02,2016,00,00*69
$GPRMC,043749.00,A,4738.42239,N,12208.51432,W,0.265,302.27,260216,,,A*7B
$GPVTG,302.27,T,,M,0.265,N,0.491,K,A*34
$GPGGA,043749.00,4738.42239,N,12208.51432,W,1,08,1.02,198.9,M,-18.7,M,,*6C
$GPGSA,A,3,17,06,28,24,01,12,13,15,,,,,1.87,1.02,1.57*04
$GPGSV,4,1,15,01,13,035,28,02,06,183,23,03,01,068,,06,31,153,36*72
$GPGSV,4,2,15,12,20,284,35,13,11,210,27,15,18,250,32,17,66,059,43*70
$GPGSV,4,3,15,19,78,202,40,24,46,299,33,28,37,087,26,30,02,145,*7B
$GPGSV,4,4,15,32,,,25*7B
$GPGLL,4738.42239,N,12208.51432,W,043749.00,A,A*78
$GPGST,043749.00,23,,,,6.2,4.9,11*7C
$GPZDA,043749.00,26,02,2016,00,00*68
$GPRMC,043750.00,A,4738.42191,N,12208.51389,W,1.116,306.64,260216,,,A*70
$GPVTG,306.64,T,,M,1.116,N,2.068,K,A*31
$GPGGA,043750.00,4738.42191,N,12208.51389,W,1,08,0.91,201.5,M,-18.7,M,,*66
$GPGSA,A,3,17,06,28,24,01,12,13,15,,,,,1.80,0.91,1.55*0A
$GPGSV,4,1,15,01,13,035,32,02,06,183,20,03,01,068,,06,31,153,32*7E
$GPGSV,4,2,15,12,20,284,36,13,11,210,31,15,18,250,38,17,66,059,41*7C
$GPGSV,4,3,15,19,78,202,39,24,46,299,37,28,37,087,26,30,02,145,*71
$GPGSV,4,4,15,32,,,23*7D
$GPGST,043750.00,16,,,,5.8,4.7,10*74
$GPGLL,4738.42191,N,12208.51389,W,043750.00,A,A*76
$GPZDA,043750.00,26,02,2016,00,00*60
$GPRMC,043751.00,A,4738.42265,N,12208.51430,W,2.417,8.60,260216,,,A*72
$GPVTG,8.60,T,,M,2.417,N,4.478,K,A*3C
$GPGGA,043751.00,4738.42265,N,12208.51430,W,1,08,0.91,199.1,M,-18.7,M,,*6C
$GPGSA,A,3,17,06,28,24,01,12,13,15,,,,,1.80,0.91,1.55*0A
$GPGSV,4,1,15,01,13,035,28,02,06,183,19,03,01,068,,06,31,153,38*75
$GPGSV,4,2,15,12,20,284,37,13,11,210,24,15,18,250,36,17,66,059,42*74
$GPGSV,4,3,15,19,78,202,38,24,46,299,26,28,37,087,24,30,02,145,*72
$GPGSV,4,4,15,32,,,24*7A
$GPGLL,4738.42265,N,12208.51430,W,043751.00,A,A*7A
$GPGST,043751.00,30,,,,5.4,4.5,9.8*51
$GPZDA,043751.00,26,02,2016,00,00*61
$GPRMC,043752.00,A,4738.42345,N,12208.51436,W,3.783,4.15,260216,,,A*75
$GPVTG,4.15,T,,M,3.783,N,7.010,K,A*34
$GPGGA,043752.00,4738.42345,N,12208.51436,W,1,08,0.91,199.4,M,-18.7,M,,*6F
$GPGSA,A,3,17,06,28,24,01,12,13,15,,,,,1.80,0.91,1.55*0A
$GPGSV,4,1,15,01,13,035,26,02,06,183,18,03,01,068,,06,31,153,28*7B
$GPGSV,4,2,15,12,20,284,41,13,11,210,22,15,18,250,28,17,66,059,39*70
$GPGSV,4,3,15,19,78,202,40,24,46,299,26,28,37,087,23,30,02,145,*7A
$GPGSV,4,4,15,32,,,23*7D
$GPGLL,4738.42345,N,12208.51436,W,043752.00,A,A*7C
$GPGST,043752.00,32,,,,5.4,4.5,9.4*5C
$GPZDA,043752.00,26,02,2016,00,00*62
$GPRMC,043753.00,A,4738.42468,N,12208.51428,W,4.714,353.62,260216,,,A*7B
$GPVTG,353.62,T,,M,4.714,N,8.736,K,A*30
$GPGGA,043753.00,4738.42468,N,12208.51428,W,1,08,0.91,199.9,M,-18.7,M,,*64
$GPGSA,A,3,17,06,28,24,01,12,13,15,,,,,1.80,0.91,1.55*0A
$GPGSV,4,1,15,01,13,035,23,02,06,183,20,03,01,067,,06,31,153,25*77
$GPGSV,4,2,15,12,20,284,30,13,11,210,23,15,18,250,33,17,66,059,36*72
$GPGSV,4,3,15,19,78,202,38,24,46,299,31,28,37,087,22,30,02,145,*72
$GPGSV,4,4,15,32,,,23*7D
$GPGLL,4738.42468,N,12208.51428,W,043753.00,A,A*7A
$GPGST,043753.00,30,,,,5.6,4.7,9.3*58
$GPZDA,043753.00,26,02,2016,00,00*63
$GPRMC,043754.00,A,4738.42632,N,12208.51436,W,6.171,354.42,260216,,,A*7C
$GPVTG,354.42,T,,M,6.171,N,11.435,K,A*0A
$GPGGA,043754.00,4738.42632,N,12208.51436,W,1,08,0.91,200.1,M,-18.7,M,,*6A
$GPGSA,A,3,17,06,28,24,01,12,13,15,,,,,1.80,0.91,1.55*0A
$GPGSV,4,1,15,01,13,035,18,02,06,183,21,03,01,067,,06,31,153,24*7F
$GPGSV,4,2,15,12,20,284,29,13,11,210,22,15,18,250,28,17,66,059,37*70
$GPGSV,4,3,15,19,78,202,39,24,46,299,26,28,37,087,22,30,02,145,*75
$GPGSV,4,4,15,32,,,25*7B
$GPGLL,4738.42632,N,12208.51436,W,043754.00,A,A*7F
$GPGST,043754.00,40,,,,5.9,5.0,9.3*51
$GPZDA,043754.00,26,02,2016,00,00*64
$GPRMC,043755.00,A,4738.42846,N,12208.51313,W,9.155,14.43,260216,,,A*4F
$GPVTG,14.43,T,,M,9.155,N,16.964,K,A*3B
$GPGGA,043755.00,4738.42846,N,12208.51313,W,1,08,0.91,200.0,M,-18.7,M,,*67
$GPGSA,A,3,17,06,28,24,01,12,13,15,,,,,1.80,0.91,1.55*0A
$GPGSV,4,1,15,01,13,035,17,02,06,183,23,03,01,067,,06,31,153,23*75
$GPGSV,4,2,15,12,20,284,29,13,11,210,20,15,18,250,31,17,66,059,37*7A
$GPGSV,4,3,15,19,78,202,38,24,46,299,38,28,37,087,21,30,02,145,*78
$GPGSV,4,4,15,32,,,26*78
$GPGST,043755.00,39,,,,6.2,5.1,9.1*55
$GPZDA,043755.00,26,02,2016,00,00*65
$GPGLL,4738.42846,N,12208.51313,W,043755.00,A,A*73
$GPRMC,043756.00,A,4738.43113,N,12208.51202,W,10.286,15.34,260216,,,A*71
$GPVTG,15.34,T,,M,10.286,N,19.061,K,A*0C
$GPGGA,043756.00,4738.43113,N,12208.51202,W,1,07,0.91,200.5,M,-18.7,M,,*67
$GPGSA,A,3,17,06,24,01,12,13,15,,,,,,1.80,0.91,1.55*00
$GPGSV,4,1,15,01,13,035,20,02,06,183,23,03,01,067,,06,32,152,23*73
$GPGSV,4,2,15,12,20,284,33,13,11,210,20,15,18,250,27,17,66,059,37*76
$GPGSV,4,3,15,19,78,202,38,24,46,299,36,28,37,087,,30,02,145,*75
$GPGSV,4,4,15,32,,,25*7B
$GPGLL,4738.43113,N,12208.51202,W,043756.00,A,A*79
$GPGST,043756.00,36,,,,6.4,5.3,9.0*5C
$GPZDA,043756.00,26,02,2016,00,00*66
$GPRMC,043757.00,A,4738.43402,N,12208.51039,W,13.102,11.59,260216,,,A*7C
$GPVTG,11.59,T,,M,13.102,N,24.278,K,A*0B
$GPGGA,043757.00,4738.43402,N,12208.51039,W,1,07,0.91,202.2,M,-18.7,M,,*6C
$GPGSA,A,3,17,06,24,01,12,13,15,,,,,,1.79,0.91,1.55*06
$GPGSV,4,1,15,01,13,035,24,02,06,183,23,03,01,067,,06,32,152,23*77
$GPGSV,4,2,15,12,20,284,38,13,11,210,22,15,18,250,27,17,66,059,37*7F
$GPGSV,4,3,15,19,78,202,40,24,46,299,37,28,37,087,25,30,02,145,*7C
$GPGSV,4,4,15,32,,,25*7B
$GPGLL,4738.43402,N,12208.51039,W,043757.00,A,A*77
$GPGST,043757.00,34,,,,6.5,5.2,8.8*56
$GPZDA,043757.00,26,02,2016,00,00*67
$GPRMC,043758.00,A,4738.43721,N,12208.50895,W,13.060,16.53,260216,,,A*76
$GPVTG,16.53,T,,M,13.060,N,24.200,K,A*0C
$GPGGA,043758.00,4738.43721,N,12208.50895,W,1,07,0.91,203.0,M,-18.7,M,,*6D
$GPGSA,A,3,17,06,24,01,12,13,15,,,,,,1.79,0.91,1.55*06
$GPGSV,4,1,15,01,13,035,26,02,06,183,23,03,01,067,,06,32,152,24*72
$GPGSV,4,2,15,12,20,284,40,13,11,210,21,15,18,250,27,17,66,059,37*73
$GPGSV,4,3,15,19,78,202,39,24,46,299,35,28,37,087,23,30,02,145,*76
$GPGSV,4,4,15,32,,,25*7B
$GPGLL,4738.43721,N,12208.50895,W,043758.00,A,A*75
$GPGST,043758.00,33,,,,6.5,5.1,8.6*53
$GPZDA,043758.00,26,02,2016,00,00*68
$GPRMC,043759.00,A,4738.44058,N,12208.50760,W,12.948,15.81,260216,,,A*72
$GPVTG,15.81,T,,M,12.948,N,23.992,K,A*05
$GPGGA,043759.00,4738.44058,N,12208.50760,W,1,08,0.91,203.4,M,-18.7,M,,*6C
$GPGSA,A,3,17,06,28,24,01,12,13,15,,,,,1.79,0.91,1.55*0C
$GPGSV,4,1,15,01,13,035,26,02,06,183,22,03,01,067,,06,32,152,23*74
$GPGSV,4,2,15,12,20,284,32,13,11,210,24,15,18,250,27,17,66,059,36*72
$GPGSV,4,3,15,19,78,202,39,24,46,299,32,28,37,087,21,30,02,145,*73
$GPGSV,4,4,15,32,,,25*7B
$GPGLL,4738.44058,N,12208.50760,W,043759.00,A,A*7F
$GPGST,043759.00,31,,,,6.6,5.2,8.4*52
$GPZDA,043759.00,26,02,2016,00,00*69
$GPRMC,043800.00,A,4738.44433,N,12208.50645,W,13.820,13.68,260216,,,A*71
$GPVTG,13.68,T,,M,13.820,N,25.609,K,A*01
$GPGGA,043800.00,4738.44433,N,12208.50645,W,1,08,0.91,204.1,M,-18.7,M,,*62
$GPGSA,A,3,17,06,28,24,01,12,13,15,,,,,1.79,0.91,1.55*0C
$GPGSV,4,1,15,01,13,035,25,02,06,183,22,03,01,067,,06,32,152,22*76
$GPGSV,4,2,15,12,20,284,31,13,11,210,32,15,18,250,31,17,66,059,36*71
$GPGSV,4,3,15,19,78,202,39,24,46,299,39,28,37,087,22,30,02,145,*7B
$GPGSV,4,4,15,32,,,23*7D
$GPGLL,4738.44433,N,12208.50645,W,043800.00,A,A*73
$GPGST,043800.00,28,,,,6.5,5.2,8.2*5C
$GPZDA,043800.00,26,02,2016,00,00*6A
$GPRMC,043801.00,A,4738.44741,N,12208.50581,W,9.387,21.41,260216,,,A*4A
$GPVTG,21.41,T,,M,9.387,N,17.395,K,A*37
$GPGGA,043801.00,4738.44741,N,12208.50581,W,1,08,0.91,203.6,M,-18.7,M,,*6E
$GPGSA,A,3,17,06,28,24,01,12,13,15,,,,,1.79,0.91,1.55*0C
$GPGSV,4,1,15,01,13,035,27,02,06,183,19,03,01,067,,06,32,152,21*7F
$GPGSV,4,2,15,12,20,284,40,13,11,210,25,15,18,250,25,17,66,059,36*74
$GPGSV,4,3,15,19,78,202,39,24,46,299,39,28,37,087,29,30,02,145,*70
$GPGSV,4,4,15,32,,,21*7F
$GPGLL,4738.44741,N,12208.50581,W,043801.00,A,A*7F
$GPGST,043801.00,33,,,,6.5,5.0,8.0*57
$GPZDA,043801.00,26,02,2016,00,00*6B
$GPRMC,043802.00,A,4738.44953,N,12208.50510,W,6.986,20.51,260216,,,A*48
$GPVTG,20.51,T,,M,6.986,N,12.945,K,A*31
$GPGGA,043802.00,4738.44953,N,12208.50510,W,1,08,0.96,203.1,M,-18.7,M,,*68
$GPGSA,A,3,17,06,28,24,01,12,13,15,,,,,1.85,0.96,1.58*05
$GPGSV,4,1,15,01,13,035,28,02,06,183,18,03,01,067,,06,32,152,22*72
$GPGSV,4,2,15,12,21,284,36,13,11,210,23,15,18,250,26,17,66,059,36*71
$GPGSV,4,3,15,19,78,202,39,24,46,299,31,28,37,087,30,30,02,145,*70
$GPGSV,4,4,15,32,,,19*74
$GPGLL,4738.44953,N,12208.50510,W,043802.00,A,A*79
$GPGST,043802.00,33,,,,6.8,5.1,7.8*5F
$GPZDA,043802.00,26,02,2016,00,00*68
$GPRMC,043803.00,A,4738.45112,N,12208.50419,W,5.891,25.09,260216,,,A*41
$GPVTG,25.09,T,,M,5.891,N,10.916,K,A*39
$GPGGA,043803.00,4738.45112,N,12208.50419,W,1,08,0.96,202.8,M,-18.7,M,,*65
$GPGSA,A,3,17,06,28,24,01,12,13,15,,,,,1.85,0.96,1.58*05
$GPGSV,4,1,15,01,13,035,25,02,06,183,17,03,01,067,,06,32,152,23*71
$GPGSV,4,2,15,12,21,284,29,13,11,210,21,15,18,250,25,17,66,059,37*7F
$GPGSV,4,3,15,19,78,202,41,24,46,299,25,28,37,087,37,30,02,145,*7D
$GPGSV,4,4,15,32,,,19*74
$GPGLL,4738.45112,N,12208.50419,W,043803.00,A,A*7C
$GPGST,043803.00,43,,,,7.2,5.2,7.8*51
$GPZDA,043803.00,26,02,2016,00,00*69
$GPRMC,043804.00,A,4738.45347,N,12208.50308,W,7.672,18.96,260216,,,A*4A
$GPVTG,18.96,T,,M,7.672,N,14.217,K,A*3E
$GPGGA,043804.00,4738.45347,N,12208.50308,W,1,08,1.02,202.6,M,-18.7,M,,*65
$GPGSA,A,3,17,06,28,24,01,12,13,15,,,,,1.87,1.02,1.56*05
$GPGSV,4,1,15,01,13,035,23,02,06,183,16,03,01,067,,06,32,152,21*74
$GPGSV,4,2,15,12,21,284,27,13,11,210,22,15,18,250,31,17,66,059,37*77
$GPGSV,4,3,15,19,78,202,40,24,46,299,25,28,37,087,37,30,02,145,*7C
$GPGSV,4,4,15,32,,,18*75
$GPGLL,4738.45347,N,12208.50308,W,043804.00,A,A*7E
$GPGST,043804.00,42,,,,7.5,5.6,7.7*5B
$GPZDA,043804.00,26,02,2016,00,00*6E
$GPRMC,043805.00,A,4738.45588,N,12208.50229,W,5.593,21.96,260216,,,A*48
$GPVTG,21.96,T,,M,5.593,N,10.363,K,A*3C
$GPGGA,043805.00,4738.45588,N,12208.50229,W,1,08,1.27,202.3,M,-18.7,M,,*61
$GPGSA,A,3,17,06,28,24,01,12,13,15,,,,,2.01,1.27,1.56*0F
$GPGSV,4,1,15,01,13,035,19,02,06,183,15,03,01,067,,06,32,152,21*7E
$GPGSV,4,2,15,12,21,284,35,13,11,210,30,15,18,249,34,17,66,059,41*7B
$GPGSV,4,3,15,19,78,202,40,24,46,299,31,28,37,087,30,30,02,145,*7E
$GPGSV,4,4,15,32,,,17*7A
$GPGLL,4738.45588,N,12208.50229,W,043805.00,A,A*78
$GPGST,043805.00,34,,,,7.5,5.7,7.7*5A
$GPZDA,043805.00,26,02,2016,00,00*6F
$GPRMC,043806.00,A,4738.45696,N,12208.50024,W,2.467,58.34,260216,,,A*43
$GPVTG,58.34,T,,M,2.467,N,4.571,K,A*07
$GPGGA,043806.00,4738.45696,N,12208.50024,W,1,08,1.08,201.4,M,-18.7,M,,*68
$GPGSA,A,3,17,06,28,24,01,12,13,15,,,,,1.90,1.08,1.56*09
$GPGSV,4,1,15,01,13,035,19,02,06,183,14,03,01,067,,06,32,152,22*7C
$GPGSV,4,2,15,12,21,284,36,13,11,210,30,15,18,249,29,17,66,059,41*74
$GPGSV,4,3,15,19,78,202,39,24,46,299,31,28,37,087,31,30,02,145,*71
$GPGSV,4,4,15,32,,,18*75
$GPGLL,4738.45696,N,12208.50024,W,043806.00,A,A*78
$GPGST,043806.00,34,,,,7.6,5.8,7.6*54
$GPZDA,043806.00,26,02,2016,00,00*6C
$GPRMC,043807.00,A,4738.45800,N,12208.49882,W,2.834,46.99,260216,,,A*4D
$GPVTG,46.99,T,,M,2.834,N,5.251,K,A*01
$GPGGA,043807.00,4738.45800,N,12208.49882,W,1,08,1.08,200.8,M,-18.7,M,,*69
$GPGSA,A,3,17,06,28,24,01,12,13,15,,,,,1.90,1.08,1.56*09
$GPGSV,4,1,15,01,13,035,19,02,06,183,14,03,01,067,,06,32,152,24*7A
$GPGSV,4,2,15,12,21,284,35,13,11,210,29,15,18,249,28,17,66,059,41*7E
$GPGSV,4,3,15,19,78,202,40,24,46,299,37,28,37,087,37,30,02,145,*7F
$GPGSV,4,4,15,32,,,17*7A
$GPGLL,4738.45800,N,12208.49882,W,043807.00,A,A*74
$GPGST,043807.00,35,,,,7.5,5.6,7.6*59
$GPZDA,043807.00,26,02,2016,00,00*6D
$GPRMC,043808.00,A,4738.46002,N,12208.49764,W,3.129,46.18,260216,,,A*41
$GPVTG,46.18,T,,M,3.129,N,5.798,K,A*0C
$GPGGA,043808.00,4738.46002,N,12208.49764,W,1,08,1.08,200.2,M,-18.7,M,,*62
$GPGSA,A,3,17,06,28,24,01,12,13,15,,,,,1.90,1.08,1.56*09
$GPGSV,4,1,15,01,13,035,20,02,06,183,15,03,01,067,,06,32,152,32*76
$GPGSV,4,2,15,12,21,284,32,13,11,210,23,15,18,249,27,17,66,059,38*72
$GPGSV,4,3,15,19,78,202,39,24,46,299,27,28,37,087,27,30,02,145,*71
$GPGSV,4,4,15,32,,,18*75
$GPGLL,4738.46002,N,12208.49764,W,043808.00,A,A*75
$GPGST,043808.00,37,,,,7.4,5.9,7.5*59
$GPZDA,043808.00,26,02,2016,00,00*62
$GPRMC,043809.00,A,4738.46158,N,12208.49540,W,6.342,89.25,260216,,,A*4D
$GPVTG,89.25,T,,M,6.342,N,11.751,K,A*3B
$GPGGA,043809.00,4738.46158,N,12208.49540,W,1,08,1.08,199.6,M,-18.7,M,,*6E
$GPGSA,A,3,17,06,28,24,01,12,13,15,,,,,1.90,1.08,1.56*09
$GPGSV,4,1,15,01,13,035,21,02,06,183,15,03,01,067,,06,32,152,32*77
$GPGSV,4,2,15,12,21,284,24,13,11,210,30,15,18,249,27,17,66,059,40*78
$GPGSV,4,3,15,19,78,201,36,24,46,299,39,28,37,087,27,30,02,145,*72
$GPGSV,4,4,15,32,,,19*74
$GPGLL,4738.46158,N,12208.49540,W,043809.00,A,A*7E
$GPGST,043809.00,30,,,,6.7,5.2,7.4*57
$GPZDA,043809.00,26,02,2016,00,00*63
$GPRMC,043810.00,A,4738.46209,N,12208.49143,W,10.318,99.24,260216,,,A*7D
$GPVTG,99.24,T,,M,10.318,N,19.119,K,A*01
$GPGGA,043810.00,4738.46209,N,12208.49143,W,1,08,1.08,198.5,M,-18.7,M,,*64
$GPGSA,A,3,17,06,28,24,01,12,13,15,,,,,1.90,1.08,1.56*09
$GPGSV,4,1,15,01,13,035,23,02,06,183,15,03,01,067,,06,32,152,28*7E
$GPGSV,4,3,15,19,78,201,39,24,46,299,39,28,37,087,30,30,02,145,*7B
$GPGSV,4,2,15,12,21,284,30,13,11,210,30,15,18,249,28,17,66,059,36*73
$GPGSV,4,4,15,32,,,18*75
$GPGLL,4738.46209,N,12208.49143,W,043810.00,A,A*76
$GPGST,043810.00,25,,,,6.2,4.8,7.3*52
$GPZDA,043810.00,26,02,2016,00,00*6B
$GPRMC,043811.00,A,4738.46163,N,12208.48595,W,13.522,99.01,260216,,,A*76
$GPVTG,99.01,T,,M,13.522,N,25.056,K,A*0F
$GPGGA,043811.00,4738.46163,N,12208.48595,W,1,08,0.94,197.5,M,-18.7,M,,*6F
$GPGSA,A,3,17,06,28,24,01,12,13,15,,,,,1.82,0.94,1.56*0E
$GPGSV,4,1,15,01,13,035,24,02,06,183,13,03,01,067,,06,32,152,29*7E
$GPGSV,4,2,15,12,21,284,30,13,11,210,31,15,18,249,27,17,66,059,39*72
$GPGSV,4,3,15,19,78,201,42,24,46,299,38,28,37,087,30,30,02,145,*76
$GPGSV,4,4,15,32,,,16*7B
$GPGLL,4738.46163,N,12208.48595,W,043811.00,A,A*76
$GPGST,043811.00,28,,,,6.1,4.7,7.3*52
$GPZDA,043811.00,26,02,2016,00,00*6A
$GPRMC,043812.00,A,4738.46101,N,12208.47898,W,15.741,104.64,260216,,,A*49
$GPVTG,104.64,T,,M,15.741,N,29.168,K,A*38
$GPGGA,043812.00,4738.46101,N,12208.47898,W,1,08,0.90,195.3,M,-18.7,M,,*67
$GPGSA,A,3,17,06,28,24,01,12,13,15,,,,,1.81,0.90,1.57*08
$GPGSV,4,1,15,01,13,035,27,02,06,183,12,03,01,067,,06,32,152,35*71
$GPGSV,4,2,15,12,21,284,29,13,11,210,24,15,18,249,28,17,66,059,40*7F
$GPGSV,4,3,15,19,78,201,41,24,46,299,37,28,37,087,34,30,02,145,*7E
$GPGSV,4,4,15,32,,,15*78
$GPGLL,4738.46101,N,12208.47898,W,043812.00,A,A*7E
$GPGST,043812.00,29,,,,6.3,4.5,7.1*52
$GPZDA,043812.00,26,02,2016,00,00*69
$GPRMC,043813.00,A,4738.45956,N,12208.47122,W,17.353,108.65,260216,,,A*41
$GPVTG,108.65,T,,M,17.353,N,32.154,K,A*35
$GPGGA,043813.00,4738.45956,N,12208.47122,W,1,08,0.90,193.2,M,-18.7,M,,*60
$GPGSA,A,3,17,06,28,24,01,12,13,15,,,,,1.81,0.90,1.57*08
$GPGSV,4,1,15,01,13,035,26,02,06,183,12,03,01,067,,06,32,152,35*70
$GPGSV,4,2,15,12,21,284,28,13,11,210,21,15,18,249,26,17,66,059,41*74
$GPGSV,4,3,15,19,78,201,41,24,46,299,37,28,37,087,34,30,02,145,*7E
$GPGSV,4,4,15,32,,,15*78
$GPGLL,4738.45956,N,12208.47122,W,043813.00,A,A*7E
$GPGST,043813.00,33,,,,6.6,4.3,7.0*5A
$GPZDA,043813.00,26,02,2016,00,00*68
$GPRMC,043814.00,A,4738.45818,N,12208.46314,W,18.567,109.40,260216,,,A*43
$GPVTG,109.40,T,,M,18.567,N,34.405,K,A*3A
$GPGGA,043814.00,4738.45818,N,12208.46314,W,1,08,0.85,191.3,M,-18.7,M,,*6D
$GPGSA,A,3,17,06,28,24,01,12,13,15,,,,,1.76,0.85,1.54*07
$GPGSV,4,1,15,01,13,035,25,02,06,183,15,03,01,067,,06,32,152,34*75
$GPGSV,4,2,15,12,21,284,29,13,11,210,17,15,18,249,25,17,66,059,41*73
$GPGSV,4,3,15,19,78,201,41,24,47,298,38,28,37,087,34,30,02,145,*71
$GPGSV,4,4,15,32,,,15*78
$GPGLL,4738.45818,N,12208.46314,W,043814.00,A,A*74
$GPGST,043814.00,49,,,,6.7,4.2,6.9*58
$GPZDA,043814.00,26,02,2016,00,00*6F
$GPRMC,043815.00,A,4738.45730,N,12208.45556,W,17.161,103.84,260216,,,A*4B
$GPVTG,103.84,T,,M,17.161,N,31.799,K,A*36
$GPGGA,043815.00,4738.45730,N,12208.45556,W,1,08,0.85,189.7,M,-18.7,M,,*67
$GPGSA,A,3,17,06,28,24,01,12,13,15,,,,,1.76,0.85,1.54*07
$GPGSV,4,1,15,01,13,035,22,02,06,183,17,03,01,067,,06,32,152,35*71
$GPGSV,4,2,15,12,21,284,29,13,11,210,14,15,18,249,22,17,66,059,41*77
$GPGSV,4,3,15,19,78,201,41,24,47,298,37,28,37,087,34,30,02,145,*7E
$GPGSV,4,4,15,32,,,18*75
$GPGLL,4738.45730,N,12208.45556,W,043815.00,A,A*73
$GPGST,043815.00,54,,,,6.7,4.1,6.8*57
$GPZDA,043815.00,26,02,2016,00,00*6E
$GPRMC,043816.00,A,4738.45667,N,12208.44485,W,14.247,118.86,260216,,,A*49
$GPVTG,118.86,T,,M,14.247,N,26.400,K,A*3F
$GPGGA,043816.00,4738.45667,N,12208.44485,W,1,08,0.90,182.8,M,-18.7,M,,*69
$GPGSA,A,3,17,06,28,24,01,12,13,15,,,,,1.94,0.90,1.72*0B
$GPGSV,4,1,15,01,13,035,21,02,06,183,22,03,01,067,,06,32,152,31*70
$GPGSV,4,3,15,19,78,201,41,24,47,298,27,28,37,087,40,30,02,145,*7C
$GPGSV,4,2,15,12,21,284,24,13,11,210,12,15,18,249,19,17,66,059,39*7B
$GPGSV,4,4,15,32,,,19*74
$GPGST,043816.00,41,,,,6.5,4.0,6.5*5E
$GPGLL,4738.45667,N,12208.44485,W,043816.00,A,A*7D
$GPZDA,043816.00,26,02,2016,00,00*6D
$GPRMC,043817.00,A,4738.45592,N,12208.44085,W,11.399,140.56,260216,,,A*42
$GPVTG,140.56,T,,M,11.399,N,21.122,K,A*3A
$GPGGA,043817.00,4738.45592,N,12208.44085,W,1,08,0.96,181.7,M,-18.7,M,,*6F
$GPGSA,A,3,17,06,28,24,01,12,13,15,,,,,2.07,0.96,1.84*0D
$GPGSV,4,1,15,01,13,035,22,02,06,183,23,03,01,067,,06,32,152,32*71
$GPGSV,4,2,15,12,21,284,30,13,11,210,12,15,18,249,17,17,66,059,33*7A
$GPGSV,4,3,15,19,78,201,41,24,47,298,37,28,37,087,34,30,02,145,*7E
$GPGSV,4,4,15,32,,,19*74
$GPGLL,4738.45592,N,12208.44085,W,043817.00,A,A*71
$GPGST,043817.00,30,,,,6.0,4.1,6.5*5D
$GPZDA,043817.00,26,02,2016,00,00*6C
$GPRMC,043818.00,A,4738.45523,N,12208.43998,W,11.455,177.31,260216,,,A*47
$GPVTG,177.31,T,,M,11.455,N,21.227,K,A*3E
$GPGGA,043818.00,4738.45523,N,12208.43998,W,1,07,2.18,180.5,M,-18.7,M,,*60
$GPGSA,A,3,17,06,28,24,01,12,15,,,,,,4.59,2.18,4.04*0B
$GPGSV,4,1,15,01,13,035,20,02,06,183,30,03,01,067,,06,32,152,35*76
$GPGSV,4,2,15,12,21,284,33,13,11,210,,15,18,249,16,17,66,059,39*71
$GPGSV,4,3,15,19,78,201,36,24,47,298,37,28,37,088,31,30,02,145,*74
$GPGSV,4,4,15,32,,,18*75
$GPGLL,4738.45523,N,12208.43998,W,043818.00,A,A*76
$GPGST,043818.00,18,,,,5.1,4.2,6.5*59
$GPZDA,043818.00,26,02,2016,00,00*63
$GPRMC,043819.00,A,4738.45256,N,12208.44112,W,13.889,192.07,260216,,,A*4F
$GPVTG,192.07,T,,M,13.889,N,25.736,K,A*3E
$GPGGA,043819.00,4738.45256,N,12208.44112,W,1,06,2.18,179.6,M,-18.7,M,,*6D
$GPGSA,A,3,17,06,28,24,12,15,,,,,,,4.59,2.18,4.04*0A
$GPGSV,4,1,15,01,13,035,,02,06,183,24,03,01,067,,06,32,152,36*72
$GPGSV,4,2,15,12,21,284,34,13,11,210,,15,18,249,15,17,66,059,37*7B
$GPGSV,4,3,15,19,78,201,35,24,47,298,39,28,37,088,34,30,02,145,*7C
$GPGSV,4,4,15,32,,,18*75
$GPGLL,4738.45256,N,12208.44112,W,043819.00,A,A*7F
$GPGST,043819.00,13,,,,4.2,4.2,6.4*50
$GPZDA,043819.00,26,02,2016,00,00*62
$GPRMC,043820.00,A,4738.44815,N,12208.44343,W,17.243,194.14,260216,,,A*43
$GPVTG,194.14,T,,M,17.243,N,31.952,K,A*3B
$GPGGA,043820.00,4738.44815,N,12208.44343,W,1,07,2.18,179.2,M,-18.7,M,,*68
$GPGSA,A,3,17,06,28,24,01,12,15,,,,,,4.59,2.18,4.04*0B
$GPGSV,4,1,15,01,13,035,26,02,06,183,24,03,01,067,,06,32,152,35*75
$GPGSV,4,2,15,12,21,284,21,13,11,210,,15,18,249,15,17,66,059,38*70
$GPGSV,4,3,15,19,78,201,36,24,47,298,37,28,37,088,32,30,01,145,*74
$GPGSV,4,4,15,32,,,17*7A
$GPGLL,4738.44815,N,12208.44343,W,043820.00,A,A*7F
$GPGST,043820.00,28,,,,4.0,4.4,6.4*56
$GPZDA,043820.00,26,02,2016,00,00*68
$GPRMC,043821.00,A,4738.44343,N,12208.44631,W,19.168,200.30,260216,,,A*46
$GPVTG,200.30,T,,M,19.168,N,35.518,K,A*31
$GPGGA,043821.00,4738.44343,N,12208.44631,W,1,06,1.33,177.9,M,-18.7,M,,*6F
$GPGSA,A,3,17,06,28,24,01,12,,,,,,,2.52,1.33,2.14*0F
$GPGSV,4,1,15,01,13,035,27,02,06,183,34,03,01,067,,06,32,152,37*77
$GPGSV,4,2,15,12,21,284,19,13,11,210,,15,18,249,,17,66,059,38*7F
$GPGSV,4,3,15,19,78,201,37,24,47,298,38,28,37,088,29,30,01,145,*70
$GPGSV,4,4,15,32,,,16*7B
$GPGLL,4738.44343,N,12208.44631,W,043821.00,A,A*76
$GPGST,043821.00,21,,,,4.1,4.5,6.4*5E
$GPZDA,043821.00,26,02,2016,00,00*69
$GPRMC,043822.00,A,4738.43792,N,12208.44934,W,21.417,202.23,260216,,,A*46
$GPVTG,202.23,T,,M,21.417,N,39.685,K,A*3C
$GPGGA,043822.00,4738.43792,N,12208.44934,W,1,06,1.33,176.7,M,-18.7,M,,*66
$GPGSA,A,3,17,06,28,24,01,12,,,,,,,2.52,1.33,2.14*0F
$GPGSV,4,1,15,01,13,035,25,02,06,183,35,03,01,067,,06,32,152,38*7B
$GPGSV,4,2,15,12,21,284,16,13,11,210,,15,18,249,,17,66,059,38*70
$GPGSV,4,3,15,19,78,201,38,24,47,298,38,28,37,088,35,30,01,145,*72
$GPGSV,4,4,15,32,,,15*78
$GPGLL,4738.43792,N,12208.44934,W,043822.00,A,A*70
$GPGST,043822.00,22,,,,4.2,4.5,6.4*5D
$GPZDA,043822.00,26,02,2016,00,00*6A
$GPRMC,043823.00,A,4738.44188,N,12208.44758,W,21.875,199.96,260216,,,A*4E
$GPVTG,199.96,T,,M,21.875,N,40.534,K,A*3C
$GPGGA,043823.00,4738.44188,N,12208.44758,W,1,06,0.96,108.7,M,-18.7,M,,*6E
$GPGSA,A,3,17,06,28,24,01,12,,,,,,,2.07,0.96,1.84*0B
$GPGSV,4,1,14,01,13,035,25,02,06,183,33,03,01,067,,06,32,152,38*7C
$GPGSV,4,2,14,12,21,284,14,13,11,210,,15,18,249,,17,66,059,38*73
$GPGSV,4,3,14,19,78,201,38,24,47,298,27,28,37,088,37,30,01,145,*7F
$GPGSV,4,4,14*7C
$GPGLL,4738.44188,N,12208.44758,W,043823.00,A,A*7F
$GPGST,043823.00,56,,,,20,34,51*75
$GPZDA,043823.00,26,02,2016,00,00*6B
$GPRMC,043824.00,A,4738.43605,N,12208.45054,W,22.820,197.53,260216,,,A*42
$GPVTG,197.53,T,,M,22.820,N,42.285,K,A*37
$GPGGA,043824.00,4738.43605,N,12208.45054,W,1,05,1.16,108.7,M,-18.7,M,,*6C
$GPGSA,A,3,17,06,28,24,01,,,,,,,,2.38,1.16,2.08*0A
$GPGSV,4,1,14,01,13,035,24,02,06,183,36,03,01,067,,06,32,152,38*78
$GPGSV,4,2,14,12,21,284,,13,11,210,,15,18,249,,17,66,059,36*78
$GPGSV,4,3,14,19,78,201,37,24,47,298,24,28,37,088,29,30,01,145,*7C
$GPGSV,4,4,14*7C
$GPGLL,4738.43605,N,12208.45054,W,043824.00,A,A*77
$GPGST,043824.00,31,,,,15,19,29*75
$GPZDA,043824.00,26,02,2016,00,00*6C
$GPRMC,043825.00,A,4738.42988,N,12208.45305,W,22.490,195.35,260216,,,A*4A
$GPVTG,195.35,T,,M,22.490,N,41.674,K,A*3B
$GPGGA,043825.00,4738.42988,N,12208.45305,W,1,06,1.16,108.8,M,-18.7,M,,*6D
$GPGSA,A,3,17,06,28,24,01,15,,,,,,,2.38,1.16,2.08*0E
$GPGSV,4,1,14,01,13,035,25,02,06,183,32,03,01,067,,06,32,152,39*7C
$GPGSV,4,2,14,12,21,284,,13,11,210,,15,18,249,20,17,66,059,37*7B
$GPGSV,4,3,14,19,78,201,37,24,47,298,22,28,37,088,32,30,01,145,*70
$GPGSV,4,4,14*7C
$GPGLL,4738.42988,N,12208.45305,W,043825.00,A,A*7A
$GPGST,043825.00,30,,,,11,13,25*77
$GPZDA,043825.00,26,02,2016,00,00*6D
$GPRMC,043826.00,A,4738.42394,N,12208.45596,W,21.716,194.00,260216,,,A*4B
$GPVTG,194.00,T,,M,21.716,N,40.239,K,A*3E
$GPGGA,043826.00,4738.42394,N,12208.45596,W,1,07,1.16,110.1,M,-18.7,M,,*64
$GPGSA,A,3,17,06,28,24,01,12,15,,,,,,2.38,1.16,2.08*0D
$GPGSV,4,1,14,01,13,035,26,02,06,183,28,03,01,067,,06,32,152,30*7D
$GPGSV,4,2,14,12,21,284,22,13,11,210,,15,18,249,18,17,66,059,39*7E
$GPGSV,4,3,14,19,78,201,36,24,47,298,19,28,37,088,40,30,01,145,*7C
$GPGLL,4738.42394,N,12208.45596,W,043826.00,A,A*72
$GPGST,043826.00,35,,,,9.8,10,22*5A
$GPZDA,043826.00,26,02,2016,00,00*6E
$GPGSV,4,4,14*7C
$GPRMC,043827.00,A,4738.41892,N,12208.45930,W,20.860,192.15,260216,,,A*49
$GPVTG,192.15,T,,M,20.860,N,38.654,K,A*33
$GPGGA,043827.00,4738.41892,N,12208.45930,W,1,07,1.16,110.3,M,-18.7,M,,*69
$GPGSA,A,3,17,06,28,24,01,12,13,,,,,,2.38,1.16,2.08*0B
$GPGSV,4,1,14,01,13,035,27,02,06,183,27,03,01,067,,06,32,152,42*76
$GPGSV,4,2,14,12,21,284,24,13,11,210,25,15,18,249,19,17,66,059,37*70
$GPGSV,4,3,14,19,78,201,36,24,47,298,19,28,37,088,35,30,01,145,*7E
$GPGSV,4,4,14*7C
$GPGLL,4738.41892,N,12208.45930,W,043827.00,A,A*7D
$GPGST,043827.00,53,,,,8.6,8.7,20*76
$GPZDA,043827.00,26,02,2016,00,00*6F
$GPRMC,043828.00,A,4738.41360,N,12208.46082,W,19.054,192.24,260216,,,A*44
$GPVTG,192.24,T,,M,19.054,N,35.306,K,A*3B
$GPGGA,043828.00,4738.41360,N,12208.46082,W,1,08,1.16,111.1,M,-18.7,M,,*6F
$GPGSA,A,3,17,06,28,24,01,12,13,15,,,,,2.38,1.16,2.08*0F
$GPGSV,4,1,14,01,13,035,27,02,06,183,25,03,01,067,,06,32,152,37*76
$GPGSV,4,2,14,12,21,284,23,13,11,210,22,15,18,249,21,17,66,059,39*75
$GPGSV,4,3,14,19,78,201,35,24,47,298,19,28,37,088,28,30,01,145,*71
$GPGSV,4,4,14*7C
$GPGLL,4738.41360,N,12208.46082,W,043828.00,A,A*77
$GPGST,043828.00,34,,,,8.0,8.2,18*70
$GPZDA,043828.00,26,02,2016,00,00*60
$GPRMC,043829.00,A,4738.40846,N,12208.46119,W,15.957,194.24,260216,,,A*48
$GPVTG,194.24,T,,M,15.957,N,29.568,K,A*38
$GPGGA,043829.00,4738.40846,N,12208.46119,W,1,08,0.98,112.2,M,-18.7,M,,*64
$GPGSA,A,3,17,06,28,24,01,12,13,15,,,,,2.01,0.98,1.75*0B
$GPGSV,4,1,14,01,13,035,26,02,06,183,26,03,01,067,,06,32,152,37*74
$GPGSV,4,2,14,12,21,284,25,13,11,210,19,15,18,249,22,17,66,059,36*77
$GPGSV,4,3,14,19,78,201,36,24,47,298,21,28,37,088,35,30,01,145,*75
$GPGSV,4,4,14*7C
$GPGLL,4738.40846,N,12208.46119,W,043829.00,A,A*7B
$GPGST,043829.00,37,,,,7.4,7.7,17*7C
$GPZDA,043829.00,26,02,2016,00,00*61
$GPRMC,043830.00,A,4738.40464,N,12208.46223,W,14.141,195.09,260216,,,A*46
$GPVTG,195.09,T,,M,14.141,N,26.203,K,A*3D
$GPGGA,043830.00,4738.40464,N,12208.46223,W,1,08,1.05,112.3,M,-18.7,M,,*6E
$GPGSA,A,3,17,06,28,24,01,12,13,15,,,,,1.92,1.05,1.61*02
$GPGSV,4,1,14,01,13,035,25,02,06,183,25,03,01,067,,06,32,152,32*71
$GPGSV,4,2,14,12,21,284,31,13,11,210,21,15,18,249,25,17,66,059,38*70
$GPGSV,4,3,14,19,78,201,37,24,47,298,36,28,37,088,32,30,01,145,*75
$GPGLL,4738.40464,N,12208.46223,W,043830.00,A,A*75
$GPGSV,4,4,14*7C
$GPGST,043830.00,31,,,,6.6,6.9,16*7F
$GPZDA,043830.00,26,02,2016,00,00*69
$GPRMC,043831.00,A,4738.40166,N,12208.46389,W,12.574,193.55,260216,,,A*4A
$GPVTG,193.55,T,,M,12.574,N,23.299,K,A*30
$GPGGA,043831.00,4738.40166,N,12208.46389,W,1,08,1.05,112.0,M,-18.7,M,,*6A
$GPGSA,A,3,17,06,28,24,01,12,13,15,,,,,1.92,1.05,1.60*03
$GPGSV,4,1,14,01,13,035,30,02,06,183,25,03,01,067,,06,32,152,39*7E
$GPGSV,4,2,14,12,21,284,31,13,11,210,23,15,18,249,26,17,66,059,38*71
$GPGSV,4,3,14,19,78,201,35,24,47,298,36,28,37,088,32,30,01,145,*77
$GPGSV,4,4,14*7C
$GPGLL,4738.40166,N,12208.46389,W,043831.00,A,A*72
$GPGST,043831.00,26,,,,5.7,6.1,14*70
$GPZDA,043831.00,26,02,2016,00,00*68
$GPRMC,043832.00,A,4738.39887,N,12208.46446,W,10.553,192.43,260216,,,A*44
$GPVTG,192.43,T,,M,10.553,N,19.555,K,A*3F
$GPGGA,043832.00,4738.39887,N,12208.46446,W,1,08,1.16,111.4,M,-18.7,M,,*60
$GPGSA,A,3,17,06,28,24,01,12,13,15,,,,,2.38,1.16,2.08*0F
$GPGSV,4,1,14,01,13,035,24,02,06,183,26,03,01,067,,06,32,152,29*79
$GPGSV,4,2,14,12,21,284,31,13,11,210,25,15,18,249,30,17,66,059,38*70
$GPGSV,4,3,14,19,78,201,37,24,47,298,38,28,37,088,33,30,01,145,*7A
$GPGSV,4,4,14*7C
$GPGLL,4738.39887,N,12208.46446,W,043832.00,A,A*7D
$GPGST,043832.00,25,,,,4.9,5.0,13*7A
$GPZDA,043832.00,26,02,2016,00,00*6B
$GPRMC,043833.00,A,4738.39627,N,12208.46517,W,10.369,191.20,260216,,,A*4D
$GPVTG,191.20,T,,M,10.369,N,19.214,K,A*34
$GPGGA,043833.00,4738.39627,N,12208.46517,W,1,08,1.16,110.9,M,-18.7,M,,*6C
$GPGSA,A,3,17,06,28,24,01,12,13,15,,,,,2.38,1.16,2.08*0F
$GPGSV,4,1,14,01,13,035,26,02,06,183,26,03,01,067,,06,32,152,33*70
$GPGSV,4,2,14,12,21,284,32,13,11,210,25,15,18,249,30,17,66,059,36*7D
$GPGSV,4,3,14,19,78,201,32,24,47,298,31,28,37,088,36,30,01,145,*73
$GPGSV,4,4,14*7C
$GPGLL,4738.39627,N,12208.46517,W,043833.00,A,A*7D
$GPGST,043833.00,25,,,,4.8,5.2,13*78
$GPZDA,043833.00,26,02,2016,00,00*6A
$GPRMC,043834.00,A,4738.39305,N,12208.46581,W,13.397,189.95,260216,,,A*45
$GPVTG,189.95,T,,M,13.397,N,24.824,K,A*36
$GPGGA,043834.00,4738.39305,N,12208.46581,W,1,08,1.16,111.1,M,-18.7,M,,*68
$GPGSA,A,3,17,06,28,24,01,12,13,15,,,,,2.38,1.16,2.08*0F
$GPGSV,4,1,14,01,13,035,26,02,06,183,25,03,01,067,,06,32,152,33*73
$GPGSV,4,2,14,12,21,284,33,13,11,210,30,15,18,249,29,17,66,059,37*71
$GPGSV,4,3,14,19,78,201,34,24,47,298,34,28,37,088,35,30,01,145,*73
$GPGSV,4,4,14*7C
$GPGLL,4738.39305,N,12208.46581,W,043834.00,A,A*70
$GPGST,043834.00,28,,,,4.8,5.5,13*75
$GPZDA,043834.00,26,02,2016,00,00*6D
$GPRMC,043835.00,A,4738.38881,N,12208.46763,W,16.917,195.18,260216,,,A*43
$GPVTG,195.18,T,,M,16.917,N,31.346,K,A*32
$GPGGA,043835.00,4738.38881,N,12208.46763,W,1,08,1.16,111.7,M,-18.7,M,,*67
$GPGSA,A,3,17,06,28,24,01,12,13,15,,,,,2.38,1.16,2.08*0F
$GPGSV,4,1,14,01,13,035,27,02,06,183,23,03,01,067,,06,32,152,34*73
$GPGSV,4,2,14,12,21,284,32,13,11,210,24,15,18,249,28,17,66,059,40*74
$GPGSV,4,4,14*7C
$GPGLL,4738.38881,N,12208.46763,W,043835.00,A,A*79
$GPGST,043835.00,24,,,,4.9,5.7,12*7A
$GPGSV,4,3,14,19,78,201,37,24,47,298,32,28,37,088,41,30,01,145,*75
$GPZDA,043835.00,26,02,2016,00,00*6C
$GPRMC,043836.00,A,4738.38408,N,12208.47089,W,18.330,198.06,260216,,,A*4C
$GPVTG,198.06,T,,M,18.330,N,33.966,K,A*3B
$GPGGA,043836.00,4738.38408,N,12208.47089,W,1,08,1.16,112.9,M,-18.7,M,,*66
$GPGSA,A,3,17,06,28,24,01,12,13,15,,,,,2.38,1.16,2.08*0F
$GPGSV,4,1,14,01,13,035,26,02,06,183,23,03,01,067,,06,32,152,38*7E
$GPGSV,4,2,14,12,21,284,32,13,11,210,23,15,18,249,28,17,66,059,41*72
$GPGSV,4,3,14,19,78,201,37,24,47,298,26,28,37,088,40,30,01,145,*71
$GPGSV,4,4,14*7C
$GPGLL,4738.38408,N,12208.47089,W,043836.00,A,A*75
$GPGST,043836.00,24,,,,4.9,5.6,12*78
$GPZDA,043836.00,26,02,2016,00,00*6F
$GPRMC,043837.00,A,4738.37839,N,12208.47537,W,20.317,195.22,260216,,,A*49
$GPVTG,195.22,T,,M,20.317,N,37.647,K,A*36
$GPGGA,043837.00,4738.37839,N,12208.47537,W,1,08,1.16,116.0,M,-18.7,M,,*6B
$GPGSA,A,3,17,06,28,24,01,12,13,15,,,,,2.38,1.16,2.08*0F
$GPGSV,4,1,14,01,13,035,27,02,06,183,24,03,01,067,,06,32,152,34*74
$GPGSV,4,2,14,12,21,284,19,13,11,210,23,15,18,249,26,17,66,059,39*7A
$GPGSV,4,3,14,19,78,201,37,24,47,298,26,28,37,088,41,30,01,145,*70
$GPGSV,4,4,14*7C
$GPGLL,4738.37839,N,12208.47537,W,043837.00,A,A*75
$GPGST,043837.00,22,,,,4.8,5.1,11*7A
$GPZDA,043837.00,26,02,2016,00,00*6E
$GPRMC,043838.00,A,4738.37321,N,12208.47822,W,18.729,194.70,260216,,,A*49
$GPVTG,194.70,T,,M,18.729,N,34.705,K,A*36
$GPGGA,043838.00,4738.37321,N,12208.47822,W,1,08,1.16,116.2,M,-18.7,M,,*6D
$GPGSA,A,3,17,06,28,24,01,12,13,15,,,,,2.38,1.16,2.08*0F
$GPGSV,4,1,14,01,13,035,27,02,06,183,22,03,01,067,,06,32,152,34*72
$GPGSV,4,2,14,12,21,284,21,13,11,210,21,15,18,249,24,17,66,059,37*7F
$GPGSV,4,3,14,19,78,201,37,24,47,298,25,28,37,088,36,30,01,145,*73
$GPGSV,4,4,14*7C
$GPGLL,4738.37321,N,12208.47822,W,043838.00,A,A*71
$GPGST,043838.00,22,,,,4.7,5.0,11*7B
$GPZDA,043838.00,26,02,2016,00,00*61
$GPRMC,043839.00,A,4738.36877,N,12208.47990,W,15.408,194.54,260216,,,A*42
$GPVTG,194.54,T,,M,15.408,N,28.551,K,A*33
$GPGGA,043839.00,4738.36877,N,12208.47990,W,1,08,1.16,115.4,M,-18.7,M,,*68
$GPGSA,A,3,17,06,28,24,01,12,13,15,,,,,2.38,1.16,2.08*0F
$GPGSV,4,1,14,01,13,035,26,02,06,183,21,03,01,067,,06,32,152,39*7D
$GPGSV,4,2,14,12,21,284,22,13,11,210,22,15,18,249,21,17,66,059,37*7A
$GPGSV,4,3,14,19,78,201,36,24,47,298,24,28,37,088,27,30,01,145,*73
$GPGSV,4,4,14*7C
$GPGLL,4738.36877,N,12208.47990,W,043839.00,A,A*71
$GPGST,043839.00,30,,,,4.7,4.9,11*71
$GPZDA,043839.00,26,02,2016,00,00*60
$GPRMC,043840.00,A,4738.36536,N,12208.48226,W,12.213,195.54,260216,,,A*47
$GPVTG,195.54,T,,M,12.213,N,22.632,K,A*35
$GPGGA,043840.00,4738.36536,N,12208.48226,W,1,08,1.16,115.4,M,-18.7,M,,*67
$GPGSA,A,3,17,06,28,24,01,12,13,15,,,,,2.38,1.16,2.08*0F
$GPGSV,4,1,14,01,13,035,25,02,06,183,19,03,01,067,,06,32,152,39*75
$GPGSV,4,2,14,12,21,284,25,13,11,210,25,15,18,249,23,17,66,059,39*76
$GPGSV,4,3,14,19,78,201,36,24,47,298,25,28,37,088,35,30,01,145,*71
$GPGSV,4,4,14*7C
$GPGLL,4738.36536,N,12208.48226,W,043840.00,A,A*7E
$GPGST,043840.00,25,,,,4.6,4.7,11*74
$GPZDA,043840.00,26,02,2016,00,00*6E
$GPRMC,043841.00,A,4738.36271,N,12208.48383,W,11.120,195.70,260216,,,A*4A
$GPVTG,195.70,T,,M,11.120,N,20.604,K,A*34
$GPGGA,043841.00,4738.36271,N,12208.48383,W,1,07,1.16,113.8,M,-18.7,M,,*69
$GPGSA,A,3,17,06,28,24,01,12,15,,,,,,2.38,1.16,2.08*0D
$GPGSV,4,1,14,01,13,035,25,02,06,183,19,03,01,067,,06,32,152,41*7A
$GPGSV,4,2,14,12,21,284,26,13,11,210,,15,18,249,23,17,66,059,37*7C
$GPGSV,4,3,14,19,78,201,37,24,47,298,25,28,37,088,32,30,01,145,*77
$GPGSV,4,4,14*7C
$GPGLL,4738.36271,N,12208.48383,W,043841.00,A,A*75
$GPGST,043841.00,26,,,,4.5,4.5,11*77
$GPZDA,043841.00,26,02,2016,00,00*6F
$GPRMC,043842.00,A,4738.35985,N,12208.48520,W,12.118,196.40,260216,,,A*4D
$GPVTG,196.40,T,,M,12.118,N,22.454,K,A*39
$GPGGA,043842.00,4738.35985,N,12208.48520,W,1,08,1.05,112.4,M,-18.7,M,,*66
$GPGSA,A,3,17,06,28,24,01,12,13,15,,,,,1.91,1.05,1.60*00
$GPGSV,4,1,14,01,13,035,25,02,06,183,18,03,01,067,,06,32,152,37*7A
$GPGSV,4,2,14,12,21,284,27,13,11,210,31,15,18,249,25,17,66,059,37*79
$GPGSV,4,3,14,19,78,201,34,24,47,298,26,28,37,088,28,30,01,145,*7C
$GPGSV,4,4,14*7C
$GPGLL,4738.35985,N,12208.48520,W,043842.00,A,A*7A
$GPGST,043842.00,25,,,,4.5,4.4,10*77
$GPZDA,043842.00,26,02,2016,00,00*6C
$GPRMC,043843.00,A,4738.35654,N,12208.48664,W,14.813,196.75,260216,,,A*4E
$GPVTG,196.75,T,,M,14.813,N,27.448,K,A*33
$GPGGA,043843.00,4738.35654,N,12208.48664,W,1,08,1.05,109.9,M,-18.7,M,,*60
$GPGSA,A,3,17,06,28,24,01,12,13,15,,,,,1.91,1.05,1.60*00
$GPGSV,4,1,14,01,13,035,31,02,06,183,18,03,01,067,,06,32,152,36*7E
$GPGSV,4,2,14,12,21,284,26,13,11,210,29,15,18,249,25,17,66,059,38*7E
$GPGSV,4,3,14,19,78,201,37,24,47,298,26,28,37,088,34,30,01,145,*72
$GPGSV,4,4,14*7C
$GPGLL,4738.35654,N,12208.48664,W,043843.00,A,A*7B
$GPGST,043843.00,20,,,,4.4,4.4,10*72
$GPZDA,043843.00,26,02,2016,00,00*6D
$GPRMC,043844.00,A,4738.35183,N,12208.48905,W,17.727,195.85,260216,,,A*4B
$GPVTG,195.85,T,,M,17.727,N,32.848,K,A*3C
$GPGGA,043844.00,4738.35183,N,12208.48905,W,1,08,1.05,111.0,M,-18.7,M,,*62
$GPGSA,A,3,17,06,28,24,01,12,13,15,,,,,1.91,1.05,1.60*00
$GPGSV,4,1,14,01,13,035,26,02,06,183,21,03,01,067,,06,32,152,36*72
$GPGSV,4,2,14,12,21,284,27,13,11,210,29,15,18,249,25,17,66,059,38*7F
$GPGSV,4,3,14,19,78,201,36,24,47,298,27,28,37,088,41,30,01,145,*70
$GPGSV,4,4,14*7C
$GPGLL,4738.35183,N,12208.48905,W,043844.00,A,A*79
$GPGST,043844.00,22,,,,4.3,4.3,10*77
$GPZDA,043844.00,26,02,2016,00,00*6A
$GPRMC,043845.00,A,4738.34656,N,12208.49075,W,19.465,196.11,260216,,,A*4E
$GPVTG,196.11,T,,M,19.465,N,36.068,K,A*37
$GPGGA,043845.00,4738.34656,N,12208.49075,W,1,06,1.05,111.1,M,-18.7,M,,*6D
$GPGSA,A,3,17,06,28,24,01,13,,,,,,,1.91,1.05,1.60*07
$GPGSV,4,1,14,01,13,035,24,02,06,183,19,03,01,067,,06,32,152,29*75
$GPGSV,4,2,14,12,21,284,,13,11,210,29,15,18,249,,17,66,059,37*72
$GPGSV,4,3,14,19,78,201,36,24,47,298,36,28,37,088,32,30,01,145,*74
$GPGSV,4,4,14*7C
$GPGLL,4738.34656,N,12208.49075,W,043845.00,A,A*79
$GPGST,043845.00,32,,,,4.3,4.2,10*76
$GPZDA,043845.00,26,02,2016,00,00*6B
$GPRMC,043846.00,A,4738.34066,N,12208.49233,W,20.967,195.20,260216,,,A*4C
$GPVTG,195.20,T,,M,20.967,N,38.851,K,A*3F
$GPGGA,043846.00,4738.34066,N,12208.49233,W,1,08,0.84,111.8,M,-18.7,M,,*64
$GPGSA,A,3,17,06,28,24,01,12,13,15,,,,,1.76,0.84,1.54*06
$GPGSV,4,1,14,01,13,035,26,02,06,183,17,03,01,067,,06,32,152,30*71
$GPGSV,4,2,14,12,21,284,34,13,11,210,28,15,18,249,31,17,66,059,37*76
$GPGSV,4,3,14,19,78,201,36,24,47,298,36,28,37,088,28,30,01,145,*7F
$GPGSV,4,4,14*7C
$GPGLL,4738.34066,N,12208.49233,W,043846.00,A,A*7F
$GPGST,043846.00,35,,,,4.2,4.1,10*70
$GPZDA,043846.00,26,02,2016,00,00*68
$GPRMC,043847.00,A,4738.33441,N,12208.49371,W,21.259,194.13,260216,,,A*4A
$GPVTG,194.13,T,,M,21.259,N,39.393,K,A*3D
$GPGGA,043847.00,4738.33441,N,12208.49371,W,1,08,0.84,113.1,M,-18.7,M,,*6F
$GPGSA,A,3,17,06,28,24,01,12,13,15,,,,,1.76,0.84,1.54*06
$GPGSV,4,1,14,01,13,035,28,02,06,183,14,03,01,067,,06,32,152,30*7C
$GPGSV,4,2,14,12,21,284,34,13,11,210,32,15,18,249,34,17,66,059,37*78
$GPGSV,4,3,14,19,78,201,36,24,47,298,36,28,37,088,26,30,01,145,*71
$GPGSV,4,4,14*7C
$GPGLL,4738.33441,N,12208.49371,W,043847.00,A,A*7F
$GPGST,043847.00,31,,,,4.0,3.9,10*78
$GPZDA,043847.00,26,02,2016,00,00*69
$GPRMC,043848.00,A,4738.32858,N,12208.49548,W,20.204,193.85,260216,,,A*4D
$GPVTG,193.85,T,,M,20.204,N,37.438,K,A*34
$GPGGA,043848.00,4738.32858,N,12208.49548,W,1,08,0.84,113.7,M,-18.7,M,,*6F
$GPGSA,A,3,17,06,28,24,01,12,13,15,,,,,1.75,0.84,1.54*05
$GPGSV,4,1,14,01,13,035,17,02,06,183,15,03,01,067,,06,32,152,37*76
$GPGSV,4,2,14,12,21,284,34,13,11,210,31,15,18,249,23,17,66,059,37*7D
$GPGSV,4,3,14,19,78,201,36,24,47,298,36,28,37,088,25,30,01,145,*72
$GPGSV,4,4,14*7C
$GPGLL,4738.32858,N,12208.49548,W,043848.00,A,A*79
$GPZDA,043848.00,26,02,2016,00,00*66
$GPGST,043848.00,43,,,,3.8,3.8,9.7*5D
$GPRMC,043849.00,A,4738.32316,N,12208.49704,W,18.471,194.07,260216,,,A*45
$GPVTG,194.07,T,,M,18.471,N,34.226,K,A*3C
$GPGGA,043849.00,4738.32316,N,12208.49704,W,1,08,0.84,114.1,M,-18.7,M,,*64
$GPGSA,A,3,17,06,28,24,01,12,13,15,,,,,1.75,0.84,1.54*05
$GPGSV,4,1,14,01,13,035,17,02,06,183,14,03,01,067,,06,32,152,36*76
$GPGSV,4,2,14,12,21,284,33,13,11,210,23,15,18,249,23,17,66,059,37*79
$GPGSV,4,3,14,19,78,201,36,24,47,298,36,28,37,088,23,30,01,145,*74
$GPGSV,4,4,14*7C
$GPGLL,4738.32316,N,12208.49704,W,043849.00,A,A*73
$GPGST,043849.00,57,,,,3.8,3.8,9.8*56
$GPZDA,043849.00,26,02,2016,00,00*67
$GPRMC,043850.00,A,4738.31846,N,12208.49853,W,15.572,194.33,260216,,,A*45
$GPVTG,194.33,T,,M,15.572,N,28.854,K,A*36
$GPGGA,043850.00,4738.31846,N,12208.49853,W,1,08,0.84,114.5,M,-18.7,M,,*68
$GPGSA,A,3,17,06,28,24,01,12,13,15,,,,,1.75,0.84,1.54*05
$GPGSV,4,1,14,01,13,035,19,02,06,183,14,03,01,067,,06,32,152,36*78
$GPGSV,4,2,14,12,21,284,29,13,11,210,26,15,18,249,24,17,66,059,37*70
$GPGSV,4,3,14,19,78,201,35,24,47,298,36,28,37,088,31,30,01,145,*74
$GPGSV,4,4,14*7C
$GPGLL,4738.31846,N,12208.49853,W,043850.00,A,A*7B
$GPGST,043850.00,37,,,,3.7,3.7,9.9*59
$GPZDA,043850.00,26,02,2016,00,00*6F
$GPRMC,043851.00,A,4738.31482,N,12208.49960,W,11.161,194.89,260216,,,A*42
$GPVTG,194.89,T,,M,11.161,N,20.682,K,A*38
$GPGGA,043851.00,4738.31482,N,12208.49960,W,1,08,0.84,114.7,M,-18.7,M,,*6E
$GPGSA,A,3,17,06,28,24,01,12,13,15,,,,,1.75,0.84,1.54*05
$GPGSV,4,1,14,01,13,035,18,02,06,183,14,03,01,067,,06,32,152,37*78
$GPGSV,4,2,14,12,21,284,27,13,11,210,28,15,18,249,23,17,66,059,37*77
$GPGSV,4,3,14,19,78,201,35,24,47,298,36,28,37,088,33,30,01,145,*76
$GPGSV,4,4,14*7C
$GPGLL,4738.31482,N,12208.49960,W,043851.00,A,A*7F
$GPGST,043851.00,39,,,,3.7,3.6,9.9*57
$GPZDA,043851.00,26,02,2016,00,00*6E
$GPRMC,043852.00,A,4738.31239,N,12208.50023,W,6.437,195.01,260216,,,A*70
$GPVTG,195.01,T,,M,6.437,N,11.928,K,A*04
$GPGGA,043852.00,4738.31239,N,12208.50023,W,1,08,0.84,115.0,M,-18.7,M,,*6B
$GPGSA,A,3,17,06,28,24,01,12,13,15,,,,,1.75,0.84,1.54*05
$GPGSV,4,1,14,01,13,035,18,02,06,183,16,03,01,067,,06,32,152,37*7A
$GPGSV,4,2,14,12,21,284,33,13,11,210,28,15,18,249,22,17,66,059,38*7C
$GPGLL,4738.31239,N,12208.50023,W,043852.00,A,A*7C
$GPGST,043852.00,37,,,,3.6,3.6,9.8*5A
$GPGSV,4,3,14,19,78,201,36,24,47,298,36,28,37,088,32,30,01,145,*74
$GPGSV,4,4,14*7C
$GPZDA,043852.00,26,02,2016,00,00*6D
$GPRMC,043853.00,A,4738.31099,N,12208.50061,W,3.554,196.35,260216,,,A*7A
$GPVTG,196.35,T,,M,3.554,N,6.586,K,A*3F
$GPGGA,043853.00,4738.31099,N,12208.50061,W,1,08,0.84,115.4,M,-18.7,M,,*60
$GPGSA,A,3,17,06,28,24,01,12,13,15,,,,,1.75,0.84,1.54*05
$GPGSV,4,1,14,01,13,035,18,02,06,183,17,03,01,067,,06,32,152,36*7A
$GPGSV,4,2,14,12,21,284,29,13,11,210,27,15,18,249,22,17,66,059,38*78
$GPGSV,4,3,14,19,78,201,36,24,47,298,37,28,37,088,33,30,01,145,*74
$GPGSV,4,4,14*7C
$GPGLL,4738.31099,N,12208.50061,W,043853.00,A,A*73
$GPGST,043853.00,37,,,,3.6,3.5,9.8*58
$GPZDA,043853.00,26,02,2016,00,00*6C
$GPRMC,043854.00,A,4738.31001,N,12208.50075,W,3.440,191.90,260216,,,A*75
$GPVTG,191.90,T,,M,3.440,N,6.374,K,A*38
$GPGGA,043854.00,4738.31001,N,12208.50075,W,1,08,0.84,115.4,M,-18.7,M,,*63
$GPGSA,A,3,17,06,28,24,01,12,13,15,,,,,1.75,0.84,1.54*05
$GPGSV,4,1,14,01,13,035,19,02,06,183,16,03,01,067,,06,32,152,36*7A
$GPGSV,4,2,14,12,21,284,36,13,11,210,27,15,18,249,24,17,66,059,37*7F
$GPGSV,4,3,14,19,78,201,36,24,47,298,36,28,37,088,28,30,01,145,*7F
$GPGSV,4,4,14*7C
$GPGLL,4738.31001,N,12208.50075,W,043854.00,A,A*70
$GPZDA,043854.00,26,02,2016,00,00*6B
$GPGST,043854.00,37,,,,3.5,3.5,9.7*53
$GPRMC,043855.00,A,4738.30883,N,12208.50049,W,4.814,172.22,260216,,,A*76
$GPVTG,172.22,T,,M,4.814,N,8.920,K,A*33
$GPGGA,043855.00,4738.30883,N,12208.50049,W,1,08,0.90,115.0,M,-18.7,M,,*6F
$GPGSA,A,3,17,06,28,24,01,12,13,15,,,,,1.81,0.90,1.57*08
$GPGSV,4,1,14,01,13,035,18,02,06,183,17,03,01,067,,06,32,152,34*78
$GPGSV,4,2,14,12,21,284,36,13,11,210,26,15,18,249,24,17,66,059,40*7E
$GPGSV,4,3,14,19,78,201,36,24,47,298,37,28,37,088,33,30,01,145,*74
$GPGSV,4,4,14*7C
$GPGLL,4738.30883,N,12208.50049,W,043855.00,A,A*7D
$GPGST,043855.00,39,,,,3.5,3.4,9.7*5D
$GPZDA,043855.00,26,02,2016,00,00*6A
$GPRMC,043856.00,A,4738.30741,N,12208.49916,W,6.700,143.61,260216,,,A*72
$GPVTG,143.61,T,,M,6.700,N,12.415,K,A*0E
$GPGGA,043856.00,4738.30741,N,12208.49916,W,1,08,0.90,114.6,M,-18.7,M,,*61
$GPGSA,A,3,17,06,28,24,01,12,13,15,,,,,1.81,0.90,1.57*08
$GPGSV,4,1,14,01,13,035,18,02,06,183,16,03,01,067,,06,32,152,36*7B
$GPGSV,4,2,14,12,21,284,33,13,11,210,26,15,18,249,32,17,66,059,35*7E
$GPGSV,4,3,14,19,78,201,39,24,47,298,39,28,37,088,27,30,01,145,*70
$GPGSV,4,4,14*7C
$GPGLL,4738.30741,N,12208.49916,W,043856.00,A,A*74
$GPGST,043856.00,42,,,,3.6,3.4,9.7*51
$GPZDA,043856.00,26,02,2016,00,00*69
$GPRMC,043857.00,A,4738.30582,N,12208.49705,W,8.256,137.43,260216,,,A*79
$GPVTG,137.43,T,,M,8.256,N,15.298,K,A*01
$GPGGA,043857.00,4738.30582,N,12208.49705,W,1,08,0.90,114.2,M,-18.7,M,,*65
$GPGSA,A,3,17,06,28,24,01,12,13,15,,,,,1.81,0.90,1.57*08
$GPGSV,4,1,14,01,13,035,19,02,06,183,17,03,01,067,,06,32,152,28*74
$GPGSV,4,2,14,12,21,284,23,13,11,210,25,15,18,249,24,17,66,059,32*7C
$GPGSV,4,3,14,19,78,201,41,24,47,298,35,28,37,088,36,30,01,145,*73
$GPGSV,4,4,14*7C
$GPGLL,4738.30582,N,12208.49705,W,043857.00,A,A*74
$GPZDA,043857.00,26,02,2016,00,00*68
$GPGST,043857.00,52,,,,3.8,3.5,9.9*50
$GPRMC,043858.00,A,4738.30437,N,12208.49372,W,9.605,126.94,260216,,,A*74
$GPVTG,126.94,T,,M,9.605,N,17.798,K,A*0F
$GPGGA,043858.00,4738.30437,N,12208.49372,W,1,08,0.90,113.7,M,-18.7,M,,*63
$GPGSA,A,3,17,06,28,24,01,12,13,15,,,,,1.81,0.90,1.57*08
$GPGSV,4,1,14,01,13,035,19,02,06,183,17,03,01,067,,06,32,152,26*7A
$GPGSV,4,2,14,12,21,284,24,13,11,210,31,15,18,249,23,17,66,059,40*7C
$GPGSV,4,3,14,19,78,201,41,24,47,298,28,28,37,088,40,30,01,145,*7E
$GPGSV,4,4,14*7C
$GPGST,043858.00,51,,,,4.3,3.6,10*7C
$GPZDA,043858.00,26,02,2016,00,00*67
$GPGLL,4738.30437,N,12208.49372,W,043858.00,A,A*70
$GPRMC,043859.00,A,4738.30338,N,12208.48887,W,10.901,112.74,260216,,,A*47
$GPVTG,112.74,T,,M,10.901,N,20.200,K,A*35
$GPGGA,043859.00,4738.30338,N,12208.48887,W,1,08,0.84,113.6,M,-18.7,M,,*6E
$GPGSA,A,3,17,06,28,24,01,12,13,15,,,,,1.75,0.84,1.54*05
$GPGSV,4,1,14,01,13,035,17,02,06,183,18,03,01,067,,06,32,152,22*7F
$GPGSV,4,2,14,12,21,284,31,13,11,210,29,15,18,249,25,17,66,059,41*76
$GPGSV,4,3,14,19,78,201,41,24,47,298,36,28,37,088,33,30,01,145,*75
$GPGSV,4,4,14*7C
$GPGLL,4738.30338,N,12208.48887,W,043859.00,A,A*79
$GPGST,043859.00,57,,,,4.7,3.7,10*7E
$GPZDA,043859.00,26,02,2016,00,00*66
$GPRMC,043900.00,A,4738.30294,N,12208.48547,W,8.317,109.25,260216,,,A*76
$GPVTG,109.25,T,,M,8.317,N,15.411,K,A*0F
$GPGGA,043900.00,4738.30294,N,12208.48547,W,1,08,0.84,113.6,M,-18.7,M,,*65
$GPGSA,A,3,17,06,28,24,01,12,13,15,,,,,1.75,0.84,1.54*05
$GPGSV,4,1,14,01,13,035,17,02,06,183,19,03,01,067,,06,32,152,29*75
$GPGSV,4,2,14,12,21,284,32,13,11,210,30,15,18,249,25,17,66,059,41*7D
$GPGSV,4,3,14,19,78,201,38,24,47,298,36,28,37,088,34,30,01,145,*7C
$GPGSV,4,4,14*7C
$GPGLL,4738.30294,N,12208.48547,W,043900.00,A,A*72
$GPGST,043900.00,52,,,,5.0,3.7,10*70
$GPZDA,043900.00,26,02,2016,00,00*6B
$GPRMC,043901.00,A,4738.30248,N,12208.48291,W,5.807,111.95,260216,,,A*7F
$GPVTG,111.95,T,,M,5.807,N,10.760,K,A*0A
$GPGGA,043901.00,4738.30248,N,12208.48291,W,1,08,0.84,114.4,M,-18.7,M,,*6C
$GPGSA,A,3,17,06,28,24,01,12,13,15,,,,,1.75,0.84,1.54*05
$GPGSV,4,1,14,01,13,035,16,02,06,183,20,03,01,067,,06,32,152,29*7E
$GPGSV,4,2,14,12,21,284,31,13,11,210,23,15,18,249,25,17,66,059,41*7C
$GPGSV,4,3,14,19,78,201,39,24,47,298,34,28,37,088,37,30,01,145,*7C
$GPGSV,4,4,14*7C
$GPGLL,4738.30248,N,12208.48291,W,043901.00,A,A*7E
$GPGST,043901.00,54,,,,5.4,3.7,10*73
$GPZDA,043901.00,26,02,2016,00,00*6A
$GPRMC,043902.00,A,4738.30153,N,12208.48041,W,6.350,120.73,260216,,,A*7A
$GPVTG,120.73,T,,M,6.350,N,11.766,K,A*0D
$GPGGA,043902.00,4738.30153,N,12208.48041,W,1,08,0.84,113.7,M,-18.7,M,,*6D
$GPGSA,A,3,17,06,28,24,01,12,13,15,,,,,1.75,0.84,1.54*05
$GPGSV,4,1,14,01,13,035,17,02,06,183,20,03,01,067,,06,32,152,31*76
$GPGSV,4,2,14,12,21,284,24,13,11,210,25,15,18,249,23,17,66,059,38*76
$GPGSV,4,3,14,19,78,201,41,24,47,298,30,28,37,088,39,30,01,145,*79
$GPGSV,4,4,14*7C
$GPGLL,4738.30153,N,12208.48041,W,043902.00,A,A*7B
$GPGST,043902.00,56,,,,5.7,3.6,10*70
$GPZDA,043902.00,26,02,2016,00,00*69
$GPRMC,043903.00,A,4738.29971,N,12208.47812,W,7.164,134.22,260216,,,A*7F
$GPVTG,134.22,T,,M,7.164,N,13.275,K,A*0D
$GPGGA,043903.00,4738.29971,N,12208.47812,W,1,08,0.84,114.1,M,-18.7,M,,*6C
$GPGSA,A,3,17,06,28,24,01,12,13,15,,,,,1.75,0.84,1.54*05
$GPGSV,4,1,14,01,13,035,18,02,06,182,19,03,01,067,,06,32,152,35*76
$GPGSV,4,2,14,12,21,284,24,13,11,210,26,15,18,249,34,17,66,059,34*7F
$GPGSV,4,3,14,19,78,201,38,24,47,298,36,28,37,088,34,30,01,145,*7C
$GPGSV,4,4,14*7C
$GPGLL,4738.29971,N,12208.47812,W,043903.00,A,A*7B
$GPGST,043903.00,35,,,,5.7,3.6,10*74
$GPZDA,043903.00,26,02,2016,00,00*68
$GPRMC,043904.00,A,4738.29592,N,12208.47644,W,10.778,159.91,260216,,,A*4A
$GPVTG,159.91,T,,M,10.778,N,19.972,K,A*35
$GPGGA,043904.00,4738.29592,N,12208.47644,W,1,08,0.84,114.4,M,-18.7,M,,*62
$GPGSA,A,3,17,06,28,24,01,12,13,15,,,,,1.75,0.84,1.53*02
$GPGSV,4,1,14,01,13,035,17,02,06,182,20,03,01,067,,06,32,152,34*72
$GPGSV,4,2,14,12,21,284,24,13,11,210,26,15,18,249,29,17,66,059,37*70
$GPGSV,4,3,14,19,78,201,33,24,47,298,27,28,37,088,32,30,01,145,*71
$GPGSV,4,4,14*7C
$GPGLL,4738.29592,N,12208.47644,W,043904.00,A,A*70
$GPGST,043904.00,41,,,,5.5,3.7,10*73
$GPZDA,043904.00,26,02,2016,00,00*6F
$GPRMC,043905.00,A,4738.29255,N,12208.47679,W,12.133,183.06,260216,,,A*4B
$GPVTG,183.06,T,,M,12.133,N,22.482,K,A*3D
$GPGGA,043905.00,4738.29255,N,12208.47679,W,1,07,1.26,113.8,M,-18.7,M,,*6C
$GPGSA,A,3,17,06,28,24,12,13,15,,,,,,2.81,1.26,2.51*03
$GPGSV,4,1,14,01,13,035,,02,06,182,18,03,01,067,,06,32,152,37*7C
$GPGSV,4,2,14,12,21,284,35,13,11,210,26,15,18,249,29,17,66,059,35*72
$GPGSV,4,3,14,19,78,201,36,24,47,298,38,28,37,088,31,30,01,145,*79
$GPGSV,4,4,14*7C
$GPGLL,4738.29255,N,12208.47679,W,043905.00,A,A*73
$GPGST,043905.00,28,,,,5.4,3.7,10*7C
$GPZDA,043905.00,26,02,2016,00,00*6E
$GPRMC,043906.00,A,4738.28868,N,12208.47829,W,14.103,192.56,260216,,,A*46
$GPVTG,192.56,T,,M,14.103,N,26.133,K,A*36
$GPGGA,043906.00,4738.28868,N,12208.47829,W,1,08,1.26,114.3,M,-18.7,M,,*62
$GPGSA,A,3,17,06,28,24,01,12,13,15,,,,,2.81,1.26,2.51*02
$GPGSV,4,1,14,01,13,035,23,02,06,182,16,03,01,067,,06,32,152,36*72
$GPGSV,4,2,14,12,21,284,35,13,11,210,28,15,18,249,20,17,66,059,36*76
$GPGSV,4,3,14,19,78,201,36,24,47,298,40,28,37,088,30,30,01,145,*77
$GPGSV,4,4,14*7C
$GPGLL,4738.28868,N,12208.47829,W,043906.00,A,A*7E
$GPGST,043906.00,33,,,,5.3,3.7,10*72
$GPZDA,043906.00,26,02,2016,00,00*6D
$GPRMC,043907.00,A,4738.28495,N,12208.47896,W,13.392,188.09,260216,,,A*41
$GPVTG,188.09,T,,M,13.392,N,24.816,K,A*36
$GPGGA,043907.00,4738.28495,N,12208.47896,W,1,08,1.26,114.2,M,-18.7,M,,*68
$GPGSA,A,3,17,06,28,24,01,12,13,15,,,,,2.81,1.26,2.51*02
$GPGSV,4,1,14,01,13,035,22,02,06,182,14,03,01,067,,06,32,152,39*7E
