$GPRMC,042912.63,V,,,,,,,260216,,,N*75
$GPVTG,,,,,,,,,N*30
$GPGGA,042912.63,,,,,0,00,99.99,,,,,,*6F
$GPGSA,A,1,,,,,,,,,,,,,99.99,99.99,99.99*30
$GPGSV,3,1,12,01,16,038,,02,02,183,,06,28,154,,12,17,282,*7E
$GPGSV,3,2,12,15,21,253,,17,70,063,,19,73,203,,24,43,301,*72
$GPGSV,3,3,12,28,40,084,,30,05,144,*7F
$GPGLL,,,,,042912.63,V,N*43
$GPGST,042912.63,0.0000,,,,26,26,26*6A
$GPZDA,042912.63,26,02,2016,00,00*6C
$GPRMC,042913.00,V,,,,,,,260216,,,N*71
$GPVTG,,,,,,,,,N*30
$GPGGA,042913.00,,,,,0,00,99.99,,,,,,*6B
$GPGSA,A,1,,,,,,,,,,,,,99.99,99.99,99.99*30
$GPGSV,3,1,12,01,16,038,,02,02,183,,06,28,154,,12,17,282,*7E
$GPGSV,3,2,12,15,21,253,,17,70,063,,19,73,203,,24,43,301,*72
$GPGSV,3,3,12,28,40,084,,30,05,144,*7F
$GPGLL,,,,,042913.00,V,N*47
$GPZDA,042913.00,26,02,2016,00,00*68
$GPGST,042913.00,0.0000,,,,26,26,26*6E
$GPRMC,042914.00,V,,,,,,,260216,,,N*76
$GPVTG,,,,,,,,,N*30
$GPGGA,042914.00,,,,,0,00,99.99,,,,,,*6C
$GPGSA,A,1,,,,,,,,,,,,,99.99,99.99,99.99*30
$GPGSV,3,1,12,01,16,038,,02,02,183,,06,28,154,,12,17,282,*7E
$GPGSV,3,2,12,15,21,253,,17,70,063,,19,73,203,,24,43,301,43*75
$GPGSV,3,3,12,28,40,084,,30,05,144,*7F
$GPGLL,,,,,042914.00,V,N*40
$GPGST,042914.00,0.0000,,,,32,32,32*6C
$GPZDA,042914.00,26,02,2016,00,00*6F
$GPRMC,042915.00,V,,,,,,,260216,,,N*77
$GPVTG,,,,,,,,,N*30
$GPGGA,042915.00,,,,,0,00,2.44,,,,,,*5F
$GPGSA,A,1,,,,,,,,,,,,,2.64,2.44,1.00*03
$GPGSV,3,1,12,01,16,038,,02,02,183,,06,28,154,37,12,17,282,*7A
$GPGSV,3,2,12,15,21,253,,17,70,063,36,19,73,203,42,24,43,301,43*76
$GPGSV,3,3,12,28,40,084,,30,05,144,*7F
$GPGLL,,,,,042915.00,V,N*41
$GPGST,042915.00,0.0000,,,,1689,417,44*58
$GPZDA,042915.00,26,02,2016,00,00*6E
$GPRMC,042916.00,V,,,,,,,260216,,,N*74
$GPVTG,,,,,,,,,N*30
$GPGGA,042916.00,,,,,0,00,2.44,,,,,,*5C
$GPGSA,A,1,,,,,,,,,,,,,2.64,2.44,1.00*03
$GPGSV,3,1,12,01,16,038,,02,02,183,,06,28,154,37,12,17,282,*7A
$GPGSV,3,2,12,15,21,253,,17,70,063,36,19,73,203,42,24,43,301,43*76
$GPGSV,3,3,12,28,40,084,27,30,05,144,*7A
$GPGLL,,,,,042916.00,V,N*42
$GPGST,042916.00,0.0000,,,,1689,415,44*59
$GPZDA,042916.00,26,02,2016,00,00*6D
$GPRMC,042917.00,V,,,,,,,260216,,,N*75
$GPVTG,,,,,,,,,N*30
$GPGGA,042917.00,,,,,0,06,93.61,,,,,,*64
$GPGSA,A,1,17,28,24,06,12,15,,,,,,,93.62,93.61,1.00*09
$GPGSV,3,1,12,01,16,038,,02,02,183,,06,28,154,37,12,17,282,27*7F
$GPGSV,3,2,12,15,21,253,28,17,70,063,36,19,73,203,42,24,43,301,43*7C
$GPGSV,3,3,12,28,40,084,28,30,05,144,*75
$GPGLL,,,,,042917.00,V,N*43
$GPGST,042917.00,26,,,,2869,694,44*4A
$GPZDA,042917.00,26,02,2016,00,00*6C
$GPRMC,042918.00,A,4738.38318,N,12207.74021,W,1.656,0.61,260216,,,A*77
$GPVTG,0.61,T,,M,1.656,N,3.068,K,A*33
$GPGGA,042918.00,4738.38318,N,12207.74021,W,1,05,1.44,166.1,M,-18.7,M,,*60
$GPGSA,A,3,17,28,24,12,15,,,,,,,,3.17,1.44,2.82*03
$GPGSV,3,1,12,01,16,038,,02,02,183,,06,28,154,37,12,17,282,26*7E
$GPGSV,3,2,12,15,21,253,28,17,70,063,36,19,73,203,42,24,43,301,43*7C
$GPGSV,3,3,12,28,40,084,28,30,05,144,*75
$GPGLL,4738.38318,N,12207.74021,W,042918.00,A,A*72
$GPGST,042918.00,35,,,,39,27,78*79
$GPZDA,042918.00,26,02,2016,00,00*63
$GPRMC,042919.00,A,4738.38110,N,12207.73898,W,2.698,185.05,260216,,,A*7E
$GPVTG,185.05,T,,M,2.698,N,5.000,K,A*34
$GPGGA,042919.00,4738.38110,N,12207.73898,W,1,05,1.44,155.2,M,-18.7,M,,*65
$GPGSA,A,3,17,28,24,12,15,,,,,,,,3.17,1.44,2.82*03
$GPGSV,3,1,12,01,16,038,,02,02,183,,06,28,154,37,12,17,282,26*7E
$GPGSV,3,2,12,15,21,253,27,17,70,063,35,19,73,203,42,24,43,301,43*70
$GPGSV,3,3,12,28,40,084,28,30,05,144,*75
$GPGLL,4738.38110,N,12207.73898,W,042919.00,A,A*74
$GPGST,042919.00,30,,,,25,20,60*7E
$GPZDA,042919.00,26,02,2016,00,00*62
$GPRMC,042920.00,A,4738.37966,N,12207.73872,W,0.780,183.21,260216,,,A*7C
$GPVTG,183.21,T,,M,0.780,N,1.445,K,A*3F
$GPGGA,042920.00,4738.37966,N,12207.73872,W,1,05,1.44,148.2,M,-18.7,M,,*61
$GPGSA,A,3,17,28,24,12,15,,,,,,,,3.17,1.44,2.82*03
$GPGSV,3,1,12,01,16,038,,02,02,183,,06,28,154,37,12,17,282,26*7E
$GPGSV,3,2,12,15,21,253,27,17,70,063,35,19,73,203,42,24,43,301,43*70
$GPGSV,3,3,12,28,40,084,28,30,05,144,*75
$GPGLL,4738.37966,N,12207.73872,W,042920.00,A,A*7C
$GPGST,042920.00,28,,,,17,16,50*7A
$GPZDA,042920.00,26,02,2016,00,00*68
$GPRMC,042921.00,A,4738.37974,N,12207.73826,W,0.476,182.27,260216,,,A*72
$GPVTG,182.27,T,,M,0.476,N,0.882,K,A*34
$GPGGA,042921.00,4738.37974,N,12207.73826,W,1,06,1.44,143.7,M,-18.7,M,,*6F
$GPGSA,A,3,17,28,24,01,12,15,,,,,,,3.17,1.44,2.82*02
$GPGSV,3,1,12,01,16,038,22,02,02,183,,06,28,154,37,12,17,282,25*7D
$GPGSV,3,2,12,15,21,253,27,17,70,063,35,19,73,203,42,24,43,301,43*70
$GPGSV,3,3,12,28,40,084,28,30,05,144,*75
$GPGLL,4738.37974,N,12207.73826,W,042921.00,A,A*7F
$GPGST,042921.00,29,,,,14,14,44*7E
$GPZDA,042921.00,26,02,2016,00,00*69
$GPRMC,042922.00,A,4738.37992,N,12207.73754,W,0.358,181.37,260216,,,A*7A
$GPVTG,181.37,T,,M,0.358,N,0.663,K,A*3C
$GPGGA,042922.00,4738.37992,N,12207.73754,W,1,05,1.44,139.1,M,-18.7,M,,*66
$GPGSA,A,3,17,28,24,12,15,,,,,,,,3.17,1.44,2.82*03
$GPGSV,3,1,12,01,16,038,21,02,02,183,,06,28,154,37,12,17,282,25*7E
$GPGSV,3,2,12,15,21,253,27,17,70,063,35,19,73,203,42,24,43,301,43*70
$GPGSV,3,3,12,28,40,084,28,30,05,144,*75
$GPGLL,4738.37992,N,12207.73754,W,042922.00,A,A*7E
$GPGST,042922.00,29,,,,13,13,39*77
$GPZDA,042922.00,26,02,2016,00,00*6A
$GPRMC,042923.00,A,4738.38009,N,12207.73711,W,0.254,185.23,260216,,,A*72
$GPVTG,185.23,T,,M,0.254,N,0.471,K,A*31
$GPGGA,042923.00,4738.38009,N,12207.73711,W,1,05,1.44,135.9,M,-18.7,M,,*66
$GPGSA,A,3,17,28,24,12,15,,,,,,,,3.17,1.44,2.82*03
$GPGSV,3,1,12,01,16,038,20,02,02,183,,06,28,154,36,12,17,282,23*78
$GPGSV,3,2,12,15,21,253,27,17,70,063,35,19,73,203,42,24,43,301,43*70
$GPGSV,3,3,12,28,40,084,28,30,05,144,*75
$GPGLL,4738.38009,N,12207.73711,W,042923.00,A,A*7A
$GPGST,042923.00,32,,,,12,12,36*73
$GPZDA,042923.00,26,02,2016,00,00*6B
$GPRMC,042924.00,A,4738.38001,N,12207.73670,W,0.874,184.86,260216,,,A*7D
$GPVTG,184.86,T,,M,0.874,N,1.619,K,A*3A
$GPGGA,042924.00,4738.38001,N,12207.73670,W,1,06,1.60,134.1,M,-18.7,M,,*63
$GPGSA,A,3,17,28,24,01,12,15,,,,,,,3.79,1.60,3.44*07
$GPGSV,3,1,12,01,16,038,19,02,02,183,,06,28,154,36,12,17,282,24*75
$GPGSV,3,2,12,15,21,253,27,17,70,063,32,19,74,203,42,24,43,301,43*70
$GPGSV,3,3,12,28,40,084,29,30,05,144,*74
$GPGLL,4738.38001,N,12207.73670,W,042924.00,A,A*73
$GPGST,042924.00,24,,,,11,11,34*71
$GPZDA,042924.00,26,02,2016,00,00*6C
$GPRMC,042925.00,A,4738.37994,N,12207.73635,W,0.185,,260216,,,A*6D
$GPVTG,,T,,M,0.185,N,0.343,K,A*2B
$GPGGA,042925.00,4738.37994,N,12207.73635,W,1,05,1.60,132.6,M,-18.7,M,,*6B
$GPGSA,A,3,17,28,24,01,15,,,,,,,,3.79,1.60,3.43*03
$GPGSV,3,1,12,01,16,038,18,02,02,183,,06,28,154,36,12,17,282,*72
$GPGSV,3,2,12,15,21,253,28,17,70,063,33,19,74,203,42,24,43,301,43*7E
$GPGSV,3,3,12,28,40,084,29,30,05,144,*74
$GPGST,042925.00,22,,,,10,10,32*70
$GPGLL,4738.37994,N,12207.73635,W,042925.00,A,A*79
$GPZDA,042925.00,26,02,2016,00,00*6D
$GPRMC,042926.00,A,4738.37985,N,12207.73620,W,0.101,,260216,,,A*66
$GPVTG,,T,,M,0.101,N,0.188,K,A*22
$GPGGA,042926.00,4738.37985,N,12207.73620,W,1,05,1.60,131.7,M,-18.7,M,,*6E
$GPGSA,A,3,17,28,24,01,15,,,,,,,,3.79,1.60,3.43*03
$GPGSV,3,1,12,01,16,038,19,02,02,183,,06,28,154,37,12,17,282,*72
$GPGSV,3,2,12,15,21,253,28,17,70,063,34,19,74,203,42,24,43,301,43*79
$GPGSV,3,3,12,28,40,084,29,30,05,144,*74
$GPGLL,4738.37985,N,12207.73620,W,042926.00,A,A*7E
$GPGST,042926.00,22,,,,9.9,9.7,30*7F
$GPZDA,042926.00,26,02,2016,00,00*6E
$GPRMC,042927.00,A,4738.37978,N,12207.73601,W,0.057,,260216,,,A*64
$GPVTG,,T,,M,0.057,N,0.106,K,A*26
$GPGGA,042927.00,4738.37978,N,12207.73601,W,1,06,1.60,130.8,M,-18.7,M,,*63
$GPGSA,A,3,17,28,24,01,12,15,,,,,,,3.79,1.60,3.43*00
$GPGSV,3,1,12,01,16,038,20,02,02,183,,06,28,154,37,12,17,282,25*7F
$GPGSV,3,2,12,15,21,253,27,17,70,063,35,19,74,203,42,24,43,301,43*77
$GPGSV,3,3,12,28,40,084,28,30,05,144,*75
$GPGLL,4738.37978,N,12207.73601,W,042927.00,A,A*7E
$GPGST,042927.00,23,,,,9.4,9.4,29*79
$GPZDA,042927.00,26,02,2016,00,00*6F
$GPRMC,042928.00,A,4738.37970,N,12207.73589,W,0.656,187.40,260216,,,A*73
$GPVTG,187.40,T,,M,0.656,N,1.215,K,A*35
$GPGGA,042928.00,4738.37970,N,12207.73589,W,1,05,1.60,130.0,M,-18.7,M,,*6C
$GPGSA,A,3,17,28,24,01,15,,,,,,,,3.79,1.60,3.43*03
$GPGSV,3,1,12,01,16,038,22,02,02,183,,06,28,154,37,12,17,282,*7A
$GPGSV,3,2,12,15,21,253,26,17,70,063,34,19,74,203,42,24,43,301,43*77
$GPGSV,3,3,12,28,40,084,28,30,05,144,*75
$GPGST,042928.00,26,,,,9.2,9.1,28*71
$GPGLL,4738.37970,N,12207.73589,W,042928.00,A,A*7A
$GPZDA,042928.00,26,02,2016,00,00*60
$GPRMC,042929.00,A,4738.37920,N,12207.73438,W,0.170,,260216,,,A*6B
$GPVTG,,T,,M,0.170,N,0.314,K,A*23
$GPGGA,042929.00,4738.37920,N,12207.73438,W,1,05,1.45,125.0,M,-18.7,M,,*60
$GPGSA,A,3,17,28,24,01,15,,,,,,,,3.73,1.45,3.43*0E
$GPGSV,3,1,12,01,16,038,22,02,02,183,,06,28,154,37,12,17,282,*7A
$GPGSV,3,2,12,15,21,253,24,17,70,063,34,19,74,203,42,24,43,301,43*75
$GPGSV,3,3,12,28,40,084,28,30,05,144,*75
$GPGLL,4738.37920,N,12207.73438,W,042929.00,A,A*75
$GPGST,042929.00,26,,,,8.7,8.5,26*7F
$GPZDA,042929.00,26,02,2016,00,00*61
$GPRMC,042930.00,A,4738.37905,N,12207.73378,W,0.238,183.83,260216,,,A*77
$GPVTG,183.83,T,,M,0.238,N,0.441,K,A*34
$GPGGA,042930.00,4738.37905,N,12207.73378,W,1,06,1.45,123.0,M,-18.7,M,,*69
$GPGSA,A,3,17,28,24,01,12,15,,,,,,,3.73,1.45,3.43*0D
$GPGSV,3,1,12,01,16,038,21,02,02,183,,06,28,154,37,12,17,282,24*7F
$GPGSV,3,2,12,15,21,253,23,17,70,063,35,19,74,203,42,24,43,301,43*73
$GPGSV,3,3,12,28,40,084,28,30,05,144,*75
$GPGLL,4738.37905,N,12207.73378,W,042930.00,A,A*79
$GPGST,042930.00,28,,,,8.4,8.2,25*7E
$GPZDA,042930.00,26,02,2016,00,00*69
$GPRMC,042931.00,A,4738.37873,N,12207.73379,W,0.073,,260216,,,A*65
$GPVTG,,T,,M,0.073,N,0.136,K,A*23
$GPGGA,042931.00,4738.37873,N,12207.73379,W,1,06,0.99,123.1,M,-18.7,M,,*68
$GPGSA,A,3,17,28,24,01,12,15,,,,,,,2.12,0.99,1.87*01
$GPGSV,3,1,12,01,16,038,21,02,02,183,,06,28,154,37,12,17,282,24*7F
$GPGSV,3,2,12,15,21,253,23,17,70,063,35,19,74,203,42,24,43,301,43*73
$GPGSV,3,3,12,28,40,084,29,30,05,144,*74
$GPGLL,4738.37873,N,12207.73379,W,042931.00,A,A*79
$GPZDA,042931.00,26,02,2016,00,00*68
$GPGST,042931.00,37,,,,7.9,7.7,23*7F
$GPRMC,042932.00,A,4738.37858,N,12207.73368,W,0.110,,260216,,,A*6B
$GPVTG,,T,,M,0.110,N,0.203,K,A*22
$GPGGA,042932.00,4738.37858,N,12207.73368,W,1,06,0.99,123.1,M,-18.7,M,,*62
$GPGSA,A,3,17,28,24,01,12,15,,,,,,,2.12,0.99,1.87*01
$GPGSV,3,1,12,01,16,038,21,02,02,183,,06,28,154,37,12,17,282,25*7E
$GPGSV,3,2,12,15,21,253,23,17,70,063,34,19,74,203,41,24,43,301,43*71
$GPGSV,3,3,12,28,40,084,28,30,05,144,*75
$GPGLL,4738.37858,N,12207.73368,W,042932.00,A,A*73
$GPGST,042932.00,41,,,,7.5,7.4,22*73
$GPZDA,042932.00,26,02,2016,00,00*6B
$GPRMC,042933.00,A,4738.37863,N,12207.73340,W,0.379,172.66,260216,,,A*7F
$GPVTG,172.66,T,,M,0.379,N,0.702,K,A*31
$GPGGA,042933.00,4738.37863,N,12207.73340,W,1,07,0.99,122.5,M,-18.7,M,,*65
$GPGSA,A,3,17,28,24,06,01,12,15,,,,,,2.12,0.99,1.87*07
$GPGSV,3,1,12,01,16,038,20,02,02,183,,06,28,154,37,12,17,282,25*7F
$GPGSV,3,2,12,15,21,253,24,17,70,063,34,19,74,203,41,24,43,301,43*76
$GPGSV,3,3,12,28,40,085,28,30,05,144,*74
$GPGLL,4738.37863,N,12207.73340,W,042933.00,A,A*70
$GPGST,042933.00,54,,,,7.3,7.2,21*75
$GPZDA,042933.00,26,02,2016,00,00*6A
$GPRMC,042934.00,A,4738.37871,N,12207.73324,W,0.071,,260216,,,A*68
$GPVTG,,T,,M,0.071,N,0.131,K,A*26
$GPGGA,042934.00,4738.37871,N,12207.73324,W,1,07,0.99,122.0,M,-18.7,M,,*66
$GPGSA,A,3,17,28,24,06,01,12,15,,,,,,2.12,0.99,1.87*07
$GPGSV,3,1,12,01,16,038,20,02,02,183,,06,28,154,37,12,17,282,26*7C
$GPGSV,3,2,12,15,21,253,24,17,70,063,34,19,74,203,42,24,43,301,43*75
$GPGSV,3,3,12,28,40,085,27,30,05,144,*7B
$GPGST,042934.00,54,,,,7.2,7.1,21*70
$GPZDA,042934.00,26,02,2016,00,00*6D
$GPGLL,4738.37871,N,12207.73324,W,042934.00,A,A*76
$GPRMC,042935.00,A,4738.37879,N,12207.73314,W,0.281,166.73,260216,,,D*71
$GPVTG,166.73,T,,M,0.281,N,0.521,K,D*30
$GPGGA,042935.00,4738.37879,N,12207.73314,W,2,07,1.40,122.0,M,-18.7,M,,*6A
$GPGSA,A,3,17,28,24,06,01,12,15,,,,,,3.59,1.40,3.30*02
$GPGSV,3,1,12,01,16,038,19,02,02,183,,06,28,154,37,12,17,282,26*76
$GPGSV,3,2,12,15,21,253,24,17,70,063,34,19,74,203,42,24,43,301,43*75
$GPGSV,3,3,12,28,40,085,27,30,05,144,*7B
$GPGLL,4738.37879,N,12207.73314,W,042935.00,A,D*79
$GPGST,042935.00,26,,,,7.1,6.9,20*7F
$GPZDA,042935.00,26,02,2016,00,00*6C
$GPRMC,042936.00,A,4738.37892,N,12207.73299,W,1.112,158.96,260216,,,D*7D
$GPVTG,158.96,T,,M,1.112,N,2.060,K,D*3C
$GPGGA,042936.00,4738.37892,N,12207.73299,W,2,07,0.91,122.3,M,-18.7,M,,*66
$GPGSA,A,3,17,28,24,06,01,12,15,,,,,,2.04,0.91,1.82*0D
$GPGSV,3,1,12,01,16,038,20,02,02,183,,06,28,154,37,12,17,282,27*7D
$GPGSV,3,2,12,15,21,253,24,17,70,063,34,19,74,203,42,24,43,301,43*75
$GPGSV,3,3,12,28,40,085,27,30,05,144,*7B
$GPGLL,4738.37892,N,12207.73299,W,042936.00,A,D*7B
$GPGST,042936.00,50,,,,6.9,6.8,19*7F
$GPZDA,042936.00,26,02,2016,00,00*6F
$GPRMC,042937.00,A,4738.37874,N,12207.73300,W,0.477,152.12,260216,,,D*74
$GPVTG,152.12,T,,M,0.477,N,0.884,K,D*3D
$GPGGA,042937.00,4738.37874,N,12207.73300,W,2,07,0.84,125.0,M,-18.7,M,,*6E
$GPGSA,A,3,17,28,24,06,01,12,15,,,,,,1.93,0.84,1.73*0A
$GPGSV,3,1,12,01,16,038,20,02,02,183,,06,28,154,37,12,17,282,27*7D
$GPGSV,3,2,12,15,21,253,23,17,70,063,34,19,74,203,42,24,43,301,43*72
$GPGSV,3,3,12,28,40,085,28,30,05,144,*74
$GPGLL,4738.37874,N,12207.73300,W,042937.00,A,D*73
$GPGST,042937.00,49,,,,6.7,6.6,18*77
$GPZDA,042937.00,26,02,2016,00,00*6E
$GPRMC,042938.00,A,4738.37859,N,12207.73300,W,0.435,144.08,260216,,,D*7E
$GPVTG,144.08,T,,M,0.435,N,0.807,K,D*3C
$GPGGA,042938.00,4738.37859,N,12207.73300,W,2,07,0.84,127.5,M,-18.7,M,,*69
$GPGSA,A,3,17,28,24,06,01,12,15,,,,,,1.93,0.84,1.73*0A
$GPGSV,3,1,12,01,16,038,20,02,02,183,,06,28,154,38,12,17,282,27*72
$GPGSV,3,2,12,15,21,253,21,17,70,063,34,19,74,203,42,24,43,301,43*70
$GPGSV,3,3,12,28,40,085,28,30,05,144,*74
$GPGLL,4738.37859,N,12207.73300,W,042938.00,A,D*73
$GPGST,042938.00,50,,,,6.6,6.4,17*7C
$GPZDA,042938.00,26,02,2016,00,00*61
$GPRMC,042939.00,A,4738.37823,N,12207.73330,W,0.631,149.73,260216,,,D*76
$GPVTG,149.73,T,,M,0.631,N,1.170,K,D*33
$GPGGA,042939.00,4738.37823,N,12207.73330,W,2,07,0.84,130.1,M,-18.7,M,,*64
$GPGSA,A,3,17,28,24,06,01,12,15,,,,,,1.93,0.84,1.73*0A
$GPGSV,3,1,12,01,16,038,21,02,02,183,,06,28,154,38,12,17,282,27*73
$GPGSV,3,2,12,15,21,253,21,17,70,063,33,19,74,203,42,24,43,301,43*77
$GPGSV,3,3,12,28,40,085,28,30,05,144,*74
$GPGLL,4738.37823,N,12207.73330,W,042939.00,A,D*7C
$GPGST,042939.00,38,,,,6.4,6.3,16*77
$GPZDA,042939.00,26,02,2016,00,00*60
$GPRMC,042940.00,A,4738.37805,N,12207.73326,W,0.033,,260216,,,D*69
$GPVTG,,T,,M,0.033,N,0.061,K,D*21
$GPGGA,042940.00,4738.37805,N,12207.73326,W,2,07,0.84,131.7,M,-18.7,M,,*6E
$GPGSA,A,3,17,28,24,06,01,12,15,,,,,,1.93,0.84,1.73*0A
$GPGSV,3,1,12,01,16,038,20,02,02,183,,06,28,154,38,12,17,282,27*72
$GPGSV,3,2,12,15,21,253,20,17,70,063,34,19,74,203,42,24,43,301,43*71
$GPGSV,3,3,12,28,40,085,27,30,05,144,*7B
$GPGLL,4738.37805,N,12207.73326,W,042940.00,A,D*71
$GPGST,042940.00,60,,,,6.3,6.2,16*72
$GPZDA,042940.00,26,02,2016,00,00*6E
$GPRMC,042941.00,A,4738.37780,N,12207.73327,W,0.626,153.69,260216,,,D*7F
$GPVTG,153.69,T,,M,0.626,N,1.160,K,D*34
$GPGGA,042941.00,4738.37780,N,12207.73327,W,2,07,0.84,133.6,M,-18.7,M,,*6F
$GPGSA,A,3,17,28,24,06,01,12,15,,,,,,1.93,0.84,1.73*0A
$GPGSV,3,1,12,01,16,038,20,02,02,183,,06,28,154,38,12,17,282,28*7D
$GPGSV,3,2,12,15,21,253,20,17,70,063,34,19,74,203,42,24,43,301,43*71
$GPGSV,3,3,12,28,40,085,27,30,05,144,*7B
$GPGLL,4738.37780,N,12207.73327,W,042941.00,A,D*73
$GPGST,042941.00,60,,,,6.2,6.1,15*72
$GPZDA,042941.00,26,02,2016,00,00*6F
$GPRMC,042942.00,A,4738.37773,N,12207.73319,W,0.209,159.44,260216,,,D*71
$GPVTG,159.44,T,,M,0.209,N,0.387,K,D*32
$GPGGA,042942.00,4738.37773,N,12207.73319,W,2,07,1.26,134.1,M,-18.7,M,,*64
$GPGSA,A,3,17,28,24,06,01,12,15,,,,,,2.95,1.26,2.67*00
$GPGSV,3,1,12,01,16,038,19,02,02,183,,06,28,154,38,12,17,282,28*77
$GPGSV,3,2,12,15,21,253,20,17,70,063,33,19,74,203,42,24,43,301,43*76
$GPGSV,3,3,12,28,40,085,27,30,05,144,*7B
$GPGLL,4738.37773,N,12207.73319,W,042942.00,A,D*71
$GPGST,042942.00,49,,,,6.2,6.1,15*7A
$GPZDA,042942.00,26,02,2016,00,00*6C
$GPRMC,042943.00,A,4738.37769,N,12207.73306,W,0.091,,260216,,,D*65
$GPVTG,,T,,M,0.091,N,0.168,K,D*21
$GPGGA,042943.00,4738.37769,N,12207.73306,W,2,07,1.26,134.5,M,-18.7,M,,*64
$GPGSA,A,3,17,28,24,06,01,12,15,,,,,,2.96,1.26,2.67*03
$GPGSV,3,1,12,01,16,038,19,02,02,183,,06,28,154,37,12,17,282,28*78
$GPGSV,3,2,12,15,21,253,20,17,70,063,34,19,74,203,42,24,43,301,43*71
$GPGSV,3,3,12,28,40,085,26,30,05,144,*7A
$GPGLL,4738.37769,N,12207.73306,W,042943.00,A,D*75
$GPZDA,042943.00,26,02,2016,00,00*6D
$GPGST,042943.00,48,,,,6.2,6.2,15*79
$GPRMC,042944.00,A,4738.37753,N,12207.73302,W,0.244,152.96,260216,,,D*72
$GPVTG,152.96,T,,M,0.244,N,0.452,K,D*30
$GPGGA,042944.00,4738.37753,N,12207.73302,W,2,07,0.84,135.6,M,-18.7,M,,*65
$GPGSA,A,3,17,28,24,06,01,12,15,,,,,,1.93,0.84,1.73*0A
$GPGSV,3,1,12,01,16,038,20,02,02,183,,06,28,154,37,12,17,282,28*72
$GPGSV,3,2,12,15,21,253,20,17,70,063,35,19,74,203,42,24,43,301,43*70
$GPGSV,3,3,12,28,40,085,26,30,05,144,*7A
$GPGLL,4738.37753,N,12207.73302,W,042944.00,A,D*7F
$GPZDA,042944.00,26,02,2016,00,00*6A
$GPGST,042944.00,61,,,,6.1,6.2,14*77
$GPRMC,042945.00,A,4738.37751,N,12207.73277,W,0.886,147.34,260216,,,D*7A
$GPVTG,147.34,T,,M,0.886,N,1.642,K,D*3A
$GPGGA,042945.00,4738.37751,N,12207.73277,W,2,07,1.26,136.7,M,-18.7,M,,*6E
$GPGSA,A,3,17,28,24,06,01,12,15,,,,,,2.96,1.26,2.67*03
$GPGSV,3,1,12,01,16,038,19,02,02,183,,06,28,154,37,12,17,282,28*78
$GPGSV,3,2,12,15,21,253,21,17,70,063,35,19,74,203,42,24,43,301,43*71
$GPGSV,3,3,12,28,40,085,26,30,05,144,*7A
$GPGLL,4738.37751,N,12207.73277,W,042945.00,A,D*7F
$GPGST,042945.00,32,,,,6.1,6.2,14*70
$GPZDA,042945.00,26,02,2016,00,00*6B
$GPRMC,042946.00,A,4738.37736,N,12207.73259,W,0.348,148.86,260216,,,D*7B
$GPVTG,148.86,T,,M,0.348,N,0.646,K,D*30
$GPGGA,042946.00,4738.37736,N,12207.73259,W,2,07,1.26,138.5,M,-18.7,M,,*6C
$GPGSA,A,3,17,28,24,06,01,12,15,,,,,,2.96,1.26,2.67*03
$GPGSV,3,1,12,01,16,038,19,02,02,183,,06,28,154,37,12,17,282,29*79
$GPGSV,3,2,12,15,21,253,22,17,70,063,34,19,74,203,42,24,43,301,43*73
$GPGSV,3,3,12,28,40,085,26,30,05,144,*7A
$GPGLL,4738.37736,N,12207.73259,W,042946.00,A,D*71
$GPGST,042946.00,30,,,,6.1,6.2,14*71
$GPZDA,042946.00,26,02,2016,00,00*68
$GPRMC,042947.00,A,4738.37723,N,12207.73253,W,0.323,153.95,260216,,,D*71
$GPVTG,153.95,T,,M,0.323,N,0.598,K,D*35
$GPGGA,042947.00,4738.37723,N,12207.73253,W,2,07,1.26,140.1,M,-18.7,M,,*68
$GPGSA,A,3,17,28,24,06,01,12,15,,,,,,2.96,1.26,2.67*03
$GPGSV,3,1,12,01,16,038,18,02,02,183,,06,28,154,37,12,17,282,29*78
$GPGSV,3,2,12,15,21,253,23,17,70,063,34,19,74,203,42,24,43,301,43*72
$GPGSV,3,3,12,28,40,085,26,30,05,144,*7A
$GPGLL,4738.37723,N,12207.73253,W,042947.00,A,D*7E
$GPGST,042947.00,28,,,,6.1,6.3,13*7F
$GPZDA,042947.00,26,02,2016,00,00*69
$GPRMC,042948.00,A,4738.37711,N,12207.73255,W,0.392,159.77,260216,,,D*75
$GPVTG,159.77,T,,M,0.392,N,0.727,K,D*3F
$GPGGA,042948.00,4738.37711,N,12207.73255,W,2,07,1.26,141.6,M,-18.7,M,,*66
$GPGSA,A,3,17,28,24,06,01,12,15,,,,,,2.96,1.26,2.67*03
$GPGSV,3,1,12,01,16,038,16,02,02,183,,06,28,154,37,12,17,282,29*76
$GPGSV,3,2,12,15,21,253,23,17,70,063,34,19,74,203,42,24,43,301,43*72
$GPGSV,3,3,12,28,40,085,26,30,05,144,*7A
$GPGLL,4738.37711,N,12207.73255,W,042948.00,A,D*76
$GPGST,042948.00,28,,,,6.1,6.3,13*70
$GPZDA,042948.00,26,02,2016,00,00*66
$GPRMC,042949.00,A,4738.37709,N,12207.73305,W,0.848,168.95,260216,,,D*7B
$GPVTG,168.95,T,,M,0.848,N,1.571,K,D*3D
$GPGGA,042949.00,4738.37709,N,12207.73305,W,2,07,1.26,141.8,M,-18.7,M,,*64
$GPGSA,A,3,17,28,24,06,01,12,15,,,,,,2.96,1.26,2.68*0C
$GPGSV,3,1,12,01,16,038,18,02,02,183,,06,28,154,39,12,17,282,28*77
$GPGSV,3,2,12,15,21,253,30,17,70,063,37,19,74,203,42,24,43,301,42*72
$GPGSV,3,3,12,28,40,085,27,30,05,144,*7B
$GPGLL,4738.37709,N,12207.73305,W,042949.00,A,D*7A
$GPGST,042949.00,20,,,,5.9,5.9,13*7B
$GPZDA,042949.00,26,02,2016,00,00*67
$GPRMC,042950.00,A,4738.37689,N,12207.73442,W,1.534,178.40,260216,,,D*70
$GPVTG,178.40,T,,M,1.534,N,2.842,K,D*3D
$GPGGA,042950.00,4738.37689,N,12207.73442,W,2,07,0.91,141.3,M,-18.7,M,,*67
$GPGSA,A,3,17,28,24,06,01,12,15,,,,,,2.04,0.91,1.82*0D
$GPGSV,4,1,13,01,16,038,32,02,02,183,,06,28,154,30,12,17,282,28*70
$GPGSV,4,2,13,13,,,30,15,21,253,29,17,70,063,38,19,74,203,39*4B
$GPGSV,4,3,13,24,43,301,36,28,40,085,33,30,05,144,*4E
$GPGSV,4,4,13*7B
$GPGLL,4738.37689,N,12207.73442,W,042950.00,A,D*7F
$GPGST,042950.00,18,,,,5.2,5.1,11*79
$GPZDA,042950.00,26,02,2016,00,00*6F
$GPRMC,042951.00,A,4738.37747,N,12207.73506,W,2.120,303.25,260216,,,D*7C
$GPVTG,303.25,T,,M,2.120,N,3.928,K,D*3E
$GPGGA,042951.00,4738.37747,N,12207.73506,W,2,07,0.84,140.5,M,-18.7,M,,*67
$GPGSA,A,3,17,28,24,06,01,12,15,,,,,,1.93,0.84,1.73*0A
$GPGSV,4,1,13,01,16,038,26,02,02,183,,06,28,154,30,12,17,282,33*7F
$GPGSV,4,2,13,13,,,30,15,21,253,30,17,70,063,35,19,74,203,40*40
$GPGSV,4,3,13,24,43,301,41,28,40,085,31,30,05,144,*4C
$GPGSV,4,4,13*7B
$GPGLL,4738.37747,N,12207.73506,W,042951.00,A,D*7C
$GPGST,042951.00,22,,,,5.0,5.0,11*72
$GPZDA,042951.00,26,02,2016,00,00*6E
$GPRMC,042952.00,A,4738.37855,N,12207.73561,W,3.689,329.32,260216,,,D*79
$GPVTG,329.32,T,,M,3.689,N,6.836,K,D*3E
$GPGGA,042952.00,4738.37855,N,12207.73561,W,2,07,0.84,139.2,M,-18.7,M,,*60
$GPGSA,A,3,17,28,24,06,01,12,15,,,,,,1.93,0.84,1.73*0A
$GPGSV,4,1,13,01,16,038,24,02,02,183,,06,28,154,29,12,17,282,28*7F
$GPGSV,4,2,13,13,,,30,15,21,253,32,17,70,063,32,19,74,203,39*4B
$GPGSV,4,3,13,24,43,301,38,28,40,085,31,30,05,144,*42
$GPGSV,4,4,13*7B
$GPGLL,4738.37855,N,12207.73561,W,042952.00,A,D*72
$GPGST,042952.00,26,,,,4.6,4.8,11*7B
$GPZDA,042952.00,26,02,2016,00,00*6D
$GPRMC,042953.00,A,4738.37979,N,12207.73623,W,3.688,327.11,260216,,,D*7C
$GPVTG,327.11,T,,M,3.688,N,6.834,K,D*32
$GPGGA,042953.00,4738.37979,N,12207.73623,W,2,07,0.84,138.0,M,-18.7,M,,*68
$GPGSA,A,3,17,28,24,06,01,12,15,,,,,,1.93,0.84,1.73*0A
$GPGSV,4,1,13,01,16,038,25,02,02,183,,06,28,154,28,12,17,282,28*7F
$GPGSV,4,2,13,13,,,29,15,21,253,33,17,70,063,35,19,74,203,39*45
$GPGSV,4,3,13,24,43,301,39,28,40,085,33,30,05,144,*41
$GPGSV,4,4,13*7B
$GPGLL,4738.37979,N,12207.73623,W,042953.00,A,D*79
$GPGST,042953.00,24,,,,4.3,4.7,10*73
$GPZDA,042953.00,26,02,2016,00,00*6C
$GPRMC,042954.00,A,4738.38105,N,12207.73754,W,5.043,310.78,260216,,,D*7A
$GPVTG,310.78,T,,M,5.043,N,9.345,K,D*3C
$GPGGA,042954.00,4738.38105,N,12207.73754,W,2,07,0.84,136.1,M,-18.7,M,,*6D
$GPGSA,A,3,17,28,24,06,01,12,15,,,,,,1.93,0.84,1.73*0A
$GPGSV,4,1,13,01,16,038,24,02,02,183,,06,28,154,28,12,17,282,36*71
$GPGSV,4,2,13,13,,,30,15,21,253,34,17,70,063,32,19,74,203,39*4D
$GPGSV,4,3,13,24,43,301,33,28,40,085,33,30,05,144,*4B
$GPGSV,4,4,13*7B
$GPGLL,4738.38105,N,12207.73754,W,042954.00,A,D*73
$GPGST,042954.00,25,,,,4.2,4.7,9.9*5B
$GPZDA,042954.00,26,02,2016,00,00*6B
$GPRMC,042955.00,A,4738.38159,N,12207.74044,W,6.246,286.11,260216,,,D*76
$GPVTG,286.11,T,,M,6.246,N,11.573,K,D*03
$GPGGA,042955.00,4738.38159,N,12207.74044,W,2,07,0.84,133.1,M,-18.7,M,,*61
$GPGSA,A,3,17,28,24,06,01,12,15,,,,,,1.93,0.84,1.73*0A
$GPGSV,4,1,13,01,16,038,23,02,02,183,,06,28,154,32,12,17,282,36*7D
$GPGSV,4,2,13,13,,,27,15,21,253,33,17,70,063,38,19,74,203,38*47
$GPGSV,4,3,13,24,43,301,33,28,40,085,36,30,05,144,*4E
$GPGSV,4,4,13*7B
$GPGLL,4738.38159,N,12207.74044,W,042955.00,A,D*7A
$GPGST,042955.00,21,,,,4.3,4.4,9.4*51
$GPZDA,042955.00,26,02,2016,00,00*6A
$GPRMC,042956.00,A,4738.38242,N,12207.74275,W,6.563,297.64,260216,,,D*7E
$GPVTG,297.64,T,,M,6.563,N,12.162,K,D*06
$GPGGA,042956.00,4738.38242,N,12207.74275,W,2,07,0.90,129.9,M,-18.7,M,,*6D
$GPGSA,A,3,17,28,24,06,01,12,15,,,,,,1.96,0.90,1.74*0D
$GPGSV,4,1,13,01,16,038,21,02,02,183,,06,28,154,32,12,17,282,28*70
$GPGSV,4,2,13,13,,,32,15,21,253,36,17,70,063,41,19,74,203,40*47
$GPGSV,4,3,13,24,43,301,38,28,40,085,38,30,05,144,*4B
$GPGLL,4738.38242,N,12207.74275,W,042956.00,A,D*70
$GPGST,042956.00,26,,,,4.4,3.9,8.8*55
$GPZDA,042956.00,26,02,2016,00,00*69
$GPGSV,4,4,13*7B
$GPRMC,042957.00,A,4738.38297,N,12207.74555,W,8.271,279.35,260216,,,D*7C
$GPVTG,279.35,T,,M,8.271,N,15.326,K,D*0D
$GPGGA,042957.00,4738.38297,N,12207.74555,W,2,07,0.90,128.3,M,-18.7,M,,*6A
$GPGSA,A,3,17,28,24,06,01,12,15,,,,,,1.96,0.90,1.74*0D
$GPGSV,4,1,13,01,16,038,21,02,02,183,,06,28,154,37,12,17,282,28*75
$GPGSV,4,2,13,13,,,28,15,21,253,25,17,70,063,38,19,74,203,38*4F
$GPGSV,4,3,13,24,43,301,33,28,40,085,38,30,05,144,*40
$GPGSV,4,4,13*7B
$GPGLL,4738.38297,N,12207.74555,W,042957.00,A,D*7C
$GPGST,042957.00,27,,,,4.5,3.7,8.5*57
$GPZDA,042957.00,26,02,2016,00,00*68
$GPRMC,042958.00,A,4738.38309,N,12207.74898,W,8.946,266.57,260216,,,D*7C
$GPVTG,266.57,T,,M,8.946,N,16.577,K,D*09
$GPGGA,042958.00,4738.38309,N,12207.74898,W,2,07,0.90,127.8,M,-18.7,M,,*6B
$GPGSA,A,3,17,28,24,06,01,12,15,,,,,,1.96,0.90,1.74*0D
$GPGSV,4,1,13,01,16,038,22,02,02,183,,06,28,154,23,12,17,282,27*7C
$GPGSV,4,2,13,13,,,35,15,21,253,31,17,70,063,34,19,74,203,37*45
$GPGSV,4,3,13,24,43,301,33,28,40,085,36,30,05,144,*4E
$GPGSV,4,4,13*7B
$GPGLL,4738.38309,N,12207.74898,W,042958.00,A,D*79
$GPZDA,042958.00,26,02,2016,00,00*67
$GPGST,042958.00,32,,,,4.9,3.9,8.3*58
$GPRMC,042959.00,A,4738.38358,N,12207.75259,W,9.004,277.64,260216,,,D*71
$GPVTG,277.64,T,,M,9.004,N,16.684,K,D*08
$GPGGA,042959.00,4738.38358,N,12207.75259,W,2,07,0.90,127.4,M,-18.7,M,,*64
$GPGSA,A,3,17,28,24,06,01,12,15,,,,,,1.96,0.90,1.74*0D
$GPGSV,4,1,13,01,16,038,22,02,02,183,,06,28,154,31,12,17,282,27*7F
$GPGSV,4,2,13,13,,,27,15,21,253,27,17,70,063,35,19,74,203,34*43
$GPGSV,4,3,13,24,43,301,40,28,40,085,33,30,05,144,*4F
$GPGSV,4,4,13*7B
$GPGLL,4738.38358,N,12207.75259,W,042959.00,A,D*7A
$GPGST,042959.00,29,,,,5.2,3.9,8.2*58
$GPZDA,042959.00,26,02,2016,00,00*66
$GPRMC,043000.00,A,4738.38360,N,12207.75661,W,10.028,263.33,260216,,,D*40
$GPVTG,263.33,T,,M,10.028,N,18.582,K,D*32
$GPGGA,043000.00,4738.38360,N,12207.75661,W,2,07,0.90,127.0,M,-18.7,M,,*60
$GPGSA,A,3,17,28,24,06,01,12,15,,,,,,1.96,0.90,1.74*0D
$GPGSV,4,1,13,01,16,038,21,02,02,183,,06,28,154,25,12,17,282,33*7C
$GPGSV,4,2,13,13,,,35,15,21,253,28,17,70,063,34,19,74,203,34*4E
$GPGSV,4,3,13,24,43,301,33,28,40,085,35,30,05,144,*4D
$GPGSV,4,4,13*7B
$GPGLL,4738.38360,N,12207.75661,W,043000.00,A,D*7A
$GPGST,043000.00,28,,,,5.7,4.0,8.1*55
$GPZDA,043000.00,26,02,2016,00,00*62
$GPRMC,043001.00,A,4738.38317,N,12207.76077,W,10.686,242.61,260216,,,D*45
$GPVTG,242.61,T,,M,10.686,N,19.802,K,D*30
$GPGGA,043001.00,4738.38317,N,12207.76077,W,2,07,0.90,126.0,M,-18.7,M,,*62
$GPGSA,A,3,17,28,24,06,01,12,15,,,,,,1.96,0.90,1.74*0D
$GPGSV,4,1,13,01,16,038,21,02,02,183,,06,28,154,25,12,17,282,30*7F
$GPGSV,4,2,13,13,,,31,15,21,253,26,17,70,063,37,19,74,203,31*42
$GPGSV,4,3,13,24,43,301,30,28,40,085,32,30,05,144,*49
$GPGSV,4,4,13*7B
$GPGLL,4738.38317,N,12207.76077,W,043001.00,A,D*79
$GPGST,043001.00,31,,,,5.0,4.3,8.0*59
$GPZDA,043001.00,26,02,2016,00,00*63
$GPRMC,043002.00,A,4738.38160,N,12207.76489,W,11.185,230.67,260216,,,D*47
$GPVTG,230.67,T,,M,11.185,N,20.725,K,D*36
$GPGGA,043002.00,4738.38160,N,12207.76489,W,2,07,0.84,125.0,M,-18.7,M,,*60
$GPGSA,A,3,17,28,24,06,01,12,15,,,,,,1.93,0.84,1.73*0A
$GPGSV,4,1,13,01,16,038,21,02,02,183,,06,28,154,31,12,17,282,26*7D
$GPGSV,4,2,13,13,,,27,15,21,253,35,17,70,063,38,19,74,203,38*41
$GPGSV,4,3,13,24,43,301,35,28,40,085,32,30,05,144,*4C
$GPGSV,4,4,13*7B
$GPGLL,4738.38160,N,12207.76489,W,043002.00,A,D*7D
$GPGST,043002.00,27,,,,4.9,4.4,7.8*55
$GPZDA,043002.00,26,02,2016,00,00*60
$GPRMC,043003.00,A,4738.38053,N,12207.76946,W,11.403,247.54,260216,,,D*42
$GPVTG,247.54,T,,M,11.403,N,21.130,K,D*3E
$GPGGA,043003.00,4738.38053,N,12207.76946,W,2,07,0.84,124.2,M,-18.7,M,,*6D
$GPGSA,A,3,17,28,24,06,01,12,15,,,,,,1.93,0.84,1.73*0A
$GPGSV,4,1,13,01,16,038,23,02,02,183,,06,28,154,25,12,17,282,34*79
$GPGSV,4,2,13,13,,,33,15,21,253,26,17,70,063,38,19,74,203,39*47
$GPGSV,4,3,13,24,43,301,34,28,40,085,36,30,05,144,*49
$GPGSV,4,4,13*7B
$GPGLL,4738.38053,N,12207.76946,W,043003.00,A,D*73
$GPGST,043003.00,27,,,,4.6,4.3,7.6*52
$GPZDA,043003.00,26,02,2016,00,00*61
$GPRMC,043004.00,A,4738.37969,N,12207.77461,W,12.238,261.29,260216,,,D*40
$GPVTG,261.29,T,,M,12.238,N,22.676,K,D*3B
$GPGGA,043004.00,4738.37969,N,12207.77461,W,2,07,0.84,123.9,M,-18.7,M,,*60
$GPGSA,A,3,17,28,24,06,01,12,15,,,,,,1.93,0.84,1.73*0A
$GPGSV,4,1,13,01,16,038,31,02,02,183,,06,28,154,25,12,17,282,37*79
$GPGSV,4,2,13,13,,,38,15,21,253,27,17,70,063,37,19,74,203,36*4D
$GPGSV,4,3,13,24,43,301,34,28,40,085,36,30,05,144,*49
$GPGSV,4,4,13*7B
$GPGLL,4738.37969,N,12207.77461,W,043004.00,A,D*72
$GPGST,043004.00,23,,,,4.7,4.1,7.3*57
$GPZDA,043004.00,26,02,2016,00,00*66
$GPRMC,043005.00,A,4738.37910,N,12207.77970,W,12.836,259.36,260216,,,D*43
$GPVTG,259.36,T,,M,12.836,N,23.784,K,D*37
$GPGGA,043005.00,4738.37910,N,12207.77970,W,2,07,0.84,123.4,M,-18.7,M,,*6F
$GPGSA,A,3,17,28,24,06,01,12,15,,,,,,1.93,0.84,1.73*0A
$GPGSV,4,1,13,01,16,038,24,02,02,183,,06,28,154,24,12,17,282,27*7D
$GPGSV,4,2,13,13,,,33,15,21,253,26,17,70,063,36,19,74,203,36*46
$GPGSV,4,3,13,24,43,301,40,28,40,085,32,30,05,144,*4E
$GPGSV,4,4,13*7B
$GPGLL,4738.37910,N,12207.77970,W,043005.00,A,D*70
$GPGST,043005.00,30,,,,4.8,4.1,7.2*5A
$GPZDA,043005.00,26,02,2016,00,00*67
$GPRMC,043006.00,A,4738.37884,N,12207.78442,W,9.180,253.26,260216,,,D*7A
$GPVTG,253.26,T,,M,9.180,N,17.010,K,D*0F
$GPGGA,043006.00,4738.37884,N,12207.78442,W,2,07,0.84,123.3,M,-18.7,M,,*64
$GPGSA,A,3,17,28,24,06,01,12,15,,,,,,1.93,0.84,1.73*0A
$GPGSV,4,1,13,01,16,038,21,02,02,183,,06,28,154,30,12,17,282,28*72
$GPGSV,4,2,13,13,,,28,15,21,253,25,17,70,063,36,19,74,203,38*41
$GPGSV,4,3,13,24,43,301,40,28,40,085,33,30,05,144,*4F
$GPGSV,4,4,13*7B
$GPGLL,4738.37884,N,12207.78442,W,043006.00,A,D*7C
$GPGST,043006.00,31,,,,5.0,4.1,7.1*52
$GPZDA,043006.00,26,02,2016,00,00*64
$GPRMC,043007.00,A,4738.37884,N,12207.78718,W,5.802,273.17,260216,,,D*78
$GPVTG,273.17,T,,M,5.802,N,10.751,K,D*05
$GPGGA,043007.00,4738.37884,N,12207.78718,W,2,07,0.90,122.6,M,-18.7,M,,*68
$GPGSA,A,3,17,28,24,06,01,12,15,,,,,,1.96,0.90,1.74*0D
$GPGSV,4,1,13,01,16,038,28,02,02,183,,06,28,154,29,12,17,282,31*7B
$GPGSV,4,2,13,13,,,29,15,21,253,23,17,70,063,36,19,74,203,38*46
$GPGSV,4,3,13,24,43,301,40,28,40,085,33,30,05,144,*4F
$GPGSV,4,4,13*7B
$GPGLL,4738.37884,N,12207.78718,W,043007.00,A,D*71
$GPGST,043007.00,26,,,,5.2,4.0,7.0*57
$GPZDA,043007.00,26,02,2016,00,00*65
$GPRMC,043008.00,A,4738.37894,N,12207.78965,W,5.414,267.92,260216,,,D*71
$GPVTG,267.92,T,,M,5.414,N,10.032,K,D*04
$GPGGA,043008.00,4738.37894,N,12207.78965,W,2,07,0.90,122.2,M,-18.7,M,,*66
$GPGSA,A,3,17,28,24,06,01,12,15,,,,,,1.96,0.90,1.74*0D
$GPGSV,4,1,13,01,16,038,26,02,02,183,,06,28,154,29,12,17,282,30*74
$GPGSV,4,2,13,13,,,27,15,21,253,22,17,70,063,36,19,74,203,38*49
$GPGSV,4,3,13,24,43,301,40,28,40,085,33,30,05,144,*4F
$GPGSV,4,4,13*7B
$GPGLL,4738.37894,N,12207.78965,W,043008.00,A,D*7B
$GPGST,043008.00,28,,,,5.4,4.1,6.9*59
$GPZDA,043008.00,26,02,2016,00,00*6A
$GPRMC,043009.00,A,4738.37913,N,12207.79206,W,5.668,277.01,260216,,,D*73
$GPVTG,277.01,T,,M,5.668,N,10.504,K,D*06
$GPGGA,043009.00,4738.37913,N,12207.79206,W,2,07,0.90,121.8,M,-18.7,M,,*6F
$GPGSA,A,3,17,28,24,06,01,12,15,,,,,,1.96,0.90,1.74*0D
$GPGSV,4,1,13,01,16,038,25,02,02,183,,06,28,154,29,12,17,282,30*77
$GPGSV,4,2,13,13,,,28,15,21,253,24,17,70,063,36,19,74,203,38*40
$GPGSV,4,3,13,24,43,301,40,28,40,085,33,30,05,144,*4F
$GPGSV,4,4,13*7B
$GPGLL,4738.37913,N,12207.79206,W,043009.00,A,D*7B
$GPGST,043009.00,27,,,,5.7,4.1,6.8*55
$GPZDA,043009.00,26,02,2016,00,00*6B
$GPRMC,043010.00,A,4738.37929,N,12207.79527,W,8.146,273.53,260216,,,D*73
$GPVTG,273.53,T,,M,8.146,N,15.094,K,D*0A
$GPGGA,043010.00,4738.37929,N,12207.79527,W,2,07,0.90,121.2,M,-18.7,M,,*60
$GPGSA,A,3,17,28,24,06,01,12,15,,,,,,1.96,0.90,1.74*0D
$GPGSV,4,1,13,01,16,038,26,02,02,183,,06,28,154,30,12,17,282,30*7C
$GPGSV,4,2,13,13,,,27,15,21,253,24,17,70,063,37,19,74,203,37*41
$GPGSV,4,3,13,24,43,301,40,28,40,085,33,30,05,144,19*47
$GPGSV,4,4,13*7B
$GPGLL,4738.37929,N,12207.79527,W,043010.00,A,D*7E
$GPGST,043010.00,26,,,,5.9,4.1,6.7*5D
$GPZDA,043010.00,26,02,2016,00,00*63
$GPRMC,043011.00,A,4738.37941,N,12207.79956,W,10.712,272.35,260216,,,D*49
$GPVTG,272.35,T,,M,10.712,N,19.849,K,D*31
$GPGGA,043011.00,4738.37941,N,12207.79956,W,2,07,0.90,120.4,M,-18.7,M,,*62
$GPGSA,A,3,17,28,24,06,01,12,15,,,,,,1.96,0.90,1.74*0D
$GPGSV,4,1,13,01,16,038,27,02,02,183,,06,28,154,33,12,17,282,30*7E
$GPGSV,4,2,13,13,,,26,15,21,253,30,17,70,063,38,19,74,203,37*4A
$GPGSV,4,3,13,24,43,301,39,28,40,085,34,30,05,144,18*4F
$GPGSV,4,4,13*7B
$GPGLL,4738.37941,N,12207.79956,W,043011.00,A,D*7B
$GPGST,043011.00,26,,,,6.0,4.0,6.6*56
$GPZDA,043011.00,26,02,2016,00,00*62
$GPRMC,043012.00,A,4738.37976,N,12207.80465,W,12.813,275.34,260216,,,D*4F
$GPVTG,275.34,T,,M,12.813,N,23.743,K,D*37
$GPGGA,043012.00,4738.37976,N,12207.80465,W,2,07,0.90,119.7,M,-18.7,M,,*67
$GPGSA,A,3,17,28,24,06,01,12,15,,,,,,1.96,0.90,1.74*0D
$GPGSV,4,1,13,01,16,038,26,02,02,183,,06,28,154,34,12,17,282,28*71
$GPGSV,4,2,13,13,,,25,15,21,253,31,17,70,063,38,19,74,203,37*48
$GPGSV,4,3,13,24,43,301,39,28,40,085,35,30,05,144,17*41
$GPGSV,4,4,13*7B
$GPGLL,4738.37976,N,12207.80465,W,043012.00,A,D*77
$GPGST,043012.00,25,,,,5.9,3.9,6.5*51
$GPZDA,043012.00,26,02,2016,00,00*61
$GPRMC,043013.00,A,4738.38079,N,12207.81021,W,14.139,277.73,260216,,,A*41
$GPVTG,277.73,T,,M,14.139,N,26.200,K,A*33
$GPGGA,043013.00,4738.38079,N,12207.81021,W,1,07,0.84,119.5,M,-18.7,M,,*6E
$GPGSA,A,3,17,28,24,06,01,12,15,,,,,,1.93,0.84,1.73*0A
$GPGSV,4,1,13,01,16,038,26,02,02,183,,06,28,154,35,12,17,282,26*7E
$GPGSV,4,2,13,13,,,24,15,21,253,36,17,70,063,37,19,74,203,37*41
$GPGSV,4,3,13,24,43,301,38,28,40,085,36,30,05,144,17*43
$GPGSV,4,4,13*7B
$GPGST,043013.00,25,,,,5.7,3.8,6.4*5E
$GPZDA,043013.00,26,02,2016,00,00*60
$GPGLL,4738.38079,N,12207.81021,W,043013.00,A,A*7F
$GPRMC,043014.00,A,4738.38089,N,12207.81553,W,11.643,273.14,260216,,,A*43
$GPVTG,273.14,T,,M,11.643,N,21.575,K,A*3B
$GPGGA,043014.00,4738.38089,N,12207.81553,W,1,07,0.84,119.1,M,-18.7,M,,*62
$GPGSA,A,3,17,28,24,06,01,12,15,,,,,,1.93,0.84,1.73*0A
$GPGSV,4,1,13,01,16,038,25,02,02,183,,06,28,154,36,12,17,282,24*7C
$GPGSV,4,2,13,13,,,31,15,21,253,35,17,70,063,37,19,74,203,37*46
$GPGSV,4,3,13,24,43,301,33,28,40,085,35,30,05,144,18*44
$GPGSV,4,4,13*7B
$GPGLL,4738.38089,N,12207.81553,W,043014.00,A,A*77
$GPGST,043014.00,25,,,,5.5,3.8,6.3*5C
$GPZDA,043014.00,26,02,2016,00,00*67
$GPRMC,043015.00,A,4738.38110,N,12207.81988,W,9.810,271.71,260216,,,A*79
$GPVTG,271.71,T,,M,9.810,N,18.179,K,A*09
$GPGGA,043015.00,4738.38110,N,12207.81988,W,1,07,0.90,118.8,M,-18.7,M,,*65
$GPGSA,A,3,17,28,24,06,01,12,15,,,,,,1.96,0.90,1.74*0D
$GPGSV,4,1,13,01,16,038,23,02,02,183,,06,28,154,33,12,17,282,25*7E
$GPGSV,4,2,13,13,,,35,15,21,253,34,17,70,063,37,19,74,203,35*41
$GPGSV,4,3,13,24,43,301,36,28,40,085,34,30,05,144,19*41
$GPGSV,4,4,13*7B
$GPGLL,4738.38110,N,12207.81988,W,043015.00,A,A*7D
$GPGST,043015.00,25,,,,5.7,3.9,6.3*5E
$GPZDA,043015.00,26,02,2016,00,00*66
$GPRMC,043016.00,A,4738.38127,N,12207.82327,W,6.084,270.45,260216,,,A*7E
$GPVTG,270.45,T,,M,6.084,N,11.274,K,A*02
$GPGGA,043016.00,4738.38127,N,12207.82327,W,1,07,0.90,118.3,M,-18.7,M,,*65
$GPGSA,A,3,17,28,24,06,01,12,15,,,,,,1.96,0.90,1.74*0D
$GPGSV,4,1,13,01,16,038,21,02,02,183,,06,28,154,25,12,17,282,25*7B
$GPGSV,4,2,13,13,,,35,15,21,253,31,17,70,063,39,19,74,203,36*49
$GPGSV,4,3,13,24,43,301,39,28,40,085,29,30,05,144,19*42
$GPGSV,4,4,13*7B
$GPGLL,4738.38127,N,12207.82327,W,043016.00,A,A*76
$GPGST,043016.00,32,,,,5.9,4.0,6.2*5A
$GPZDA,043016.00,26,02,2016,00,00*65
$GPRMC,043017.00,A,4738.38138,N,12207.82524,W,3.456,276.73,260216,,,A*79
$GPVTG,276.73,T,,M,3.456,N,6.404,K,A*38
$GPGGA,043017.00,4738.38138,N,12207.82524,W,1,07,1.01,118.1,M,-18.7,M,,*64
$GPGSA,A,3,17,28,24,06,01,12,15,,,,,,2.01,1.01,1.74*09
$GPGSV,4,1,13,01,15,037,19,02,02,183,,06,28,154,25,12,17,282,27*7E
$GPGSV,4,2,13,13,,,32,15,21,253,29,17,70,063,38,19,74,203,36*46
$GPGSV,4,3,13,24,43,301,40,28,40,085,30,30,05,144,19*44
$GPGSV,4,4,13*7B
$GPGLL,4738.38138,N,12207.82524,W,043017.00,A,A*7C
$GPGST,043017.00,34,,,,6.3,4.0,6.1*57
$GPZDA,043017.00,26,02,2016,00,00*64
$GPRMC,043018.00,A,4738.38173,N,12207.82664,W,3.958,271.99,260216,,,A*7E
$GPVTG,271.99,T,,M,3.958,N,7.334,K,A*3D
$GPGGA,043018.00,4738.38173,N,12207.82664,W,1,07,0.90,117.9,M,-18.7,M,,*6D
$GPGSA,A,3,17,28,24,06,01,12,15,,,,,,1.96,0.90,1.74*0D
$GPGSV,4,1,13,01,15,037,19,02,03,183,,06,28,154,26,12,17,282,29*72
$GPGSV,4,2,13,13,,,36,15,21,253,29,17,70,063,36,19,74,203,37*4D
$GPGSV,4,3,13,24,43,301,39,28,40,085,30,30,05,144,19*4A
$GPGSV,4,4,13*7B
$GPGST,043018.00,32,,,,6.6,4.1,6.1*5A
$GPZDA,043018.00,26,02,2016,00,00*6B
$GPGLL,4738.38173,N,12207.82664,W,043018.00,A,A*7B
$GPRMC,043019.00,A,4738.38202,N,12207.82893,W,5.535,277.88,260216,,,A*7B
$GPVTG,277.88,T,,M,5.535,N,10.256,K,A*09
$GPGGA,043019.00,4738.38202,N,12207.82893,W,1,07,0.90,117.6,M,-18.7,M,,*60
$GPGSA,A,3,17,28,24,06,01,12,15,,,,,,1.96,0.90,1.74*0D
$GPGSV,4,1,13,01,15,037,19,02,03,183,,06,28,154,27,12,17,282,30*7B
$GPGSV,4,2,13,13,,,37,15,21,253,36,17,70,063,39,19,74,203,37*4D
$GPGSV,4,3,13,24,43,301,37,28,40,085,35,30,05,144,19*41
$GPGSV,4,4,13*7B
$GPGLL,4738.38202,N,12207.82893,W,043019.00,A,A*79
$GPGST,043019.00,29,,,,6.6,4.0,6.0*51
$GPZDA,043019.00,26,02,2016,00,00*6A
$GPRMC,043020.00,A,4738.38292,N,12207.83078,W,7.198,293.14,260216,,,A*7A
$GPVTG,293.14,T,,M,7.198,N,13.338,K,A*0D
$GPGGA,043020.00,4738.38292,N,12207.83078,W,1,07,0.84,116.6,M,-18.7,M,,*6B
$GPGSA,A,3,17,28,24,06,01,12,15,,,,,,1.93,0.84,1.73*0A
$GPGSV,4,1,13,01,15,037,22,02,03,183,,06,28,154,35,12,17,282,25*74
$GPGSV,4,2,13,13,,,30,15,21,253,29,17,70,063,39,19,74,203,37*44
$GPGSV,4,3,13,24,43,301,37,28,40,085,39,30,05,144,18*4C
$GPGSV,4,4,13*7B
$GPGLL,4738.38292,N,12207.83078,W,043020.00,A,A*76
$GPGST,043020.00,26,,,,6.2,3.6,5.8*5A
$GPZDA,043020.00,26,02,2016,00,00*60
$GPRMC,043021.00,A,4738.38447,N,12207.83330,W,9.702,316.11,260216,,,A*78
$GPVTG,316.11,T,,M,9.702,N,17.978,K,A*05
$GPGGA,043021.00,4738.38447,N,12207.83330,W,1,07,0.84,116.1,M,-18.7,M,,*6C
$GPGSA,A,3,17,28,24,06,01,12,15,,,,,,1.93,0.84,1.73*0A
$GPGSV,4,1,13,01,15,037,31,02,03,183,,06,28,154,34,12,17,282,35*76
$GPGSV,4,2,13,13,,,31,15,21,253,36,17,70,063,38,19,74,203,40*4A
$GPGSV,4,3,13,24,43,301,35,28,40,085,36,30,05,144,17*4E
$GPGSV,4,4,13*7B
$GPGLL,4738.38447,N,12207.83330,W,043021.00,A,A*76
$GPGST,043021.00,15,,,,5.6,3.5,5.7*50
$GPZDA,043021.00,26,02,2016,00,00*61
$GPRMC,043022.00,A,4738.38684,N,12207.83494,W,11.189,344.44,260216,,,A*44
$GPVTG,344.44,T,,M,11.189,N,20.733,K,A*3B
$GPGGA,043022.00,4738.38684,N,12207.83494,W,1,07,0.84,115.7,M,-18.7,M,,*6E
$GPGSA,A,3,17,28,24,06,01,12,15,,,,,,1.93,0.84,1.73*0A
$GPGSV,4,1,13,01,15,037,24,02,03,183,,06,28,154,22,12,17,282,31*71
$GPGSV,4,2,13,13,,,26,15,21,253,33,17,70,063,38,19,74,203,40*49
$GPGSV,4,3,13,24,43,301,37,28,40,085,40,30,05,144,16*4C
$GPGSV,4,4,13*7B
$GPGLL,4738.38684,N,12207.83494,W,043022.00,A,A*71
$GPGST,043022.00,27,,,,4.9,3.3,5.6*5B
$GPZDA,043022.00,26,02,2016,00,00*62
$GPRMC,043023.00,A,4738.38978,N,12207.83580,W,13.993,353.82,260216,,,A*40
$GPVTG,353.82,T,,M,13.993,N,25.930,K,A*3E
$GPGGA,043023.00,4738.38978,N,12207.83580,W,1,07,1.26,115.7,M,-18.7,M,,*6E
$GPGSA,A,3,17,28,24,06,01,12,15,,,,,,2.96,1.26,2.68*0C
$GPGSV,4,1,13,01,15,037,24,02,03,183,,06,28,154,32,12,17,282,34*75
$GPGSV,4,2,13,13,,,32,15,21,253,25,17,70,063,38,19,74,203,42*49
$GPGSV,4,3,13,24,43,301,41,28,40,085,34,30,05,144,16*4E
$GPGSV,4,4,13*7B
$GPGLL,4738.38978,N,12207.83580,W,043023.00,A,A*78
$GPGST,043023.00,22,,,,4.6,3.3,5.5*53
$GPZDA,043023.00,26,02,2016,00,00*63
$GPRMC,043024.00,A,4738.39373,N,12207.83663,W,15.611,351.02,260216,,,A*40
$GPVTG,351.02,T,,M,15.611,N,28.928,K,A*33
$GPGGA,043024.00,4738.39373,N,12207.83663,W,1,07,1.26,115.7,M,-18.7,M,,*67
$GPGSA,A,3,17,28,24,06,01,12,15,,,,,,2.96,1.26,2.68*0C
$GPGSV,4,2,13,13,,,38,15,21,253,24,17,70,063,38,19,74,203,41*41
$GPGSV,4,3,13,24,43,301,40,28,40,085,30,30,05,144,17*4A
$GPGSV,4,1,13,01,15,037,32,02,03,183,,06,28,154,28,12,17,282,29*75
$GPGLL,4738.39373,N,12207.83663,W,043024.00,A,A*71
$GPGST,043024.00,26,,,,4.6,3.5,5.5*56
$GPZDA,043024.00,26,02,2016,00,00*64
$GPGSV,4,4,13*7B
$GPRMC,043025.00,A,4738.39885,N,12207.83706,W,19.577,356.57,260216,,,A*49
$GPVTG,356.57,T,,M,19.577,N,36.277,K,A*35
$GPGGA,043025.00,4738.39885,N,12207.83706,W,1,07,1.26,115.8,M,-18.7,M,,*69
$GPGSA,A,3,17,28,24,06,01,12,15,,,,,,2.96,1.26,2.68*0C
$GPGSV,4,1,13,01,15,037,33,02,03,183,,06,28,154,29,12,17,282,34*79
$GPGSV,4,2,13,13,,,35,15,21,253,25,17,70,063,38,19,74,203,41*4D
$GPGSV,4,3,13,24,43,301,39,28,40,085,29,30,05,144,22*4A
$GPGSV,4,4,13*7B
$GPGLL,4738.39885,N,12207.83706,W,043025.00,A,A*70
$GPGST,043025.00,24,,,,4.8,3.7,5.5*59
$GPZDA,043025.00,26,02,2016,00,00*65
$GPRMC,043026.00,A,4738.40578,N,12207.83619,W,23.616,0.36,260216,,,A*4E
$GPVTG,0.36,T,,M,23.616,N,43.760,K,A*3E
$GPGGA,043026.00,4738.40578,N,12207.83619,W,1,07,1.26,111.2,M,-18.7,M,,*6A
$GPGSA,A,3,17,28,24,06,01,12,15,,,,,,2.96,1.26,2.68*0C
$GPGSV,4,1,13,01,15,037,33,02,03,183,,06,28,154,22,12,17,282,29*7E
$GPGSV,4,2,13,13,,,34,15,21,253,31,17,70,063,38,19,74,203,40*48
$GPGSV,4,3,13,24,43,301,38,28,40,085,38,30,05,144,20*49
$GPGLL,4738.40578,N,12207.83619,W,043026.00,A,A*7D
$GPGSV,4,4,13*7B
$GPGST,043026.00,26,,,,17,8.6,32*59
$GPZDA,043026.00,26,02,2016,00,00*66
$GPRMC,043027.00,A,4738.41185,N,12207.83592,W,21.688,0.03,260216,,,A*4B
$GPVTG,0.03,T,,M,21.688,N,40.189,K,A*3F
$GPGGA,043027.00,4738.41185,N,12207.83592,W,1,07,0.84,112.1,M,-18.7,M,,*65
$GPGSA,A,3,17,28,24,06,01,12,15,,,,,,1.93,0.84,1.73*0A
$GPGSV,4,1,13,01,15,037,34,02,03,183,,06,28,154,24,12,17,282,33*74
$GPGSV,4,2,13,13,,,34,15,21,253,22,17,70,063,38,19,74,203,40*4A
$GPGSV,4,3,13,24,43,301,39,28,40,085,34,30,05,144,18*4F
$GPGSV,4,4,13*7B
$GPGLL,4738.41185,N,12207.83592,W,043027.00,A,A*7B
$GPGST,043027.00,28,,,,12,8.2,16*51
$GPZDA,043027.00,26,02,2016,00,00*67
$GPRMC,043028.00,A,4738.41801,N,12207.83544,W,21.486,0.61,260216,,,A*42
$GPVTG,0.61,T,,M,21.486,N,39.813,K,A*33
$GPGGA,043028.00,4738.41801,N,12207.83544,W,1,07,0.84,111.8,M,-18.7,M,,*6E
$GPGSA,A,3,17,28,24,06,01,12,15,,,,,,1.93,0.84,1.73*0A
$GPGSV,4,1,13,01,15,037,34,02,03,183,,06,28,154,31,12,18,282,29*74
$GPGSV,4,2,13,13,,,33,15,21,253,29,17,70,063,36,19,74,203,40*48
$GPGSV,4,3,13,24,43,301,39,28,40,085,37,30,05,144,16*42
$GPGSV,4,4,13*7B
$GPGLL,4738.41801,N,12207.83544,W,043028.00,A,A*7A
$GPGST,043028.00,19,,,,8.3,5.8,14*7F
$GPZDA,043028.00,26,02,2016,00,00*68
$GPRMC,043029.00,A,4738.42409,N,12207.83492,W,21.259,0.63,260216,,,A*48
$GPVTG,0.63,T,,M,21.259,N,39.393,K,A*36
$GPGGA,043029.00,4738.42409,N,12207.83492,W,1,07,0.84,111.0,M,-18.7,M,,*6A
$GPGSA,A,3,17,28,24,06,01,12,15,,,,,,1.93,0.84,1.73*0A
$GPGSV,4,1,13,01,15,037,31,02,03,183,,06,28,154,31,12,18,282,33*7A
$GPGSV,4,2,13,13,,,30,15,21,253,19,17,70,063,37,19,74,203,41*48
$GPGSV,4,3,13,24,43,301,38,28,40,085,38,30,05,144,15*4F
$GPGLL,4738.42409,N,12207.83492,W,043029.00,A,A*76
$GPGSV,4,4,13*7B
$GPGST,043029.00,30,,,,7.2,4.7,13*72
$GPZDA,043029.00,26,02,2016,00,00*69
$GPRMC,043030.00,A,4738.42992,N,12207.83514,W,21.716,0.17,260216,,,A*4D
$GPVTG,0.17,T,,M,21.716,N,40.239,K,A*34
$GPGGA,043030.00,4738.42992,N,12207.83514,W,1,07,0.84,110.2,M,-18.7,M,,*61
$GPGSA,A,3,17,28,24,06,01,12,15,,,,,,1.93,0.84,1.73*0A
$GPGSV,4,1,13,01,15,037,35,02,03,183,,06,28,154,31,12,18,282,28*74
$GPGSV,4,2,13,13,,,23,15,21,253,22,17,70,063,37,19,74,203,41*42
$GPGSV,4,3,13,24,43,301,38,28,40,085,38,30,05,144,16*4C
$GPGSV,4,4,13*7B
$GPGLL,4738.42992,N,12207.83514,W,043030.00,A,A*7E
$GPGST,043030.00,25,,,,5.8,4.1,11*72
$GPZDA,043030.00,26,02,2016,00,00*61
$GPRMC,043031.00,A,4738.43611,N,12207.83499,W,22.237,0.07,260216,,,A*49
$GPVTG,0.07,T,,M,22.237,N,41.206,K,A*3D
$GPGGA,043031.00,4738.43611,N,12207.83499,W,1,07,0.84,109.5,M,-18.7,M,,*6E
$GPGSA,A,3,17,28,24,06,01,12,15,,,,,,1.93,0.84,1.73*0A
$GPGSV,4,1,13,01,15,037,31,02,03,183,,06,28,154,31,12,18,282,21*79
$GPGSV,4,2,13,13,,,30,15,20,252,22,17,70,063,37,19,74,203,41*40
$GPGSV,4,3,13,24,43,301,39,28,40,085,38,30,05,144,17*4C
$GPGSV,4,4,13*7B
$GPGLL,4738.43611,N,12207.83499,W,043031.00,A,A*7E
$GPGST,043031.00,32,,,,5.2,3.6,11*7F
$GPZDA,043031.00,26,02,2016,00,00*60
$GPRMC,043032.00,A,4738.44245,N,12207.83505,W,22.833,0.37,260216,,,A*41
$GPVTG,0.37,T,,M,22.833,N,42.309,K,A*3D
$GPGGA,043032.00,4738.44245,N,12207.83505,W,1,07,0.84,109.0,M,-18.7,M,,*6E
$GPGSA,A,3,17,28,24,06,01,12,15,,,,,,1.93,0.84,1.73*0A
$GPGSV,4,1,13,01,15,037,35,02,03,183,,06,28,154,32,12,18,282,34*7A
$GPGSV,4,2,13,13,,,29,15,20,252,25,17,70,063,37,19,74,203,41*4F
$GPGSV,4,3,13,24,43,301,39,28,40,085,35,30,05,144,17*41
$GPGSV,4,4,13*7B
$GPGLL,4738.44245,N,12207.83505,W,043032.00,A,A*7B
$GPGST,043032.00,25,,,,4.9,3.4,10*73
$GPZDA,043032.00,26,02,2016,00,00*63
$GPRMC,043033.00,A,4738.44870,N,12207.83522,W,23.156,0.34,260216,,,A*41
$GPVTG,0.34,T,,M,23.156,N,42.908,K,A*3E
$GPGGA,043033.00,4738.44870,N,12207.83522,W,1,07,0.84,108.8,M,-18.7,M,,*6F
$GPGSA,A,3,17,28,24,06,01,12,15,,,,,,1.93,0.84,1.73*0A
$GPGSV,4,1,13,01,15,037,31,02,03,183,,06,28,154,31,12,18,282,30*79
$GPGSV,4,2,13,13,,,26,15,20,252,23,17,69,062,38,19,74,203,41*40
$GPGSV,4,3,13,24,43,301,33,28,40,085,38,30,05,144,17*46
$GPGSV,4,4,13*7B
$GPGST,043033.00,27,,,,4.7,3.3,9.9*56
$GPGLL,4738.44870,N,12207.83522,W,043033.00,A,A*73
$GPZDA,043033.00,26,02,2016,00,00*62
$GPRMC,043034.00,A,4738.45513,N,12207.83532,W,23.053,0.18,260216,,,A*44
$GPVTG,0.18,T,,M,23.053,N,42.717,K,A*34
$GPGGA,043034.00,4738.45513,N,12207.83532,W,1,07,0.84,108.3,M,-18.7,M,,*6B
$GPGSA,A,3,17,28,24,06,01,12,15,,,,,,1.93,0.84,1.73*0A
$GPGSV,4,1,13,01,15,037,34,02,03,183,,06,28,154,27,12,18,282,29*73
$GPGSV,4,4,13*7B
$GPGSV,4,3,13,24,43,301,39,28,40,085,38,30,05,144,18*43
$GPGSV,4,2,13,13,,,27,15,20,252,23,17,69,062,38,19,74,203,41*41
$GPGLL,4738.45513,N,12207.83532,W,043034.00,A,A*7C
$GPGST,043034.00,27,,,,4.6,3.2,9.5*5D
$GPZDA,043034.00,26,02,2016,00,00*65
$GPRMC,043035.00,A,4738.46079,N,12207.83578,W,19.079,356.78,260216,,,A*46
$GPVTG,356.78,T,,M,19.079,N,35.353,K,A*37
$GPGGA,043035.00,4738.46079,N,12207.83578,W,1,07,0.84,108.6,M,-18.7,M,,*6B
$GPGSA,A,3,17,28,24,06,01,12,15,,,,,,1.93,0.84,1.73*0A
$GPGSV,4,1,13,01,15,037,29,02,03,183,,06,28,154,26,12,18,282,29*7E
$GPGSV,4,2,13,13,,,26,15,20,252,23,17,69,062,35,19,74,203,41*4D
$GPGSV,4,3,13,24,43,301,39,28,40,085,38,30,05,144,20*48
$GPGSV,4,4,13*7B
$GPGLL,4738.46079,N,12207.83578,W,043035.00,A,A*79
$GPGST,043035.00,28,,,,4.6,3.1,9.5*50
$GPZDA,043035.00,26,02,2016,00,00*64
$GPRMC,043036.00,A,4738.46670,N,12207.83590,W,22.340,0.60,260216,,,A*44
$GPVTG,0.60,T,,M,22.340,N,41.397,K,A*34
$GPGGA,043036.00,4738.46670,N,12207.83590,W,1,07,0.90,109.1,M,-18.7,M,,*62
$GPGSA,A,3,17,28,24,06,01,12,15,,,,,,1.96,0.90,1.74*0D
$GPGSV,4,1,13,01,15,037,28,02,03,183,,06,28,154,26,12,18,282,28*7E
$GPGSV,4,2,13,13,,,27,15,20,252,24,17,69,062,38,19,74,203,41*46
$GPGSV,4,3,13,24,43,301,39,28,40,085,37,30,05,144,23*44
$GPGSV,4,4,13*7B
$GPGLL,4738.46670,N,12207.83590,W,043036.00,A,A*73
$GPGST,043036.00,27,,,,4.8,3.0,8.7*50
$GPZDA,043036.00,26,02,2016,00,00*67
$GPRMC,043037.00,A,4738.47271,N,12207.83588,W,21.333,0.22,260216,,,A*49
$GPVTG,0.22,T,,M,21.333,N,39.530,K,A*31
$GPGGA,043037.00,4738.47271,N,12207.83588,W,1,07,1.01,109.1,M,-18.7,M,,*67
$GPGSA,A,3,17,28,24,06,01,12,15,,,,,,2.01,1.01,1.74*09
$GPGSV,4,1,13,01,15,037,27,02,03,183,,06,28,154,31,12,18,282,28*77
$GPGSV,4,2,13,13,,,33,15,20,252,25,17,69,062,37,19,74,203,41*4D
$GPGSV,4,3,13,24,43,301,39,28,40,085,38,30,05,144,24*4C
$GPGSV,4,4,13*7B
$GPGLL,4738.47271,N,12207.83588,W,043037.00,A,A*7F
$GPGST,043037.00,25,,,,5.2,2.9,8.5*52
$GPZDA,043037.00,26,02,2016,00,00*66
$GPRMC,043038.00,A,4738.47842,N,12207.83603,W,20.256,358.23,260216,,,A*40
$GPVTG,358.23,T,,M,20.256,N,37.534,K,A*37
$GPGGA,043038.00,4738.47842,N,12207.83603,W,1,07,1.01,109.6,M,-18.7,M,,*65
$GPGSA,A,3,17,28,24,06,01,12,15,,,,,,2.01,1.01,1.74*09
$GPGSV,4,1,13,01,15,037,26,02,03,183,,06,28,154,31,12,18,282,35*7A
$GPGSV,4,2,13,13,,,33,15,20,252,24,17,69,062,32,19,74,203,41*49
$GPGSV,4,3,13,24,43,301,40,28,40,085,37,30,05,144,22*4B
$GPGSV,4,4,13*7B
$GPGLL,4738.47842,N,12207.83603,W,043038.00,A,A*7A
$GPGST,043038.00,26,,,,5.6,3.0,8.4*53
$GPZDA,043038.00,26,02,2016,00,00*69
$GPRMC,043039.00,A,4738.48351,N,12207.83632,W,19.456,358.71,260216,,,A*4E
$GPVTG,358.71,T,,M,19.456,N,36.052,K,A*38
$GPGGA,043039.00,4738.48351,N,12207.83632,W,1,07,0.84,109.8,M,-18.7,M,,*62
$GPGSA,A,3,17,28,24,06,01,12,15,,,,,,1.93,0.84,1.73*0A
$GPGSV,4,1,13,01,15,037,26,02,03,183,,06,28,154,26,12,18,282,31*78
$GPGSV,4,2,13,13,,,28,15,20,252,24,17,69,062,37,19,74,203,41*46
$GPGSV,4,3,13,24,43,301,39,28,40,085,31,30,05,144,20*41
$GPGSV,4,4,13*7B
$GPGST,043039.00,31,,,,5.9,3.2,8.3*5E
$GPZDA,043039.00,26,02,2016,00,00*68
$GPGLL,4738.48351,N,12207.83632,W,043039.00,A,A*7F
$GPRMC,043040.00,A,4738.48959,N,12207.83629,W,21.208,359.71,260216,,,A*4F
$GPVTG,359.71,T,,M,21.208,N,39.299,K,A*35
$GPGGA,043040.00,4738.48959,N,12207.83629,W,1,07,0.84,109.9,M,-18.7,M,,*65
$GPGSA,A,3,17,28,24,06,01,12,15,,,,,,1.93,0.84,1.73*0A
$GPGSV,4,1,13,01,15,037,28,02,03,183,,06,28,154,24,12,18,282,35*70
$GPGSV,4,2,13,13,,,33,15,20,252,24,17,69,062,28,19,74,203,39*4D
$GPGSV,4,3,13,24,44,301,39,28,40,085,30,30,05,144,19*4D
$GPGSV,4,4,13*7B
$GPGLL,4738.48959,N,12207.83629,W,043040.00,A,A*79
$GPGST,043040.00,30,,,,6.1,3.4,8.3*5C
$GPZDA,043040.00,26,02,2016,00,00*66
$GPRMC,043041.00,A,4738.49598,N,12207.83630,W,21.595,359.86,260216,,,A*4D
$GPVTG,359.86,T,,M,21.595,N,40.016,K,A*35
$GPGGA,043041.00,4738.49598,N,12207.83630,W,1,07,0.90,109.6,M,-18.7,M,,*66
$GPGSA,A,3,17,28,24,06,01,12,15,,,,,,1.96,0.90,1.74*0D
$GPGSV,4,1,13,01,15,037,32,02,03,183,,06,28,154,24,12,18,282,24*7B
$GPGSV,4,2,13,13,,,33,15,20,252,25,17,69,062,34,19,74,203,39*41
$GPGSV,4,3,13,24,44,301,40,28,40,085,32,30,05,144,19*41
$GPGSV,4,4,13*7B
$GPGST,043041.00,31,,,,6.2,3.6,8.4*5A
$GPGLL,4738.49598,N,12207.83630,W,043041.00,A,A*70
$GPZDA,043041.00,26,02,2016,00,00*67
$GPRMC,043042.00,A,4738.50215,N,12207.83630,W,20.950,358.59,260216,,,A*43
$GPVTG,358.59,T,,M,20.950,N,38.820,K,A*30
$GPGGA,043042.00,4738.50215,N,12207.83630,W,1,07,0.90,109.5,M,-18.7,M,,*6C
$GPGSA,A,3,17,28,24,06,01,12,15,,,,,,1.96,0.90,1.74*0D
$GPGSV,4,1,13,01,15,037,27,02,03,183,,06,28,154,26,12,18,282,26*7F
$GPGSV,4,2,13,13,,,35,15,20,252,25,17,69,062,37,19,74,203,40*4A
$GPGSV,4,3,13,24,44,301,40,28,40,085,38,30,05,144,19*4B
$GPGSV,4,4,13*7B
$GPGLL,4738.50215,N,12207.83630,W,043042.00,A,A*79
$GPZDA,043042.00,26,02,2016,00,00*64
$GPGST,043042.00,27,,,,6.4,3.5,8.5*5A
$GPRMC,043043.00,A,4738.50847,N,12207.83662,W,21.765,358.90,260216,,,A*44
$GPVTG,358.90,T,,M,21.765,N,40.331,K,A*38
$GPGGA,043043.00,4738.50847,N,12207.83662,W,1,07,0.90,109.5,M,-18.7,M,,*67
$GPGSA,A,3,17,28,24,06,01,12,15,,,,,,1.96,0.90,1.74*0D
$GPGSV,4,1,13,01,15,037,27,02,03,183,,06,28,154,24,12,18,282,32*78
$GPGSV,4,2,13,13,,,33,15,20,252,25,17,69,062,37,19,74,203,40*4C
$GPGSV,4,3,13,24,44,301,38,28,40,085,38,30,05,144,19*44
$GPGSV,4,4,13*7B
$GPGLL,4738.50847,N,12207.83662,W,043043.00,A,A*72
$GPGST,043043.00,27,,,,6.6,3.3,8.5*5F
$GPZDA,043043.00,26,02,2016,00,00*65
$GPVTG,359.43,T,,M,21.503,N,39.845,K,A*33
$GPRMC,043044.00,A,4738.51464,N,12207.83675,W,21.503,359.43,260216,,,A*44
$GPGGA,043044.00,4738.51464,N,12207.83675,W,1,07,0.84,109.9,M,-18.7,M,,*63
$GPGSA,A,3,17,28,24,06,01,12,15,,,,,,1.93,0.84,1.73*0A
$GPGSV,4,1,13,01,15,037,24,02,03,183,,06,28,154,24,12,18,282,32*7B
$GPGSV,4,2,13,13,,,27,15,20,252,29,17,69,062,38,19,74,203,40*4A
$GPGSV,4,3,13,24,44,301,38,28,39,085,29,30,05,144,19*4A
$GPGSV,4,4,13*7B
$GPGLL,4738.51464,N,12207.83675,W,043044.00,A,A*7F
$GPGST,043044.00,30,,,,6.6,3.5,8.7*5A
$GPZDA,043044.00,26,02,2016,00,00*62
$GPRMC,043045.00,A,4738.52066,N,12207.83695,W,19.771,358.10,260216,,,A*45
$GPVTG,358.10,T,,M,19.771,N,36.635,K,A*3E
$GPGGA,043045.00,4738.52066,N,12207.83695,W,1,07,0.84,110.5,M,-18.7,M,,*6D
$GPGSA,A,3,17,28,24,06,01,12,15,,,,,,1.93,0.84,1.73*0A
$GPGSV,4,2,13,13,,,26,15,20,252,22,17,69,062,37,19,74,203,40*4F
$GPGSV,4,3,13,24,44,301,40,28,39,085,36,30,05,144,19*4B
$GPGSV,4,4,13*7B
$GPGSV,4,1,13,01,15,037,23,02,03,183,,06,28,154,30,12,18,282,33*78
$GPGLL,4738.52066,N,12207.83695,W,043045.00,A,A*75
$GPGST,043045.00,29,,,,6.2,3.5,8.8*58
$GPZDA,043045.00,26,02,2016,00,00*63
$GPRMC,043046.00,A,4738.52565,N,12207.83753,W,17.258,354.22,260216,,,A*46
$GPVTG,354.22,T,,M,17.258,N,31.979,K,A*33
$GPGGA,043046.00,4738.52565,N,12207.83753,W,1,07,0.84,111.3,M,-18.7,M,,*64
$GPGSA,A,3,17,28,24,06,01,12,15,,,,,,1.93,0.84,1.73*0A
$GPGSV,4,1,13,01,15,037,21,02,03,183,,06,28,154,20,12,18,282,33*7B
$GPGSV,4,2,13,13,,,31,15,20,252,24,17,69,062,37,19,74,203,42*4D
$GPGSV,4,3,13,24,44,301,41,28,39,085,28,30,04,144,17*4A
$GPGSV,4,4,13*7B
$GPGST,043046.00,40,,,,6.0,3.5,9.1*5E
$GPGLL,4738.52565,N,12207.83753,W,043046.00,A,A*7B
$GPZDA,043046.00,26,02,2016,00,00*60
$GPRMC,043047.00,A,4738.53106,N,12207.83789,W,14.031,348.78,260216,,,A*4C
$GPVTG,348.78,T,,M,14.031,N,25.999,K,A*34
$GPGGA,043047.00,4738.53106,N,12207.83789,W,1,07,0.92,111.1,M,-18.7,M,,*67
$GPGSA,A,3,17,28,24,06,01,12,15,,,,,,2.01,0.92,1.78*0E
$GPGSV,4,1,13,01,15,037,22,02,03,183,,06,28,154,24,12,18,282,32*7D
$GPGSV,4,2,13,13,,,29,15,20,252,26,17,69,062,37,19,74,203,41*45
$GPGSV,4,3,13,24,44,301,41,28,39,085,28,30,04,144,16*4B
$GPGSV,4,4,13*7B
$GPGLL,4738.53106,N,12207.83789,W,043047.00,A,A*7D
$GPGST,043047.00,29,,,,5.3,3.5,8.0*50
$GPZDA,043047.00,26,02,2016,00,00*61
$GPRMC,043048.00,A,4738.53438,N,12207.83918,W,10.485,344.53,260216,,,A*47
$GPVTG,344.53,T,,M,10.485,N,19.429,K,A*37
$GPGGA,043048.00,4738.53438,N,12207.83918,W,1,06,0.92,111.3,M,-18.7,M,,*65
$GPGSA,A,3,17,28,24,01,12,15,,,,,,,2.00,0.92,1.78*09
$GPGSV,4,1,13,01,15,037,29,02,03,183,,06,28,154,,12,18,282,32*70
$GPGSV,4,2,13,13,,,29,15,20,252,26,17,69,062,34,19,74,203,41*46
$GPGSV,4,3,13,24,44,301,38,28,39,085,29,30,04,144,15*47
$GPGSV,4,4,13*7B
$GPGLL,4738.53438,N,12207.83918,W,043048.00,A,A*7C
$GPGST,043048.00,22,,,,5.1,3.7,7.8*53
$GPZDA,043048.00,26,02,2016,00,00*6E
$GPRMC,043049.00,A,4738.53655,N,12207.83995,W,6.444,343.28,260216,,,A*7B
$GPVTG,343.28,T,,M,6.444,N,11.941,K,A*0D
$GPGGA,043049.00,4738.53655,N,12207.83995,W,1,07,0.92,111.3,M,-18.7,M,,*69
$GPGSA,A,3,17,28,24,06,01,12,15,,,,,,2.00,0.92,1.78*0F
$GPGSV,4,1,13,01,15,037,28,02,03,183,,06,28,154,27,12,18,282,27*70
$GPGSV,4,2,13,13,,,28,15,20,252,26,17,69,062,37,19,74,203,40*45
$GPGSV,4,3,13,24,44,301,41,28,39,085,28,30,04,144,15*48
$GPGSV,4,4,13*7B
$GPGLL,4738.53655,N,12207.83995,W,043049.00,A,A*71
$GPGST,043049.00,27,,,,5.2,3.8,7.7*54
$GPZDA,043049.00,26,02,2016,00,00*6F
$GPRMC,043050.00,A,4738.53795,N,12207.83940,W,4.206,359.92,260216,,,A*7E
$GPVTG,359.92,T,,M,4.206,N,7.794,K,A*34
$GPGGA,043050.00,4738.53795,N,12207.83940,W,1,07,0.84,111.3,M,-18.7,M,,*63
$GPGSA,A,3,17,28,24,06,01,12,15,,,,,,1.93,0.84,1.73*0A
$GPGSV,4,1,13,01,15,037,19,02,03,183,,06,28,154,26,12,18,282,26*72
$GPGSV,4,2,13,13,,,29,15,20,252,26,17,69,062,37,19,74,203,41*45
$GPGSV,4,3,13,24,44,301,41,28,39,085,34,30,04,144,15*45
$GPGSV,4,4,13*7B
$GPGLL,4738.53795,N,12207.83940,W,043050.00,A,A*7C
$GPZDA,043050.00,26,02,2016,00,00*67
$GPGST,043050.00,37,,,,5.5,3.7,7.5*57
$GPRMC,043051.00,A,4738.53910,N,12207.83920,W,3.284,10.36,260216,,,A*47
$GPVTG,10.36,T,,M,3.284,N,6.086,K,A*0C
$GPGGA,043051.00,4738.53910,N,12207.83920,W,1,07,0.84,111.2,M,-18.7,M,,*66
$GPGSA,A,3,17,28,24,06,01,12,15,,,,,,1.93,0.84,1.73*0A
$GPGSV,4,1,13,01,15,037,20,02,03,183,,06,28,154,27,12,18,282,26*79
$GPGSV,4,2,13,13,,,29,15,20,252,24,17,69,062,38,19,74,203,40*49
$GPGSV,4,3,13,24,44,301,40,28,39,085,34,30,04,144,13*42
$GPGSV,4,4,13*7B
$GPGLL,4738.53910,N,12207.83920,W,043051.00,A,A*78
$GPGST,043051.00,34,,,,5.6,3.5,7.4*55
$GPZDA,043051.00,26,02,2016,00,00*66
$GPRMC,043052.00,A,4738.53951,N,12207.83925,W,0.368,10.10,260216,,,A*40
$GPVTG,10.10,T,,M,0.368,N,0.681,K,A*0F
$GPGGA,043052.00,4738.53951,N,12207.83925,W,1,07,0.90,110.9,M,-18.7,M,,*6A
$GPGSA,A,3,17,28,24,06,01,12,15,,,,,,1.96,0.90,1.74*0D
$GPGSV,4,1,13,01,15,037,20,02,03,183,,06,28,154,27,12,18,282,28*77
$GPGSV,4,2,13,13,,,30,15,20,252,24,17,69,062,38,19,74,203,40*41
$GPGSV,4,3,13,24,44,301,41,28,39,085,35,30,04,144,10*41
$GPGSV,4,4,13*7B
$GPGLL,4738.53951,N,12207.83925,W,043052.00,A,A*7B
$GPGST,043052.00,35,,,,6.0,3.4,7.3*54
$GPZDA,043052.00,26,02,2016,00,00*65
$GPRMC,043053.00,A,4738.53953,N,12207.83934,W,0.418,7.44,260216,,,A*74
$GPVTG,7.44,T,,M,0.418,N,0.775,K,A*32
$GPGGA,043053.00,4738.53953,N,12207.83934,W,1,07,1.07,111.0,M,-18.7,M,,*6E
$GPGSA,A,3,17,28,24,06,01,12,15,,,,,,2.11,1.07,1.82*07
$GPGSV,4,1,13,01,15,037,21,02,03,183,,06,28,154,25,12,18,282,23*7F
$GPGSV,4,2,13,13,,,32,15,20,252,21,17,69,062,39,19,74,203,40*47
$GPGSV,4,3,13,24,44,301,39,28,39,085,34,30,04,144,13*4C
$GPGSV,4,4,13*7B
$GPGLL,4738.53953,N,12207.83934,W,043053.00,A,A*78
$GPGST,043053.00,38,,,,6.5,3.3,7.1*58
$GPZDA,043053.00,26,02,2016,00,00*64
$GPRMC,043054.00,A,4738.53976,N,12207.83954,W,1.512,6.36,260216,,,A*7C
$GPVTG,6.36,T,,M,1.512,N,2.801,K,A*32
$GPGGA,043054.00,4738.53976,N,12207.83954,W,1,07,1.07,111.2,M,-18.7,M,,*6A
$GPGSV,4,1,13,01,15,037,22,02,03,183,,06,28,154,24,12,18,282,23*7D
$GPGSA,A,3,17,28,24,06,01,12,15,,,,,,2.11,1.07,1.82*07
$GPGSV,4,2,13,13,,,31,15,20,252,23,17,69,062,37,19,74,203,42*4A
$GPGSV,4,3,13,24,44,301,40,28,39,085,38,30,04,144,15*48
$GPGSV,4,4,13*7B
$GPGLL,4738.53976,N,12207.83954,W,043054.00,A,A*7E
$GPGST,043054.00,39,,,,7.1,3.2,7.0*5B
$GPZDA,043054.00,26,02,2016,00,00*63
$GPRMC,043055.00,A,4738.54130,N,12207.83932,W,4.737,0.40,260216,,,A*77
$GPVTG,0.40,T,,M,4.737,N,8.778,K,A*3E
$GPGGA,043055.00,4738.54130,N,12207.83932,W,1,07,0.90,111.3,M,-18.7,M,,*68
$GPGSA,A,3,17,28,24,06,01,12,15,,,,,,1.96,0.90,1.74*0D
$GPGSV,4,1,13,01,15,037,31,02,03,183,,06,28,154,24,12,18,282,24*78
$GPGSV,4,2,13,13,,,26,15,20,252,28,17,69,062,36,19,74,203,42*46
$GPGSV,4,3,13,24,44,301,40,28,39,085,39,30,04,144,15*49
$GPGSV,4,4,13*7B
$GPGLL,4738.54130,N,12207.83932,W,043055.00,A,A*72
$GPGST,043055.00,33,,,,7.2,3.0,6.8*58
$GPZDA,043055.00,26,02,2016,00,00*62
$GPRMC,043056.00,A,4738.54393,N,12207.83894,W,7.579,0.38,260216,,,A*76
$GPVTG,0.38,T,,M,7.579,N,14.044,K,A*0F
$GPGGA,043056.00,4738.54393,N,12207.83894,W,1,07,0.90,111.4,M,-18.7,M,,*6A
$GPGSA,A,3,17,28,24,06,01,12,15,,,,,,1.96,0.90,1.74*0D
$GPGSV,4,1,13,01,15,037,26,02,03,183,,06,28,154,24,12,18,282,26*7C
$GPGSV,4,2,13,13,,,25,15,20,252,21,17,69,062,36,19,74,203,42*4C
$GPGSV,4,3,13,24,44,301,41,28,39,085,41,30,04,144,14*46
$GPGSV,4,4,13*7B
$GPGLL,4738.54393,N,12207.83894,W,043056.00,A,A*77
$GPGST,043056.00,41,,,,7.4,3.0,6.7*57
$GPZDA,043056.00,26,02,2016,00,00*61
$GPRMC,043057.00,A,4738.54809,N,12207.83852,W,10.120,353.63,260216,,,A*40
$GPVTG,353.63,T,,M,10.120,N,18.753,K,A*37
$GPGGA,043057.00,4738.54809,N,12207.83852,W,1,07,0.90,111.6,M,-18.7,M,,*6B
$GPGSA,A,3,17,28,24,06,01,12,15,,,,,,1.96,0.90,1.74*0D
$GPGSV,4,1,13,01,15,037,26,02,03,183,,06,28,154,31,12,18,282,34*7B
$GPGSV,4,2,13,13,,,35,15,20,252,22,17,69,062,36,19,74,203,42*4E
$GPGSV,4,3,13,24,44,301,42,28,39,085,39,30,04,144,11*4F
$GPGSV,4,4,13*7B
$GPGLL,4738.54809,N,12207.83852,W,043057.00,A,A*74
$GPGST,043057.00,29,,,,6.4,2.9,6.6*50
$GPZDA,043057.00,26,02,2016,00,00*60
$GPRMC,043058.00,A,4738.55111,N,12207.83962,W,9.416,327.87,260216,,,A*7D
$GPVTG,327.87,T,,M,9.416,N,17.447,K,A*0F
$GPGGA,043058.00,4738.55111,N,12207.83962,W,1,07,0.84,112.0,M,-18.7,M,,*67
$GPGSA,A,3,17,28,24,06,01,12,15,,,,,,1.93,0.84,1.73*0A
$GPGSV,4,1,13,01,15,037,24,02,03,183,,06,28,154,26,12,18,282,34*7F
$GPGSV,4,2,13,13,,,29,15,20,252,30,17,69,062,37,19,74,203,40*43
$GPGSV,4,3,13,24,44,301,42,28,39,085,36,30,04,144,11*40
$GPGSV,4,4,13*7B
$GPGST,043058.00,27,,,,5.7,2.8,6.6*50
$GPZDA,043058.00,26,02,2016,00,00*6F
$GPGLL,4738.55111,N,12207.83962,W,043058.00,A,A*78
$GPRMC,043059.00,A,4738.55326,N,12207.84236,W,10.577,306.76,260216,,,A*44
$GPVTG,306.76,T,,M,10.577,N,19.598,K,A*31
$GPGGA,043059.00,4738.55326,N,12207.84236,W,1,07,0.90,112.1,M,-18.7,M,,*69
$GPGSA,A,3,17,28,24,06,01,12,15,,,,,,1.96,0.90,1.74*0D
$GPGSV,4,1,13,01,15,037,26,02,03,183,,06,28,154,32,12,18,282,30*7C
$GPGSV,4,2,13,13,,,26,15,20,252,38,17,69,062,39,19,74,203,38*45
$GPGSV,4,3,13,24,44,301,36,28,39,085,38,30,04,144,12*4E
$GPGSV,4,4,13*7B
$GPGLL,4738.55326,N,12207.84236,W,043059.00,A,A*72
$GPGST,043059.00,18,,,,5.2,2.7,6.4*55
$GPZDA,043059.00,26,02,2016,00,00*6E
$GPRMC,043100.00,A,4738.55450,N,12207.84655,W,12.216,285.08,260216,,,A*4F
$GPVTG,285.08,T,,M,12.216,N,22.636,K,A*3F
